{
  "data": {
    "80109_0": {
      "routes": {},
      "lon": "-118.21102",
      "title": "Del Amo Station",
      "shortTitle": "Del Amo",
      "stopId": "80109",
      "tag": "80109_0",
      "lat": "33.8482199"
    },
    "80110_0": {
      "routes": {},
      "lon": "-118.2225",
      "title": "Artesia Station",
      "shortTitle": "Artesia",
      "stopId": "80110",
      "tag": "80110_0",
      "lat": "33.8760799"
    },
    "80111_0": {
      "routes": {},
      "lon": "-118.22425",
      "title": "Compton Station",
      "shortTitle": "Compton",
      "stopId": "80111",
      "tag": "80111_0",
      "lat": "33.8974899"
    },
    "80101_0": {
      "routes": {},
      "lon": "-118.19292",
      "title": "Downtown Long Beach Station",
      "shortTitle": "Long Bch",
      "stopId": "80101",
      "tag": "80101_0",
      "lat": "33.7680699"
    },
    "80102_0": {
      "routes": {},
      "lon": "-118.1937",
      "title": "Pacific Ave Station",
      "shortTitle": "Pacific",
      "stopId": "80102",
      "tag": "80102_0",
      "lat": "33.7722599"
    },
    "80105_0": {
      "routes": {},
      "lon": "-118.18938",
      "title": "Anaheim Street Station",
      "shortTitle": "Anaheim",
      "stopId": "80105",
      "tag": "80105_0",
      "lat": "33.7818299"
    },
    "80106_0": {
      "routes": {},
      "lon": "-118.18938",
      "title": "Pacific Coast Hwy Station",
      "shortTitle": "PCH",
      "stopId": "80106",
      "tag": "80106_0",
      "lat": "33.7890899"
    },
    "80107_0": {
      "routes": {},
      "lon": "-118.18983",
      "title": "Willow Street Station",
      "shortTitle": "Willow",
      "stopId": "80107",
      "tag": "80107_0",
      "lat": "33.8070799"
    },
    "80108_0": {
      "routes": {},
      "lon": "-118.19609",
      "title": "Wardlow Station",
      "shortTitle": "Wardlow",
      "stopId": "80108",
      "tag": "80108_0",
      "lat": "33.8198599"
    },
    "80111_1": {
      "routes": {},
      "lon": "-118.22425",
      "title": "Compton Station",
      "shortTitle": "Compton",
      "stopId": "80111",
      "tag": "80111_1",
      "lat": "33.8974899"
    },
    "80110_1": {
      "routes": {},
      "lon": "-118.2225",
      "title": "Artesia Station",
      "shortTitle": "Artesia",
      "stopId": "80110",
      "tag": "80110_1",
      "lat": "33.8760799"
    },
    "80109_1": {
      "routes": {},
      "lon": "-118.21102",
      "title": "Del Amo Station",
      "shortTitle": "Del Amo",
      "stopId": "80109",
      "tag": "80109_1",
      "lat": "33.8482199"
    },
    "80108_1": {
      "routes": {},
      "lon": "-118.19609",
      "title": "Wardlow Station",
      "shortTitle": "Wardlow",
      "stopId": "80108",
      "tag": "80108_1",
      "lat": "33.8198599"
    },
    "80107_1": {
      "routes": {},
      "lon": "-118.18983",
      "title": "Willow Street Station",
      "shortTitle": "Willow",
      "stopId": "80107",
      "tag": "80107_1",
      "lat": "33.8070799"
    },
    "80106_1": {
      "routes": {},
      "lon": "-118.18938",
      "title": "Pacific Coast Hwy Station",
      "shortTitle": "PCH",
      "stopId": "80106",
      "tag": "80106_1",
      "lat": "33.7890899"
    },
    "80105_1": {
      "routes": {},
      "lon": "-118.18938",
      "title": "Anaheim Street Station",
      "shortTitle": "Anaheim",
      "stopId": "80105",
      "tag": "80105_1",
      "lat": "33.7818299"
    },
    "80154_1": {
      "routes": {},
      "lon": "-118.18941",
      "title": "5th Street Station",
      "shortTitle": "5th St",
      "stopId": "80154",
      "tag": "80154_1",
      "lat": "33.7735999"
    },
    "80153_1": {
      "routes": {},
      "lon": "-118.18936",
      "title": "1st Street Station",
      "shortTitle": "1st St",
      "stopId": "80153",
      "tag": "80153_1",
      "lat": "33.7687399"
    },
    "80101_1": {
      "routes": {},
      "lon": "-118.19292",
      "title": "Downtown Long Beach Station",
      "shortTitle": "Long Bch",
      "stopId": "80101",
      "tag": "80101_1",
      "lat": "33.7680699"
    },
    "80201_0": {
      "routes": {},
      "lon": "-118.37681",
      "title": "North Hollywood Station",
      "shortTitle": "NoHo",
      "stopId": "80201",
      "tag": "80201_0",
      "lat": "34.1684999"
    },
    "80202_0": {
      "routes": {},
      "lon": "-118.3627",
      "title": "Universal / Studio City Station",
      "shortTitle": "Univ City",
      "stopId": "80202",
      "tag": "80202_0",
      "lat": "34.1399999"
    },
    "80203_0": {
      "routes": {},
      "lon": "-118.33855",
      "title": "Hollywood / Highland Station",
      "shortTitle": "Highlnd",
      "stopId": "80203",
      "tag": "80203_0",
      "lat": "34.1015499"
    },
    "80204_0": {
      "routes": {},
      "lon": "-118.32518",
      "title": "Hollywood / Vine Station",
      "shortTitle": "HW/Vine",
      "stopId": "80204",
      "tag": "80204_0",
      "lat": "34.1016299"
    },
    "80205_0": {
      "routes": {},
      "lon": "-118.30812",
      "title": "Hollywood / Western Station",
      "shortTitle": "HW/Wstrn",
      "stopId": "80205",
      "tag": "80205_0",
      "lat": "34.1017399"
    },
    "80206_0": {
      "routes": {},
      "lon": "-118.29176",
      "title": "Vermont / Sunset Station",
      "shortTitle": "Sunset",
      "stopId": "80206",
      "tag": "80206_0",
      "lat": "34.0977099"
    },
    "80207_0": {
      "routes": {},
      "lon": "-118.29173",
      "title": "Vermont / Santa Monica Station",
      "shortTitle": "Ver/SaMo",
      "stopId": "80207",
      "tag": "80207_0",
      "lat": "34.0899099"
    },
    "80208_0": {
      "routes": {},
      "lon": "-118.29169",
      "title": "Vermont / Beverly Station",
      "shortTitle": "Beverly",
      "stopId": "80208",
      "tag": "80208_0",
      "lat": "34.0765299"
    },
    "80209_0": {
      "routes": {},
      "lon": "-118.29008",
      "title": "Wilshire / Vermont Station",
      "shortTitle": "Wil/Ver",
      "stopId": "80209",
      "tag": "80209_0",
      "lat": "34.0626999"
    },
    "80210_0": {
      "routes": {},
      "lon": "-118.27488",
      "title": "Westlake / Macarthur Park Station",
      "shortTitle": "Westlake",
      "stopId": "80210",
      "tag": "80210_0",
      "lat": "34.0563699"
    },
    "80211_0": {
      "routes": {},
      "lon": "-118.25868",
      "title": "7th Street / Metro Center Station - Metro Red & Purple Lines",
      "shortTitle": "7MC",
      "stopId": "80211",
      "tag": "80211_0",
      "lat": "34.0486299"
    },
    "80212_0": {
      "routes": {},
      "lon": "-118.25126",
      "title": "Pershing Square Station",
      "shortTitle": "Persh Sq",
      "stopId": "80212",
      "tag": "80212_0",
      "lat": "34.0493199"
    },
    "80213_0": {
      "routes": {},
      "lon": "-118.24606",
      "title": "Civic Center / Grand Park Station",
      "shortTitle": "Civic Ctr",
      "stopId": "80213",
      "tag": "80213_0",
      "lat": "34.0548999"
    },
    "80214_0": {
      "routes": {},
      "lon": "-118.23425",
      "title": "Union Station - Metro Red & Purple Lines",
      "shortTitle": "UnionSta",
      "stopId": "80214",
      "tag": "80214_0",
      "lat": "34.0561999"
    },
    "80214_1": {
      "routes": {},
      "lon": "-118.23425",
      "title": "Union Station - Metro Red & Purple Lines",
      "shortTitle": "UnionSta",
      "stopId": "80214",
      "tag": "80214_1",
      "lat": "34.0561999"
    },
    "80213_1": {
      "routes": {},
      "lon": "-118.24606",
      "title": "Civic Center / Grand Park Station",
      "shortTitle": "Civic Ctr",
      "stopId": "80213",
      "tag": "80213_1",
      "lat": "34.0548999"
    },
    "80212_1": {
      "routes": {},
      "lon": "-118.25126",
      "title": "Pershing Square Station",
      "shortTitle": "Persh Sq",
      "stopId": "80212",
      "tag": "80212_1",
      "lat": "34.0493199"
    },
    "80211_1": {
      "routes": {},
      "lon": "-118.25868",
      "title": "7th Street / Metro Center Station - Metro Red & Purple Lines",
      "shortTitle": "7MC",
      "stopId": "80211",
      "tag": "80211_1",
      "lat": "34.0486299"
    },
    "80210_1": {
      "routes": {},
      "lon": "-118.27488",
      "title": "Westlake / Macarthur Park Station",
      "shortTitle": "Westlake",
      "stopId": "80210",
      "tag": "80210_1",
      "lat": "34.0563699"
    },
    "80209_1": {
      "routes": {},
      "lon": "-118.29008",
      "title": "Wilshire / Vermont Station",
      "shortTitle": "Wil/Ver",
      "stopId": "80209",
      "tag": "80209_1",
      "lat": "34.0626999"
    },
    "80208_1": {
      "routes": {},
      "lon": "-118.29169",
      "title": "Vermont / Beverly Station",
      "shortTitle": "Beverly",
      "stopId": "80208",
      "tag": "80208_1",
      "lat": "34.0765299"
    },
    "80207_1": {
      "routes": {},
      "lon": "-118.29173",
      "title": "Vermont / Santa Monica Station",
      "shortTitle": "Ver/SaMo",
      "stopId": "80207",
      "tag": "80207_1",
      "lat": "34.0899099"
    },
    "80206_1": {
      "routes": {},
      "lon": "-118.29176",
      "title": "Vermont / Sunset Station",
      "shortTitle": "Sunset",
      "stopId": "80206",
      "tag": "80206_1",
      "lat": "34.0977099"
    },
    "80205_1": {
      "routes": {},
      "lon": "-118.30812",
      "title": "Hollywood / Western Station",
      "shortTitle": "HW/Wstrn",
      "stopId": "80205",
      "tag": "80205_1",
      "lat": "34.1017399"
    },
    "80204_1": {
      "routes": {},
      "lon": "-118.32518",
      "title": "Hollywood / Vine Station",
      "shortTitle": "HW/Vine",
      "stopId": "80204",
      "tag": "80204_1",
      "lat": "34.1016299"
    },
    "80203_1": {
      "routes": {},
      "lon": "-118.33855",
      "title": "Hollywood / Highland Station",
      "shortTitle": "Highlnd",
      "stopId": "80203",
      "tag": "80203_1",
      "lat": "34.1015499"
    },
    "80202_1": {
      "routes": {},
      "lon": "-118.3627",
      "title": "Universal / Studio City Station",
      "shortTitle": "Univ City",
      "stopId": "80202",
      "tag": "80202_1",
      "lat": "34.1399999"
    },
    "80201_1": {
      "routes": {},
      "lon": "-118.37681",
      "title": "North Hollywood Station",
      "shortTitle": "NoHo",
      "stopId": "80201",
      "tag": "80201_1",
      "lat": "34.1684999"
    },
    "80301_0": {
      "routes": {},
      "lon": "-118.3692",
      "title": "Redondo Beach Station",
      "shortTitle": "Redondo",
      "stopId": "80301",
      "tag": "80301_0",
      "lat": "33.8946399"
    },
    "80302_0": {
      "routes": {},
      "lon": "-118.38311",
      "title": "Douglas Station",
      "shortTitle": "Douglas",
      "stopId": "80302",
      "tag": "80302_0",
      "lat": "33.9052999"
    },
    "80303_0": {
      "routes": {},
      "lon": "-118.38654",
      "title": "El Segundo Station",
      "shortTitle": "El Sgndo",
      "stopId": "80303",
      "tag": "80303_0",
      "lat": "33.9160599"
    },
    "80304_0": {
      "routes": {},
      "lon": "-118.38757",
      "title": "Mariposa Station",
      "shortTitle": "Mariposa",
      "stopId": "80304",
      "tag": "80304_0",
      "lat": "33.9231999"
    },
    "80305_0": {
      "routes": {},
      "lon": "-118.37713",
      "title": "Aviation / Lax Station",
      "shortTitle": "Aviation",
      "stopId": "80305",
      "tag": "80305_0",
      "lat": "33.9296199"
    },
    "80306_0": {
      "routes": {},
      "lon": "-118.3516",
      "title": "Hawthorne / Lennox Station",
      "shortTitle": "Haw/Lenx",
      "stopId": "80306",
      "tag": "80306_0",
      "lat": "33.9334099"
    },
    "80307_0": {
      "routes": {},
      "lon": "-118.32655",
      "title": "Crenshaw Station",
      "shortTitle": "Crenshaw",
      "stopId": "80307",
      "tag": "80307_0",
      "lat": "33.9251999"
    },
    "80308_0": {
      "routes": {},
      "lon": "-118.29173",
      "title": "Vermont / Athens Station",
      "shortTitle": "Ver/Ath",
      "stopId": "80308",
      "tag": "80308_0",
      "lat": "33.9286799"
    },
    "80309_0": {
      "routes": {},
      "lon": "-118.2811",
      "title": "Harbor Freeway Station",
      "shortTitle": "Harbor",
      "stopId": "80309",
      "tag": "80309_0",
      "lat": "33.9287099"
    },
    "80310_0": {
      "routes": {},
      "lon": "-118.26522",
      "title": "Avalon Station",
      "shortTitle": "Avalon",
      "stopId": "80310",
      "tag": "80310_0",
      "lat": "33.9274599"
    },
    "80311_0": {
      "routes": {},
      "lon": "-118.23805",
      "title": "Willowbrook - Rosa Parks Station - Metro Green Line",
      "shortTitle": "Willwbrk",
      "stopId": "80311",
      "tag": "80311_0",
      "lat": "33.9282599"
    },
    "80312_0": {
      "routes": {},
      "lon": "-118.20994",
      "title": "Long Beach Blvd Station",
      "shortTitle": "LB Bl",
      "stopId": "80312",
      "tag": "80312_0",
      "lat": "33.9248799"
    },
    "80313_0": {
      "routes": {},
      "lon": "-118.1406",
      "title": "Lakewood Blvd Station",
      "shortTitle": "Lakewood",
      "stopId": "80313",
      "tag": "80313_0",
      "lat": "33.9130699"
    },
    "80314_0": {
      "routes": {},
      "lon": "-118.10472",
      "title": "Norwalk Station",
      "shortTitle": "Norwalk",
      "stopId": "80314",
      "tag": "80314_0",
      "lat": "33.9140299"
    },
    "80314_1": {
      "routes": {},
      "lon": "-118.10472",
      "title": "Norwalk Station",
      "shortTitle": "Norwalk",
      "stopId": "80314",
      "tag": "80314_1",
      "lat": "33.9140299"
    },
    "80313_1": {
      "routes": {},
      "lon": "-118.1406",
      "title": "Lakewood Blvd Station",
      "shortTitle": "Lakewood",
      "stopId": "80313",
      "tag": "80313_1",
      "lat": "33.9130699"
    },
    "80312_1": {
      "routes": {},
      "lon": "-118.20994",
      "title": "Long Beach Blvd Station",
      "shortTitle": "LB Bl",
      "stopId": "80312",
      "tag": "80312_1",
      "lat": "33.9248799"
    },
    "80311_1": {
      "routes": {},
      "lon": "-118.23805",
      "title": "Willowbrook - Rosa Parks Station - Metro Green Line",
      "shortTitle": "Willwbrk",
      "stopId": "80311",
      "tag": "80311_1",
      "lat": "33.9282599"
    },
    "80310_1": {
      "routes": {},
      "lon": "-118.26522",
      "title": "Avalon Station",
      "shortTitle": "Avalon",
      "stopId": "80310",
      "tag": "80310_1",
      "lat": "33.9274599"
    },
    "80309_1": {
      "routes": {},
      "lon": "-118.2811",
      "title": "Harbor Freeway Station",
      "shortTitle": "Harbor",
      "stopId": "80309",
      "tag": "80309_1",
      "lat": "33.9287099"
    },
    "80308_1": {
      "routes": {},
      "lon": "-118.29173",
      "title": "Vermont / Athens Station",
      "shortTitle": "Ver/Ath",
      "stopId": "80308",
      "tag": "80308_1",
      "lat": "33.9286799"
    },
    "80307_1": {
      "routes": {},
      "lon": "-118.32655",
      "title": "Crenshaw Station",
      "shortTitle": "Crenshaw",
      "stopId": "80307",
      "tag": "80307_1",
      "lat": "33.9251999"
    },
    "80306_1": {
      "routes": {},
      "lon": "-118.3516",
      "title": "Hawthorne / Lennox Station",
      "shortTitle": "Haw/Lenx",
      "stopId": "80306",
      "tag": "80306_1",
      "lat": "33.9334099"
    },
    "80305_1": {
      "routes": {},
      "lon": "-118.37713",
      "title": "Aviation / Lax Station",
      "shortTitle": "Aviation",
      "stopId": "80305",
      "tag": "80305_1",
      "lat": "33.9296199"
    },
    "80304_1": {
      "routes": {},
      "lon": "-118.38757",
      "title": "Mariposa Station",
      "shortTitle": "Mariposa",
      "stopId": "80304",
      "tag": "80304_1",
      "lat": "33.9231999"
    },
    "80303_1": {
      "routes": {},
      "lon": "-118.38654",
      "title": "El Segundo Station",
      "shortTitle": "El Sgndo",
      "stopId": "80303",
      "tag": "80303_1",
      "lat": "33.9160599"
    },
    "80302_1": {
      "routes": {},
      "lon": "-118.38311",
      "title": "Douglas Station",
      "shortTitle": "Douglas",
      "stopId": "80302",
      "tag": "80302_1",
      "lat": "33.9052999"
    },
    "80301_1": {
      "routes": {},
      "lon": "-118.3692",
      "title": "Redondo Beach Station",
      "shortTitle": "Redondo",
      "stopId": "80301",
      "tag": "80301_1",
      "lat": "33.8946399"
    },
    "80401_0": {
      "routes": {},
      "lon": "-118.15447",
      "title": "Atlantic Station",
      "shortTitle": "East LA",
      "stopId": "80401",
      "tag": "80401_0",
      "lat": "34.0333999"
    },
    "80402_0": {
      "routes": {},
      "lon": "-118.16121",
      "title": "East La Civic Center Station",
      "shortTitle": "ELACC",
      "stopId": "80402",
      "tag": "80402_0",
      "lat": "34.0333599"
    },
    "80403_0": {
      "routes": {},
      "lon": "-118.16814",
      "title": "Maravilla Station",
      "shortTitle": "Mravilla",
      "stopId": "80403",
      "tag": "80403_0",
      "lat": "34.0333199"
    },
    "80404_0": {
      "routes": {},
      "lon": "-118.19218",
      "title": "Indiana Station",
      "shortTitle": "Indiana",
      "stopId": "80404",
      "tag": "80404_0",
      "lat": "34.0342999"
    },
    "80405_0": {
      "routes": {},
      "lon": "-118.21006",
      "title": "Soto Station",
      "shortTitle": "Soto",
      "stopId": "80405",
      "tag": "80405_0",
      "lat": "34.0437499"
    },
    "80406_0": {
      "routes": {},
      "lon": "-118.21965",
      "title": "Mariachi Plaza / Boyle Heights Station",
      "shortTitle": "Mariachi",
      "stopId": "80406",
      "tag": "80406_0",
      "lat": "34.0472199"
    },
    "80407_0": {
      "routes": {},
      "lon": "-118.22594",
      "title": "Pico / Aliso Station",
      "shortTitle": "Pi/Aliso",
      "stopId": "80407",
      "tag": "80407_0",
      "lat": "34.0476299"
    },
    "80408_0": {
      "routes": {},
      "lon": "-118.2379",
      "title": "Little Tokyo / Arts District Station",
      "shortTitle": "L Tokyo",
      "stopId": "80408",
      "tag": "80408_0",
      "lat": "34.0500999"
    },
    "80409_0": {
      "routes": {},
      "lon": "-118.23476",
      "title": "Union Station - Metro Gold Line",
      "shortTitle": "UnionSta",
      "stopId": "80409",
      "tag": "80409_0",
      "lat": "34.0560599"
    },
    "80410_0": {
      "routes": {},
      "lon": "-118.23584",
      "title": "Chinatown Station",
      "shortTitle": "Chinatwn",
      "stopId": "80410",
      "tag": "80410_0",
      "lat": "34.0638599"
    },
    "80411_0": {
      "routes": {},
      "lon": "-118.22043",
      "title": "Lincoln Heights / Cypress Park Station",
      "shortTitle": "Linc/Cyp",
      "stopId": "80411",
      "tag": "80411_0",
      "lat": "34.0809499"
    },
    "80412_0": {
      "routes": {},
      "lon": "-118.21321",
      "title": "Heritage Square / Arroyo Station",
      "shortTitle": "Hrtge Sq",
      "stopId": "80412",
      "tag": "80412_0",
      "lat": "34.0872299"
    },
    "80413_0": {
      "routes": {},
      "lon": "-118.20671",
      "title": "Southwest Museum Station",
      "shortTitle": "SW Mus",
      "stopId": "80413",
      "tag": "80413_0",
      "lat": "34.0982399"
    },
    "80414_0": {
      "routes": {},
      "lon": "-118.19261",
      "title": "Highland Park Station",
      "shortTitle": "Highl Pk",
      "stopId": "80414",
      "tag": "80414_0",
      "lat": "34.1111799"
    },
    "80415_0": {
      "routes": {},
      "lon": "-118.15789",
      "title": "South Pasadena Station",
      "shortTitle": "So Pas",
      "stopId": "80415",
      "tag": "80415_0",
      "lat": "34.1151899"
    },
    "80416_0": {
      "routes": {},
      "lon": "-118.14813",
      "title": "Fillmore Station",
      "shortTitle": "Fillmore",
      "stopId": "80416",
      "tag": "80416_0",
      "lat": "34.1335199"
    },
    "80417_0": {
      "routes": {},
      "lon": "-118.14821",
      "title": "Del Mar Station",
      "shortTitle": "Del Mar",
      "stopId": "80417",
      "tag": "80417_0",
      "lat": "34.1419099"
    },
    "80418_0": {
      "routes": {},
      "lon": "-118.14751",
      "title": "Memorial Park Station",
      "shortTitle": "Mem Pk",
      "stopId": "80418",
      "tag": "80418_0",
      "lat": "34.1483599"
    },
    "80419_0": {
      "routes": {},
      "lon": "-118.13139",
      "title": "Lake Station",
      "shortTitle": "Lake",
      "stopId": "80419",
      "tag": "80419_0",
      "lat": "34.1518099"
    },
    "80420_0": {
      "routes": {},
      "lon": "-118.11435",
      "title": "Allen Station",
      "shortTitle": "Allen",
      "stopId": "80420",
      "tag": "80420_0",
      "lat": "34.1524199"
    },
    "80421_0": {
      "routes": {},
      "lon": "-118.08121",
      "title": "Sierra Madre Villa Station",
      "shortTitle": "Pasadena",
      "stopId": "80421",
      "tag": "80421_0",
      "lat": "34.1477499"
    },
    "80422_0": {
      "routes": {},
      "lon": "-118.0292",
      "title": "Arcadia Station",
      "shortTitle": "Arcadia",
      "stopId": "80422",
      "tag": "80422_0",
      "lat": "34.1428599"
    },
    "80423_0": {
      "routes": {},
      "lon": "-118.00347",
      "title": "Monrovia Station",
      "shortTitle": "Monrovia",
      "stopId": "80423",
      "tag": "80423_0",
      "lat": "34.1331599"
    },
    "80424_0": {
      "routes": {},
      "lon": "-117.96768",
      "title": "Duarte / City Of Hope Station",
      "shortTitle": "Duarte",
      "stopId": "80424",
      "tag": "80424_0",
      "lat": "34.1325199"
    },
    "80425_0": {
      "routes": {},
      "lon": "-117.93251",
      "title": "Irwindale Station",
      "shortTitle": "Irwndale",
      "stopId": "80425",
      "tag": "80425_0",
      "lat": "34.1290499"
    },
    "80426_0": {
      "routes": {},
      "lon": "-117.90663",
      "title": "Azusa Downtown Station",
      "shortTitle": "Azusa DT",
      "stopId": "80426",
      "tag": "80426_0",
      "lat": "34.1358599"
    },
    "80427_0": {
      "routes": {},
      "lon": "-117.89164",
      "title": "Apu / Citrus College Station",
      "shortTitle": "Azusa",
      "stopId": "80427",
      "tag": "80427_0",
      "lat": "34.1368099"
    },
    "80427_1": {
      "routes": {},
      "lon": "-117.89164",
      "title": "Apu / Citrus College Station",
      "shortTitle": "Azusa",
      "stopId": "80427",
      "tag": "80427_1",
      "lat": "34.1368099"
    },
    "80426_1": {
      "routes": {},
      "lon": "-117.90663",
      "title": "Azusa Downtown Station",
      "shortTitle": "Azusa DT",
      "stopId": "80426",
      "tag": "80426_1",
      "lat": "34.1358599"
    },
    "80425_1": {
      "routes": {},
      "lon": "-117.93251",
      "title": "Irwindale Station",
      "shortTitle": "Irwndale",
      "stopId": "80425",
      "tag": "80425_1",
      "lat": "34.1290499"
    },
    "80424_1": {
      "routes": {},
      "lon": "-117.96768",
      "title": "Duarte / City Of Hope Station",
      "shortTitle": "Duarte",
      "stopId": "80424",
      "tag": "80424_1",
      "lat": "34.1325199"
    },
    "80423_1": {
      "routes": {},
      "lon": "-118.00347",
      "title": "Monrovia Station",
      "shortTitle": "Monrovia",
      "stopId": "80423",
      "tag": "80423_1",
      "lat": "34.1331599"
    },
    "80422_1": {
      "routes": {},
      "lon": "-118.0292",
      "title": "Arcadia Station",
      "shortTitle": "Arcadia",
      "stopId": "80422",
      "tag": "80422_1",
      "lat": "34.1428599"
    },
    "80421_1": {
      "routes": {},
      "lon": "-118.08121",
      "title": "Sierra Madre Villa Station",
      "shortTitle": "Pasadena",
      "stopId": "80421",
      "tag": "80421_1",
      "lat": "34.1477499"
    },
    "80420_1": {
      "routes": {},
      "lon": "-118.11435",
      "title": "Allen Station",
      "shortTitle": "Allen",
      "stopId": "80420",
      "tag": "80420_1",
      "lat": "34.1524199"
    },
    "80419_1": {
      "routes": {},
      "lon": "-118.13139",
      "title": "Lake Station",
      "shortTitle": "Lake",
      "stopId": "80419",
      "tag": "80419_1",
      "lat": "34.1518099"
    },
    "80418_1": {
      "routes": {},
      "lon": "-118.14751",
      "title": "Memorial Park Station",
      "shortTitle": "Mem Pk",
      "stopId": "80418",
      "tag": "80418_1",
      "lat": "34.1483599"
    },
    "80417_1": {
      "routes": {},
      "lon": "-118.14821",
      "title": "Del Mar Station",
      "shortTitle": "Del Mar",
      "stopId": "80417",
      "tag": "80417_1",
      "lat": "34.1419099"
    },
    "80416_1": {
      "routes": {},
      "lon": "-118.14813",
      "title": "Fillmore Station",
      "shortTitle": "Fillmore",
      "stopId": "80416",
      "tag": "80416_1",
      "lat": "34.1335199"
    },
    "80415_1": {
      "routes": {},
      "lon": "-118.15789",
      "title": "South Pasadena Station",
      "shortTitle": "So Pas",
      "stopId": "80415",
      "tag": "80415_1",
      "lat": "34.1151899"
    },
    "80414_1": {
      "routes": {},
      "lon": "-118.19261",
      "title": "Highland Park Station",
      "shortTitle": "Highl Pk",
      "stopId": "80414",
      "tag": "80414_1",
      "lat": "34.1111799"
    },
    "80413_1": {
      "routes": {},
      "lon": "-118.20671",
      "title": "Southwest Museum Station",
      "shortTitle": "SW Mus",
      "stopId": "80413",
      "tag": "80413_1",
      "lat": "34.0982399"
    },
    "80412_1": {
      "routes": {},
      "lon": "-118.21321",
      "title": "Heritage Square / Arroyo Station",
      "shortTitle": "Hrtge Sq",
      "stopId": "80412",
      "tag": "80412_1",
      "lat": "34.0872299"
    },
    "80411_1": {
      "routes": {},
      "lon": "-118.22043",
      "title": "Lincoln Heights / Cypress Park Station",
      "shortTitle": "Linc/Cyp",
      "stopId": "80411",
      "tag": "80411_1",
      "lat": "34.0809499"
    },
    "80410_1": {
      "routes": {},
      "lon": "-118.23584",
      "title": "Chinatown Station",
      "shortTitle": "Chinatwn",
      "stopId": "80410",
      "tag": "80410_1",
      "lat": "34.0638599"
    },
    "80409_1": {
      "routes": {},
      "lon": "-118.23476",
      "title": "Union Station - Metro Gold Line",
      "shortTitle": "UnionSta",
      "stopId": "80409",
      "tag": "80409_1",
      "lat": "34.0560599"
    },
    "80408_1": {
      "routes": {},
      "lon": "-118.2379",
      "title": "Little Tokyo / Arts District Station",
      "shortTitle": "L Tokyo",
      "stopId": "80408",
      "tag": "80408_1",
      "lat": "34.0500999"
    },
    "80407_1": {
      "routes": {},
      "lon": "-118.22594",
      "title": "Pico / Aliso Station",
      "shortTitle": "Pi/Aliso",
      "stopId": "80407",
      "tag": "80407_1",
      "lat": "34.0476299"
    },
    "80406_1": {
      "routes": {},
      "lon": "-118.21965",
      "title": "Mariachi Plaza / Boyle Heights Station",
      "shortTitle": "Mariachi",
      "stopId": "80406",
      "tag": "80406_1",
      "lat": "34.0472199"
    },
    "80405_1": {
      "routes": {},
      "lon": "-118.21006",
      "title": "Soto Station",
      "shortTitle": "Soto",
      "stopId": "80405",
      "tag": "80405_1",
      "lat": "34.0437499"
    },
    "80404_1": {
      "routes": {},
      "lon": "-118.19218",
      "title": "Indiana Station",
      "shortTitle": "Indiana",
      "stopId": "80404",
      "tag": "80404_1",
      "lat": "34.0342999"
    },
    "80403_1": {
      "routes": {},
      "lon": "-118.16814",
      "title": "Maravilla Station",
      "shortTitle": "Mravilla",
      "stopId": "80403",
      "tag": "80403_1",
      "lat": "34.0333199"
    },
    "80402_1": {
      "routes": {},
      "lon": "-118.16121",
      "title": "East La Civic Center Station",
      "shortTitle": "ELACC",
      "stopId": "80402",
      "tag": "80402_1",
      "lat": "34.0333599"
    },
    "80401_1": {
      "routes": {},
      "lon": "-118.15447",
      "title": "Atlantic Station",
      "shortTitle": "East LA",
      "stopId": "80401",
      "tag": "80401_1",
      "lat": "34.0333999"
    },
    "80216_0": {
      "routes": {},
      "lon": "-118.30876",
      "title": "Wilshire / Western Station",
      "shortTitle": "Wil/Wstrn",
      "stopId": "80216",
      "tag": "80216_0",
      "lat": "34.0616899"
    },
    "80215_0": {
      "routes": {},
      "lon": "-118.30146",
      "title": "Wilshire / Normandie Station",
      "shortTitle": "Wil/Norm",
      "stopId": "80215",
      "tag": "80215_0",
      "lat": "34.0617499"
    },
    "80215_1": {
      "routes": {},
      "lon": "-118.30146",
      "title": "Wilshire / Normandie Station",
      "shortTitle": "Wil/Norm",
      "stopId": "80215",
      "tag": "80215_1",
      "lat": "34.0617499"
    },
    "80216_1": {
      "routes": {},
      "lon": "-118.30876",
      "title": "Wilshire / Western Station",
      "shortTitle": "Wil/Wstrn",
      "stopId": "80216",
      "tag": "80216_1",
      "lat": "34.0616899"
    },
    "80139_0": {
      "routes": {},
      "lon": "-118.49138",
      "title": "Downtown Santa Monica Station",
      "shortTitle": "S Monica",
      "stopId": "80139",
      "tag": "80139_0",
      "lat": "34.0140099"
    },
    "80138_0": {
      "routes": {},
      "lon": "-118.48037",
      "title": "17th Street / Smc Station",
      "shortTitle": "17th/SMC",
      "stopId": "80138",
      "tag": "80138_0",
      "lat": "34.0231599"
    },
    "80137_0": {
      "routes": {},
      "lon": "-118.46912",
      "title": "26th Street / Bergamot Station",
      "shortTitle": "26th",
      "stopId": "80137",
      "tag": "80137_0",
      "lat": "34.0279899"
    },
    "80136_0": {
      "routes": {},
      "lon": "-118.4529",
      "title": "Expo / Bundy Station",
      "shortTitle": "Bundy",
      "stopId": "80136",
      "tag": "80136_0",
      "lat": "34.0317099"
    },
    "80135_0": {
      "routes": {},
      "lon": "-118.43423",
      "title": "Expo / Sepulveda Station",
      "shortTitle": "Sepulveda",
      "stopId": "80135",
      "tag": "80135_0",
      "lat": "34.0354099"
    },
    "80134_0": {
      "routes": {},
      "lon": "-118.42458",
      "title": "Westwood / Rancho Park Station",
      "shortTitle": "Westwood",
      "stopId": "80134",
      "tag": "80134_0",
      "lat": "34.0368199"
    },
    "80133_0": {
      "routes": {},
      "lon": "-118.40425",
      "title": "Palms Station",
      "shortTitle": "Palms",
      "stopId": "80133",
      "tag": "80133_0",
      "lat": "34.0293199"
    },
    "80132_0": {
      "routes": {},
      "lon": "-118.38899",
      "title": "Culver City Station",
      "shortTitle": "CulvrCty",
      "stopId": "80132",
      "tag": "80132_0",
      "lat": "34.0278999"
    },
    "80131_0": {
      "routes": {},
      "lon": "-118.37212",
      "title": "La Cienega / Jefferson Station",
      "shortTitle": "LCienega",
      "stopId": "80131",
      "tag": "80131_0",
      "lat": "34.0263599"
    },
    "80130_0": {
      "routes": {},
      "lon": "-118.35516",
      "title": "Expo / La Brea / Ethel Bradley Station",
      "shortTitle": "Ex/LBrea",
      "stopId": "80130",
      "tag": "80130_0",
      "lat": "34.0247999"
    },
    "80129_0": {
      "routes": {},
      "lon": "-118.34609",
      "title": "Farmdale Station",
      "shortTitle": "Farmdale",
      "stopId": "80129",
      "tag": "80129_0",
      "lat": "34.0239799"
    },
    "80128_0": {
      "routes": {},
      "lon": "-118.33508",
      "title": "Expo / Crenshaw Station",
      "shortTitle": "Ex/Crnshw",
      "stopId": "80128",
      "tag": "80128_0",
      "lat": "34.0225299"
    },
    "80127_0": {
      "routes": {},
      "lon": "-118.30891",
      "title": "Expo / Western Station",
      "shortTitle": "Ex/Wstrn",
      "stopId": "80127",
      "tag": "80127_0",
      "lat": "34.0183299"
    },
    "80126_0": {
      "routes": {},
      "lon": "-118.29154",
      "title": "Expo / Vermont Station",
      "shortTitle": "Ex/Vrmnt",
      "stopId": "80126",
      "tag": "80126_0",
      "lat": "34.0182399"
    },
    "80125_0": {
      "routes": {},
      "lon": "-118.28573",
      "title": "Expo Park / Usc Station",
      "shortTitle": "Expo Pk",
      "stopId": "80125",
      "tag": "80125_0",
      "lat": "34.0182299"
    },
    "80124_0": {
      "routes": {},
      "lon": "-118.27812",
      "title": "Jefferson / Usc Station",
      "shortTitle": "Jeff/USC",
      "stopId": "80124",
      "tag": "80124_0",
      "lat": "34.0221199"
    },
    "80123_0": {
      "routes": {},
      "lon": "-118.2736",
      "title": "Lattc / Ortho Institute Station",
      "shortTitle": "LATTC",
      "stopId": "80123",
      "tag": "80123_0",
      "lat": "34.0291099"
    },
    "80121_0": {
      "routes": {},
      "lon": "-118.26612",
      "title": "Pico Station",
      "shortTitle": "Pico",
      "stopId": "80121",
      "tag": "80121_0",
      "lat": "34.0407299"
    },
    "80122_0": {
      "routes": {},
      "lon": "-118.25882",
      "title": "7th Street / Metro Center Station - Metro Blue & Expo Lines",
      "shortTitle": "7MC",
      "stopId": "80122",
      "tag": "80122_0",
      "lat": "34.0486099"
    },
    "80122_1": {
      "routes": {},
      "lon": "-118.25882",
      "title": "7th Street / Metro Center Station - Metro Blue & Expo Lines",
      "shortTitle": "7MC",
      "stopId": "80122",
      "tag": "80122_1",
      "lat": "34.0486099"
    },
    "80121_1": {
      "routes": {},
      "lon": "-118.26612",
      "title": "Pico Station",
      "shortTitle": "Pico",
      "stopId": "80121",
      "tag": "80121_1",
      "lat": "34.0407299"
    },
    "80123_1": {
      "routes": {},
      "lon": "-118.2736",
      "title": "Lattc / Ortho Institute Station",
      "shortTitle": "LATTC",
      "stopId": "80123",
      "tag": "80123_1",
      "lat": "34.0291099"
    },
    "80124_1": {
      "routes": {},
      "lon": "-118.27812",
      "title": "Jefferson / Usc Station",
      "shortTitle": "Jeff/USC",
      "stopId": "80124",
      "tag": "80124_1",
      "lat": "34.0221199"
    },
    "80125_1": {
      "routes": {},
      "lon": "-118.28573",
      "title": "Expo Park / Usc Station",
      "shortTitle": "Expo Pk",
      "stopId": "80125",
      "tag": "80125_1",
      "lat": "34.0182299"
    },
    "80126_1": {
      "routes": {},
      "lon": "-118.29154",
      "title": "Expo / Vermont Station",
      "shortTitle": "Ex/Vrmnt",
      "stopId": "80126",
      "tag": "80126_1",
      "lat": "34.0182399"
    },
    "80127_1": {
      "routes": {},
      "lon": "-118.30891",
      "title": "Expo / Western Station",
      "shortTitle": "Ex/Wstrn",
      "stopId": "80127",
      "tag": "80127_1",
      "lat": "34.0183299"
    },
    "80128_1": {
      "routes": {},
      "lon": "-118.33508",
      "title": "Expo / Crenshaw Station",
      "shortTitle": "Ex/Crnshw",
      "stopId": "80128",
      "tag": "80128_1",
      "lat": "34.0225299"
    },
    "80129_1": {
      "routes": {},
      "lon": "-118.34609",
      "title": "Farmdale Station",
      "shortTitle": "Farmdale",
      "stopId": "80129",
      "tag": "80129_1",
      "lat": "34.0239799"
    },
    "80130_1": {
      "routes": {},
      "lon": "-118.35516",
      "title": "Expo / La Brea / Ethel Bradley Station",
      "shortTitle": "Ex/LBrea",
      "stopId": "80130",
      "tag": "80130_1",
      "lat": "34.0247999"
    },
    "80131_1": {
      "routes": {},
      "lon": "-118.37212",
      "title": "La Cienega / Jefferson Station",
      "shortTitle": "LCienega",
      "stopId": "80131",
      "tag": "80131_1",
      "lat": "34.0263599"
    },
    "80132_1": {
      "routes": {},
      "lon": "-118.38899",
      "title": "Culver City Station",
      "shortTitle": "CulvrCty",
      "stopId": "80132",
      "tag": "80132_1",
      "lat": "34.0278999"
    },
    "80133_1": {
      "routes": {},
      "lon": "-118.40425",
      "title": "Palms Station",
      "shortTitle": "Palms",
      "stopId": "80133",
      "tag": "80133_1",
      "lat": "34.0293199"
    },
    "80134_1": {
      "routes": {},
      "lon": "-118.42458",
      "title": "Westwood / Rancho Park Station",
      "shortTitle": "Westwood",
      "stopId": "80134",
      "tag": "80134_1",
      "lat": "34.0368199"
    },
    "80135_1": {
      "routes": {},
      "lon": "-118.43423",
      "title": "Expo / Sepulveda Station",
      "shortTitle": "Sepulveda",
      "stopId": "80135",
      "tag": "80135_1",
      "lat": "34.0354099"
    },
    "80136_1": {
      "routes": {},
      "lon": "-118.4529",
      "title": "Expo / Bundy Station",
      "shortTitle": "Bundy",
      "stopId": "80136",
      "tag": "80136_1",
      "lat": "34.0317099"
    },
    "80137_1": {
      "routes": {},
      "lon": "-118.46912",
      "title": "26th Street / Bergamot Station",
      "shortTitle": "26th",
      "stopId": "80137",
      "tag": "80137_1",
      "lat": "34.0279899"
    },
    "80138_1": {
      "routes": {},
      "lon": "-118.48037",
      "title": "17th Street / Smc Station",
      "shortTitle": "17th/SMC",
      "stopId": "80138",
      "tag": "80138_1",
      "lat": "34.0231599"
    },
    "80139_1": {
      "routes": {},
      "lon": "-118.49138",
      "title": "Downtown Santa Monica Station",
      "shortTitle": "S Monica",
      "stopId": "80139",
      "tag": "80139_1",
      "lat": "34.0140099"
    }
  },
  "copyright": "All data copyright Los Angeles Rail 2019."
}