{
  "type": "FeatureCollection",
  "features": [
    {
      "type": "Feature",
      "properties": {
        "title": "Madera Rd at Los Angeles Ave",
        "tag": "26mader",
        "stopId": "40001"
      },
      "geometry": {
        "type": "Point",
        "coordinates": [
          -118.7962545,
          34.2713749
        ]
      }
    },
    {
      "type": "Feature",
      "properties": {
        "title": "Los Angeles Ave at Simi Village Dr",
        "tag": "27losan",
        "stopId": "40002"
      },
      "geometry": {
        "type": "Point",
        "coordinates": [
          -118.7921784,
          34.27165
        ]
      }
    },
    {
      "type": "Feature",
      "properties": {
        "title": "Los Angeles Ave at Sinaloa",
        "tag": "28losan",
        "stopId": "40003"
      },
      "geometry": {
        "type": "Point",
        "coordinates": [
          -118.7867183,
          34.27165
        ]
      }
    },
    {
      "type": "Feature",
      "properties": {
        "title": "Los Angeles Ave at Fourth",
        "tag": "29losan",
        "stopId": "40004"
      },
      "geometry": {
        "type": "Point",
        "coordinates": [
          -118.7850899,
          34.27165
        ]
      }
    },
    {
      "type": "Feature",
      "properties": {
        "title": "Los Angeles Ave at First",
        "tag": "30losan",
        "stopId": "40005"
      },
      "geometry": {
        "type": "Point",
        "coordinates": [
          -118.7787411,
          34.27165
        ]
      }
    },
    {
      "type": "Feature",
      "properties": {
        "title": "Los Angeles Ave at Hubbard",
        "tag": "31losan",
        "stopId": "40006"
      },
      "geometry": {
        "type": "Point",
        "coordinates": [
          -118.7704658,
          34.27165
        ]
      }
    },
    {
      "type": "Feature",
      "properties": {
        "title": "Los Angeles Ave at Duncan",
        "tag": "32losan",
        "stopId": "40007"
      },
      "geometry": {
        "type": "Point",
        "coordinates": [
          -118.7680799,
          34.27165
        ]
      }
    },
    {
      "type": "Feature",
      "properties": {
        "title": "Erringer Rd at Larch St",
        "tag": "33errin",
        "stopId": "40008"
      },
      "geometry": {
        "type": "Point",
        "coordinates": [
          -118.76133,
          34.2752553
        ]
      }
    },
    {
      "type": "Feature",
      "properties": {
        "title": "Erringer Rd at Cochran St",
        "tag": "34errin",
        "stopId": "40009"
      },
      "geometry": {
        "type": "Point",
        "coordinates": [
          -118.7613559,
          34.2788031
        ]
      }
    },
    {
      "type": "Feature",
      "properties": {
        "title": "Simi Town Center",
        "tag": "simitown",
        "stopId": "40010"
      },
      "geometry": {
        "type": "Point",
        "coordinates": [
          -118.7691769,
          34.28539
        ]
      }
    },
    {
      "type": "Feature",
      "properties": {
        "title": "Enchanted Way at First",
        "tag": "enchant_e",
        "stopId": "40366"
      },
      "geometry": {
        "type": "Point",
        "coordinates": [
          -118.7800891,
          34.2830203
        ]
      }
    },
    {
      "type": "Feature",
      "properties": {
        "title": "980 Enchanted Way - East County Job Center",
        "tag": "980ench_e",
        "stopId": "40367"
      },
      "geometry": {
        "type": "Point",
        "coordinates": [
          -118.78262,
          34.283705
        ]
      }
    },
    {
      "type": "Feature",
      "properties": {
        "title": "Flower Glen St at First",
        "tag": "flowerg_e",
        "stopId": "40368"
      },
      "geometry": {
        "type": "Point",
        "coordinates": [
          -118.7808954,
          34.28548
        ]
      }
    },
    {
      "type": "Feature",
      "properties": {
        "title": "Cochran St at Justin",
        "tag": "35cochr",
        "stopId": "40011"
      },
      "geometry": {
        "type": "Point",
        "coordinates": [
          -118.755584,
          34.2789415
        ]
      }
    },
    {
      "type": "Feature",
      "properties": {
        "title": "Cochran St at Elmdale",
        "tag": "36cochr",
        "stopId": "40012"
      },
      "geometry": {
        "type": "Point",
        "coordinates": [
          -118.7511222,
          34.2788955
        ]
      }
    },
    {
      "type": "Feature",
      "properties": {
        "title": "Cochran St at Sycamore",
        "tag": "37cochr",
        "stopId": "40013"
      },
      "geometry": {
        "type": "Point",
        "coordinates": [
          -118.7445013,
          34.2789714
        ]
      }
    },
    {
      "type": "Feature",
      "properties": {
        "title": "Simi Valley YMCA",
        "tag": "39simiv",
        "stopId": "40014"
      },
      "geometry": {
        "type": "Point",
        "coordinates": [
          -118.7386389,
          34.27896
        ]
      }
    },
    {
      "type": "Feature",
      "properties": {
        "title": "Cochran St at Galena",
        "tag": "38cochr",
        "stopId": "40015"
      },
      "geometry": {
        "type": "Point",
        "coordinates": [
          -118.7360498,
          34.27896
        ]
      }
    },
    {
      "type": "Feature",
      "properties": {
        "title": "Cochran St at Sweetwood",
        "tag": "40cochr",
        "stopId": "40016"
      },
      "geometry": {
        "type": "Point",
        "coordinates": [
          -118.7293133,
          34.27893
        ]
      }
    },
    {
      "type": "Feature",
      "properties": {
        "title": "Cochran St at Tracy",
        "tag": "41cochr",
        "stopId": "40017"
      },
      "geometry": {
        "type": "Point",
        "coordinates": [
          -118.7231954,
          34.2789836
        ]
      }
    },
    {
      "type": "Feature",
      "properties": {
        "title": "Tapo Canyon Rd at Highway 118",
        "tag": "42tapoc",
        "stopId": "40018"
      },
      "geometry": {
        "type": "Point",
        "coordinates": [
          -118.7176776,
          34.2802396
        ]
      }
    },
    {
      "type": "Feature",
      "properties": {
        "title": "Simi Valley Credit Union",
        "tag": "43simiv",
        "stopId": "40019"
      },
      "geometry": {
        "type": "Point",
        "coordinates": [
          -118.7177,
          34.2843349
        ]
      }
    },
    {
      "type": "Feature",
      "properties": {
        "title": "Tapo Canyon Rd at Avenida Simi",
        "tag": "asimitapc",
        "stopId": "40021"
      },
      "geometry": {
        "type": "Point",
        "coordinates": [
          -118.7176052,
          34.2897812
        ]
      }
    },
    {
      "type": "Feature",
      "properties": {
        "title": "Tapo Canyon Rd at Township Ave",
        "tag": "46tapoc",
        "stopId": "40022"
      },
      "geometry": {
        "type": "Point",
        "coordinates": [
          -118.7175619,
          34.2931326
        ]
      }
    },
    {
      "type": "Feature",
      "properties": {
        "title": "Township Ave at Tapo St",
        "tag": "47towns",
        "stopId": "40023"
      },
      "geometry": {
        "type": "Point",
        "coordinates": [
          -118.7095754,
          34.29348
        ]
      }
    },
    {
      "type": "Feature",
      "properties": {
        "title": "Tapo St at Fort Worth",
        "tag": "48tapos",
        "stopId": "40024"
      },
      "geometry": {
        "type": "Point",
        "coordinates": [
          -118.7089884,
          34.2890553
        ]
      }
    },
    {
      "type": "Feature",
      "properties": {
        "title": "Tapo St at Alamo St",
        "tag": "49tapos",
        "stopId": "40025"
      },
      "geometry": {
        "type": "Point",
        "coordinates": [
          -118.7090196,
          34.2873073
        ]
      }
    },
    {
      "type": "Feature",
      "properties": {
        "title": "Tapo St at Eve",
        "tag": "50tapos",
        "stopId": "40026"
      },
      "geometry": {
        "type": "Point",
        "coordinates": [
          -118.70905,
          34.282422
        ]
      }
    },
    {
      "type": "Feature",
      "properties": {
        "title": "Cochran St at Tapo St",
        "tag": "51cochr",
        "stopId": "40027"
      },
      "geometry": {
        "type": "Point",
        "coordinates": [
          -118.7079045,
          34.278916
        ]
      }
    },
    {
      "type": "Feature",
      "properties": {
        "title": "Cochran St at Ralston",
        "tag": "52cochr",
        "stopId": "40028"
      },
      "geometry": {
        "type": "Point",
        "coordinates": [
          -118.701948,
          34.27894
        ]
      }
    },
    {
      "type": "Feature",
      "properties": {
        "title": "Cochran St at Summerwood",
        "tag": "55cochr",
        "stopId": "40029"
      },
      "geometry": {
        "type": "Point",
        "coordinates": [
          -118.6953671,
          34.27894
        ]
      }
    },
    {
      "type": "Feature",
      "properties": {
        "title": "Cochran St at Stearns",
        "tag": "53cochr",
        "stopId": "40030"
      },
      "geometry": {
        "type": "Point",
        "coordinates": [
          -118.690496,
          34.2789369
        ]
      }
    },
    {
      "type": "Feature",
      "properties": {
        "title": "Cochran St at Simi Valley High School",
        "tag": "54cochr",
        "stopId": "40031"
      },
      "geometry": {
        "type": "Point",
        "coordinates": [
          -118.6834488,
          34.2789374
        ]
      }
    },
    {
      "type": "Feature",
      "properties": {
        "title": "Cochran St at Yosemite Ave",
        "tag": "56cochr",
        "stopId": "40032"
      },
      "geometry": {
        "type": "Point",
        "coordinates": [
          -118.6784124,
          34.2787418
        ]
      }
    },
    {
      "type": "Feature",
      "properties": {
        "title": "Los Angeles Ave at Yosemite Ave",
        "tag": "1losan",
        "stopId": "40051"
      },
      "geometry": {
        "type": "Point",
        "coordinates": [
          -118.6792409,
          34.27182
        ]
      }
    },
    {
      "type": "Feature",
      "properties": {
        "title": "Los Angeles Ave at Stow",
        "tag": "2losan",
        "stopId": "40052"
      },
      "geometry": {
        "type": "Point",
        "coordinates": [
          -118.6832524,
          34.27185
        ]
      }
    },
    {
      "type": "Feature",
      "properties": {
        "title": "Los Angeles Ave at Emory",
        "tag": "3losan",
        "stopId": "40053"
      },
      "geometry": {
        "type": "Point",
        "coordinates": [
          -118.6878228,
          34.27185
        ]
      }
    },
    {
      "type": "Feature",
      "properties": {
        "title": "Los Angeles Ave at Metrolink Station",
        "tag": "losmetro",
        "stopId": "40054"
      },
      "geometry": {
        "type": "Point",
        "coordinates": [
          -118.6949735,
          34.27182
        ]
      }
    },
    {
      "type": "Feature",
      "properties": {
        "title": "Los Angeles Ave at Ralston",
        "tag": "losralst",
        "stopId": "40055"
      },
      "geometry": {
        "type": "Point",
        "coordinates": [
          -118.7008061,
          34.2723694
        ]
      }
    },
    {
      "type": "Feature",
      "properties": {
        "title": "Los Angeles Ave at Tapo St",
        "tag": "6losan",
        "stopId": "40056"
      },
      "geometry": {
        "type": "Point",
        "coordinates": [
          -118.7091212,
          34.2717998
        ]
      }
    },
    {
      "type": "Feature",
      "properties": {
        "title": "Los Angeles Ave at Bishop Lane",
        "tag": "7losan",
        "stopId": "40057"
      },
      "geometry": {
        "type": "Point",
        "coordinates": [
          -118.7150303,
          34.27179
        ]
      }
    },
    {
      "type": "Feature",
      "properties": {
        "title": "Los Angeles Ave at Surveyor Ave",
        "tag": "8losan",
        "stopId": "40058"
      },
      "geometry": {
        "type": "Point",
        "coordinates": [
          -118.7192238,
          34.2717802
        ]
      }
    },
    {
      "type": "Feature",
      "properties": {
        "title": "Los Angeles Ave at Darrah Ave",
        "tag": "9losan",
        "stopId": "40059"
      },
      "geometry": {
        "type": "Point",
        "coordinates": [
          -118.72293,
          34.2717677
        ]
      }
    },
    {
      "type": "Feature",
      "properties": {
        "title": "Los Angeles Ave at Sequoia Ave",
        "tag": "10losan",
        "stopId": "40060"
      },
      "geometry": {
        "type": "Point",
        "coordinates": [
          -118.7309725,
          34.2717699
        ]
      }
    },
    {
      "type": "Feature",
      "properties": {
        "title": "Los Angeles Ave at Church St",
        "tag": "11losan",
        "stopId": "40061"
      },
      "geometry": {
        "type": "Point",
        "coordinates": [
          -118.7365595,
          34.2717743
        ]
      }
    },
    {
      "type": "Feature",
      "properties": {
        "title": "Sycamore Dr at Los Angeles Ave",
        "tag": "12sycam",
        "stopId": "40062"
      },
      "geometry": {
        "type": "Point",
        "coordinates": [
          -118.74392,
          34.2708785
        ]
      }
    },
    {
      "type": "Feature",
      "properties": {
        "title": "Sycamore Dr at Heywood St",
        "tag": "13sycam",
        "stopId": "40063"
      },
      "geometry": {
        "type": "Point",
        "coordinates": [
          -118.7469373,
          34.2680935
        ]
      }
    },
    {
      "type": "Feature",
      "properties": {
        "title": "Sycamore Dr at Elizondo St",
        "tag": "14sycam",
        "stopId": "40064"
      },
      "geometry": {
        "type": "Point",
        "coordinates": [
          -118.7479455,
          34.2645922
        ]
      }
    },
    {
      "type": "Feature",
      "properties": {
        "title": "Sycamore Dr at Royal Ave",
        "tag": "15sycam",
        "stopId": "40065"
      },
      "geometry": {
        "type": "Point",
        "coordinates": [
          -118.7478723,
          34.2616942
        ]
      }
    },
    {
      "type": "Feature",
      "properties": {
        "title": "Royal Ave at Brandon Ave",
        "tag": "16royal",
        "stopId": "40066"
      },
      "geometry": {
        "type": "Point",
        "coordinates": [
          -118.7523876,
          34.2609096
        ]
      }
    },
    {
      "type": "Feature",
      "properties": {
        "title": "Royal Ave at Haven Ave",
        "tag": "17royal",
        "stopId": "40067"
      },
      "geometry": {
        "type": "Point",
        "coordinates": [
          -118.7567064,
          34.2609152
        ]
      }
    },
    {
      "type": "Feature",
      "properties": {
        "title": "Royal Ave at Erringer Rd",
        "tag": "18royal",
        "stopId": "40068"
      },
      "geometry": {
        "type": "Point",
        "coordinates": [
          -118.7602971,
          34.263235
        ]
      }
    },
    {
      "type": "Feature",
      "properties": {
        "title": "Royal Ave at Crocker St",
        "tag": "19royal",
        "stopId": "40069"
      },
      "geometry": {
        "type": "Point",
        "coordinates": [
          -118.7693747,
          34.2645399
        ]
      }
    },
    {
      "type": "Feature",
      "properties": {
        "title": "Royal Ave at Buckskin Ave",
        "tag": "20royal",
        "stopId": "40070"
      },
      "geometry": {
        "type": "Point",
        "coordinates": [
          -118.773535,
          34.2645399
        ]
      }
    },
    {
      "type": "Feature",
      "properties": {
        "title": "Royal Ave at First",
        "tag": "21royal",
        "stopId": "40071"
      },
      "geometry": {
        "type": "Point",
        "coordinates": [
          -118.7784059,
          34.264505
        ]
      }
    },
    {
      "type": "Feature",
      "properties": {
        "title": "Royal Ave at El Monte",
        "tag": "22royal",
        "stopId": "40072"
      },
      "geometry": {
        "type": "Point",
        "coordinates": [
          -118.7858078,
          34.2645019
        ]
      }
    },
    {
      "type": "Feature",
      "properties": {
        "title": "Royal Ave at Sinaloa",
        "tag": "23royal",
        "stopId": "40073"
      },
      "geometry": {
        "type": "Point",
        "coordinates": [
          -118.7879854,
          34.2645
        ]
      }
    },
    {
      "type": "Feature",
      "properties": {
        "title": "Royal Ave at Madera",
        "tag": "24royal",
        "stopId": "40074"
      },
      "geometry": {
        "type": "Point",
        "coordinates": [
          -118.7958374,
          34.2645374
        ]
      }
    },
    {
      "type": "Feature",
      "properties": {
        "title": "Madera Rd at Bonita Dr",
        "tag": "25mader",
        "stopId": "40075"
      },
      "geometry": {
        "type": "Point",
        "coordinates": [
          -118.79621,
          34.2664959
        ]
      }
    },
    {
      "type": "Feature",
      "properties": {
        "title": "Madera Rd at Royal Ave",
        "tag": "71mader",
        "stopId": "40100"
      },
      "geometry": {
        "type": "Point",
        "coordinates": [
          -118.7950839,
          34.2643495
        ]
      }
    },
    {
      "type": "Feature",
      "properties": {
        "title": "Royal Ave at Naples Ct",
        "tag": "72royal",
        "stopId": "40101"
      },
      "geometry": {
        "type": "Point",
        "coordinates": [
          -118.7917803,
          34.2643713
        ]
      }
    },
    {
      "type": "Feature",
      "properties": {
        "title": "Royal Ave at Sycamore Dr",
        "tag": "73royal",
        "stopId": "40102"
      },
      "geometry": {
        "type": "Point",
        "coordinates": [
          -118.7477344,
          34.2613699
        ]
      }
    },
    {
      "type": "Feature",
      "properties": {
        "title": "Sycamore Dr at Lawson Ave",
        "tag": "74sycam",
        "stopId": "40103"
      },
      "geometry": {
        "type": "Point",
        "coordinates": [
          -118.7456576,
          34.2687236
        ]
      }
    },
    {
      "type": "Feature",
      "properties": {
        "title": "Los Angeles Ave at Sycamore Dr",
        "tag": "75losan",
        "stopId": "40104"
      },
      "geometry": {
        "type": "Point",
        "coordinates": [
          -118.7436733,
          34.2708214
        ]
      }
    },
    {
      "type": "Feature",
      "properties": {
        "title": "Los Angeles Ave at Blackstock Ave",
        "tag": "76losan",
        "stopId": "40105"
      },
      "geometry": {
        "type": "Point",
        "coordinates": [
          -118.7349011,
          34.2716372
        ]
      }
    },
    {
      "type": "Feature",
      "properties": {
        "title": "Los Angeles Ave at Tapo Canyon",
        "tag": "77losan",
        "stopId": "40106"
      },
      "geometry": {
        "type": "Point",
        "coordinates": [
          -118.716748,
          34.2716034
        ]
      }
    },
    {
      "type": "Feature",
      "properties": {
        "title": "Los Angeles Ave at Angus",
        "tag": "78losan",
        "stopId": "40107"
      },
      "geometry": {
        "type": "Point",
        "coordinates": [
          -118.702694,
          34.2716344
        ]
      }
    },
    {
      "type": "Feature",
      "properties": {
        "title": "Simi Valley Metrolink Station",
        "tag": "4simiv",
        "stopId": "40108"
      },
      "geometry": {
        "type": "Point",
        "coordinates": [
          -118.6949674,
          34.2716701
        ]
      }
    },
    {
      "type": "Feature",
      "properties": {
        "title": "Los Angeles Ave at Stearns",
        "tag": "79losan",
        "stopId": "40109"
      },
      "geometry": {
        "type": "Point",
        "coordinates": [
          -118.6916252,
          34.2716789
        ]
      }
    },
    {
      "type": "Feature",
      "properties": {
        "title": "Los Angeles Ave at Simi Valley Rehabilitation",
        "tag": "80losan",
        "stopId": "40110"
      },
      "geometry": {
        "type": "Point",
        "coordinates": [
          -118.689105,
          34.2716959
        ]
      }
    },
    {
      "type": "Feature",
      "properties": {
        "title": "Yosemite Ave at Los Angeles Ave",
        "tag": "58yosem",
        "stopId": "40150"
      },
      "geometry": {
        "type": "Point",
        "coordinates": [
          -118.6783106,
          34.2732271
        ]
      }
    },
    {
      "type": "Feature",
      "properties": {
        "title": "Cochran St at Stow",
        "tag": "59cochr",
        "stopId": "40151"
      },
      "geometry": {
        "type": "Point",
        "coordinates": [
          -118.6832179,
          34.27905
        ]
      }
    },
    {
      "type": "Feature",
      "properties": {
        "title": "Cochran St at Dover",
        "tag": "cocste",
        "stopId": "40152"
      },
      "geometry": {
        "type": "Point",
        "coordinates": [
          -118.6970169,
          34.2790501
        ]
      }
    },
    {
      "type": "Feature",
      "properties": {
        "title": "Cochran St at Fig St",
        "tag": "60cochr",
        "stopId": "40153"
      },
      "geometry": {
        "type": "Point",
        "coordinates": [
          -118.7032303,
          34.2790832
        ]
      }
    },
    {
      "type": "Feature",
      "properties": {
        "title": "Tapo St at Barnard St",
        "tag": "61tapos",
        "stopId": "40154"
      },
      "geometry": {
        "type": "Point",
        "coordinates": [
          -118.7089,
          34.2826506
        ]
      }
    },
    {
      "type": "Feature",
      "properties": {
        "title": "Township Ave at Diveron Ave",
        "tag": "62towns",
        "stopId": "40155"
      },
      "geometry": {
        "type": "Point",
        "coordinates": [
          -118.7153251,
          34.2935299
        ]
      }
    },
    {
      "type": "Feature",
      "properties": {
        "title": "Tapo Canyon Rd at Avenida Simi (Library)",
        "tag": "asimicivic",
        "stopId": "40156"
      },
      "geometry": {
        "type": "Point",
        "coordinates": [
          -118.717752,
          34.2892831
        ]
      }
    },
    {
      "type": "Feature",
      "properties": {
        "title": "Tapo Canyon Rd at Alamo (Civic Center)",
        "tag": "96tapoc",
        "stopId": "40158"
      },
      "geometry": {
        "type": "Point",
        "coordinates": [
          -118.71788,
          34.2867
        ]
      }
    },
    {
      "type": "Feature",
      "properties": {
        "title": "Tapo Canyon Rd at Adam Rd",
        "tag": "63tapoc",
        "stopId": "40159"
      },
      "geometry": {
        "type": "Point",
        "coordinates": [
          -118.71787,
          34.2835169
        ]
      }
    },
    {
      "type": "Feature",
      "properties": {
        "title": "Cochran St at Tapo Canyon Rd",
        "tag": "64cochr",
        "stopId": "40160"
      },
      "geometry": {
        "type": "Point",
        "coordinates": [
          -118.7183903,
          34.27911
        ]
      }
    },
    {
      "type": "Feature",
      "properties": {
        "title": "Cochran St at Jay",
        "tag": "65cochr",
        "stopId": "40161"
      },
      "geometry": {
        "type": "Point",
        "coordinates": [
          -118.7495015,
          34.2791
        ]
      }
    },
    {
      "type": "Feature",
      "properties": {
        "title": "Erringer Rd at Cochran St",
        "tag": "errcoch_w",
        "stopId": "40369"
      },
      "geometry": {
        "type": "Point",
        "coordinates": [
          -118.7613214,
          34.279688
        ]
      }
    },
    {
      "type": "Feature",
      "properties": {
        "title": "Cochran St at First",
        "tag": "cochfrst_w",
        "stopId": "40370"
      },
      "geometry": {
        "type": "Point",
        "coordinates": [
          -118.7797546,
          34.27907
        ]
      }
    },
    {
      "type": "Feature",
      "properties": {
        "title": "Cochran St at School District Offices",
        "tag": "70cochr",
        "stopId": "40166"
      },
      "geometry": {
        "type": "Point",
        "coordinates": [
          -118.7827248,
          34.27906
        ]
      }
    },
    {
      "type": "Feature",
      "properties": {
        "title": "Cochran St at Liberty",
        "tag": "cochlib_w",
        "stopId": "40371"
      },
      "geometry": {
        "type": "Point",
        "coordinates": [
          -118.7894007,
          34.2808301
        ]
      }
    },
    {
      "type": "Feature",
      "properties": {
        "title": "Arroyo Dr at Collins",
        "tag": "arroycol_e",
        "stopId": "40372"
      },
      "geometry": {
        "type": "Point",
        "coordinates": [
          -118.8409638,
          34.2928592
        ]
      }
    },
    {
      "type": "Feature",
      "properties": {
        "title": "900 Arroyo Dr. - Simi Valley Auto Wrecking",
        "tag": "900arroy_e",
        "stopId": "40374"
      },
      "geometry": {
        "type": "Point",
        "coordinates": [
          -118.8209784,
          34.2871399
        ]
      }
    },
    {
      "type": "Feature",
      "properties": {
        "title": "Los Angeles Ave at Easy St",
        "tag": "laeasy_e",
        "stopId": "40375"
      },
      "geometry": {
        "type": "Point",
        "coordinates": [
          -118.8046853,
          34.2841943
        ]
      }
    },
    {
      "type": "Feature",
      "properties": {
        "title": "Easy St at Madera Rd",
        "tag": "easymader_e",
        "stopId": "40376"
      },
      "geometry": {
        "type": "Point",
        "coordinates": [
          -118.7976343,
          34.2782585
        ]
      }
    },
    {
      "type": "Feature",
      "properties": {
        "title": "Madera Rd at Strathearn",
        "tag": "57mader",
        "stopId": "40000"
      },
      "geometry": {
        "type": "Point",
        "coordinates": [
          -118.7964999,
          34.2734675
        ]
      }
    },
    {
      "type": "Feature",
      "properties": {
        "title": "Alamo at Tapo Canyon- Civic Center",
        "tag": "civicent",
        "stopId": "40020"
      },
      "geometry": {
        "type": "Point",
        "coordinates": [
          -118.7177,
          34.28626
        ]
      }
    },
    {
      "type": "Feature",
      "properties": {
        "title": "Tapo St at Cochran",
        "tag": "90tapos",
        "stopId": "40200"
      },
      "geometry": {
        "type": "Point",
        "coordinates": [
          -118.7090423,
          34.2784254
        ]
      }
    },
    {
      "type": "Feature",
      "properties": {
        "title": "Tapo St at Eileen",
        "tag": "91tapos",
        "stopId": "40201"
      },
      "geometry": {
        "type": "Point",
        "coordinates": [
          -118.7090392,
          34.2739673
        ]
      }
    },
    {
      "type": "Feature",
      "properties": {
        "title": "Los Angeles Ave at Tapo St",
        "tag": "6losan_e",
        "stopId": "40056"
      },
      "geometry": {
        "type": "Point",
        "coordinates": [
          -118.7089401,
          34.271602
        ]
      }
    },
    {
      "type": "Feature",
      "properties": {
        "title": "Los Angeles Ave at Metrolink Station",
        "tag": "losmetro_e",
        "stopId": "40054"
      },
      "geometry": {
        "type": "Point",
        "coordinates": [
          -118.6949674,
          34.2716701
        ]
      }
    },
    {
      "type": "Feature",
      "properties": {
        "title": "Los Angeles Ave at Emory",
        "tag": "3losan_e",
        "stopId": "40053"
      },
      "geometry": {
        "type": "Point",
        "coordinates": [
          -118.6862313,
          34.271682
        ]
      }
    },
    {
      "type": "Feature",
      "properties": {
        "title": "Los Angeles Ave at Stow",
        "tag": "2losan_e",
        "stopId": "40052"
      },
      "geometry": {
        "type": "Point",
        "coordinates": [
          -118.6822661,
          34.2716533
        ]
      }
    },
    {
      "type": "Feature",
      "properties": {
        "title": "Los Angeles Ave at Yosemite Ave",
        "tag": "1losan_e",
        "stopId": "40051"
      },
      "geometry": {
        "type": "Point",
        "coordinates": [
          -118.6774754,
          34.2715812
        ]
      }
    },
    {
      "type": "Feature",
      "properties": {
        "title": "Los Angeles Ave at Suede Ave",
        "tag": "85losan_e",
        "stopId": "40202"
      },
      "geometry": {
        "type": "Point",
        "coordinates": [
          -118.6731005,
          34.2716791
        ]
      }
    },
    {
      "type": "Feature",
      "properties": {
        "title": "Los Angeles Ave at Alscot Ave",
        "tag": "84losan_e",
        "stopId": "40203"
      },
      "geometry": {
        "type": "Point",
        "coordinates": [
          -118.6658452,
          34.2716675
        ]
      }
    },
    {
      "type": "Feature",
      "properties": {
        "title": "Kuener Dr at Menlo St",
        "tag": "83kuene",
        "stopId": "40204"
      },
      "geometry": {
        "type": "Point",
        "coordinates": [
          -118.6619869,
          34.275837
        ]
      }
    },
    {
      "type": "Feature",
      "properties": {
        "title": "Topanga Canyon Blvd at Highway 118",
        "tag": "82topan_e",
        "stopId": "40205"
      },
      "geometry": {
        "type": "Point",
        "coordinates": [
          -118.6050487,
          34.2773445
        ]
      }
    },
    {
      "type": "Feature",
      "properties": {
        "title": "Topanga Canyon Blvd at Devonshire St",
        "tag": "93topan",
        "stopId": "40206"
      },
      "geometry": {
        "type": "Point",
        "coordinates": [
          -118.60548,
          34.25712
        ]
      }
    },
    {
      "type": "Feature",
      "properties": {
        "title": "Devonshire St at Owensmouth Ave",
        "tag": "94devon",
        "stopId": "40207"
      },
      "geometry": {
        "type": "Point",
        "coordinates": [
          -118.6020022,
          34.25716
        ]
      }
    },
    {
      "type": "Feature",
      "properties": {
        "title": "Chatsworth Metrolink Station",
        "tag": "95chats",
        "stopId": "40250"
      },
      "geometry": {
        "type": "Point",
        "coordinates": [
          -118.598967,
          34.2525067
        ]
      }
    },
    {
      "type": "Feature",
      "properties": {
        "title": "Topanga Canyon Blvd at Chatsworth St",
        "tag": "81topan",
        "stopId": "40251"
      },
      "geometry": {
        "type": "Point",
        "coordinates": [
          -118.60598,
          34.2642685
        ]
      }
    },
    {
      "type": "Feature",
      "properties": {
        "title": "Topanga Canyon Blvd at Highway 118",
        "tag": "82topan",
        "stopId": "40205"
      },
      "geometry": {
        "type": "Point",
        "coordinates": [
          -118.6047358,
          34.2774881
        ]
      }
    },
    {
      "type": "Feature",
      "properties": {
        "title": "Kuehner Dr at Menlo St",
        "tag": "92kuehn",
        "stopId": "40252"
      },
      "geometry": {
        "type": "Point",
        "coordinates": [
          -118.6621284,
          34.27581
        ]
      }
    },
    {
      "type": "Feature",
      "properties": {
        "title": "Los Angeles Ave at Alscot Ave",
        "tag": "84losan",
        "stopId": "40203"
      },
      "geometry": {
        "type": "Point",
        "coordinates": [
          -118.6658869,
          34.2718208
        ]
      }
    },
    {
      "type": "Feature",
      "properties": {
        "title": "Los Angeles Ave at Suede Ave",
        "tag": "85losan",
        "stopId": "40202"
      },
      "geometry": {
        "type": "Point",
        "coordinates": [
          -118.6724059,
          34.2718201
        ]
      }
    },
    {
      "type": "Feature",
      "properties": {
        "title": "Los Angeles Ave at Ralston",
        "tag": "5losan",
        "stopId": "40253"
      },
      "geometry": {
        "type": "Point",
        "coordinates": [
          -118.7007541,
          34.2723769
        ]
      }
    },
    {
      "type": "Feature",
      "properties": {
        "title": "Tapo Canyon at Goodwin",
        "tag": "86tapoc",
        "stopId": "40254"
      },
      "geometry": {
        "type": "Point",
        "coordinates": [
          -118.71771,
          34.2763161
        ]
      }
    },
    {
      "type": "Feature",
      "properties": {
        "title": "Tapo Canyon at Highway 118",
        "tag": "87tapoc",
        "stopId": "40255"
      },
      "geometry": {
        "type": "Point",
        "coordinates": [
          -118.7176729,
          34.2802373
        ]
      }
    },
    {
      "type": "Feature",
      "properties": {
        "title": "Tapo Canyon at Adam",
        "tag": "88tapoc",
        "stopId": "40256"
      },
      "geometry": {
        "type": "Point",
        "coordinates": [
          -118.7177108,
          34.2835194
        ]
      }
    },
    {
      "type": "Feature",
      "properties": {
        "title": "Alamo at Santa Lucia",
        "tag": "97alamo",
        "stopId": "40300"
      },
      "geometry": {
        "type": "Point",
        "coordinates": [
          -118.7225865,
          34.2864407
        ]
      }
    },
    {
      "type": "Feature",
      "properties": {
        "title": "Alamo at Sequoia",
        "tag": "98alamo_s",
        "stopId": "40301"
      },
      "geometry": {
        "type": "Point",
        "coordinates": [
          -118.7300166,
          34.2864298
        ]
      }
    },
    {
      "type": "Feature",
      "properties": {
        "title": "Alamo at Reservoir",
        "tag": "99alamo_s",
        "stopId": "40302"
      },
      "geometry": {
        "type": "Point",
        "coordinates": [
          -118.7387987,
          34.2864364
        ]
      }
    },
    {
      "type": "Feature",
      "properties": {
        "title": "Reservoir at Meadowstone",
        "tag": "100reser",
        "stopId": "40303"
      },
      "geometry": {
        "type": "Point",
        "coordinates": [
          -118.7391518,
          34.2877903
        ]
      }
    },
    {
      "type": "Feature",
      "properties": {
        "title": "Alamo at Woodrow Ave",
        "tag": "alawoo",
        "stopId": "40305"
      },
      "geometry": {
        "type": "Point",
        "coordinates": [
          -118.7446919,
          34.2862871
        ]
      }
    },
    {
      "type": "Feature",
      "properties": {
        "title": "Alamo at Wanda Ave",
        "tag": "alawan_s",
        "stopId": "40306"
      },
      "geometry": {
        "type": "Point",
        "coordinates": [
          -118.7496108,
          34.2863492
        ]
      }
    },
    {
      "type": "Feature",
      "properties": {
        "title": "Alamo at Atherwood Ave",
        "tag": "alaath_s",
        "stopId": "40307"
      },
      "geometry": {
        "type": "Point",
        "coordinates": [
          -118.7530703,
          34.2863691
        ]
      }
    },
    {
      "type": "Feature",
      "properties": {
        "title": "Alamo at Broadmoor Ave",
        "tag": "alabro_s",
        "stopId": "40308"
      },
      "geometry": {
        "type": "Point",
        "coordinates": [
          -118.757021,
          34.2857007
        ]
      }
    },
    {
      "type": "Feature",
      "properties": {
        "title": "Simi Town Center",
        "tag": "simitown_s",
        "stopId": "40010"
      },
      "geometry": {
        "type": "Point",
        "coordinates": [
          -118.76934,
          34.28542
        ]
      }
    },
    {
      "type": "Feature",
      "properties": {
        "title": "Erringer Rd at Cochran St",
        "tag": "34errin_s",
        "stopId": "40009"
      },
      "geometry": {
        "type": "Point",
        "coordinates": [
          -118.7615084,
          34.2790816
        ]
      }
    },
    {
      "type": "Feature",
      "properties": {
        "title": "Erringer Rd at Larch St",
        "tag": "33errin_s",
        "stopId": "40008"
      },
      "geometry": {
        "type": "Point",
        "coordinates": [
          -118.7614939,
          34.2759141
        ]
      }
    },
    {
      "type": "Feature",
      "properties": {
        "title": "Erringer Rd at Heywood St",
        "tag": "102errin_s",
        "stopId": "40309"
      },
      "geometry": {
        "type": "Point",
        "coordinates": [
          -118.76148,
          34.267864
        ]
      }
    },
    {
      "type": "Feature",
      "properties": {
        "title": "Royal Ave at Crocker St",
        "tag": "19royal_s",
        "stopId": "40069"
      },
      "geometry": {
        "type": "Point",
        "coordinates": [
          -118.7693747,
          34.2645399
        ]
      }
    },
    {
      "type": "Feature",
      "properties": {
        "title": "Royal Ave at Buckskin Ave",
        "tag": "20royal_s",
        "stopId": "40070"
      },
      "geometry": {
        "type": "Point",
        "coordinates": [
          -118.7735807,
          34.2645399
        ]
      }
    },
    {
      "type": "Feature",
      "properties": {
        "title": "Royal Ave at Vaquero Dr",
        "tag": "103royal",
        "stopId": "40310"
      },
      "geometry": {
        "type": "Point",
        "coordinates": [
          -118.7930771,
          34.2644833
        ]
      }
    },
    {
      "type": "Feature",
      "properties": {
        "title": "Madera at East Country Club Dr",
        "tag": "104mader",
        "stopId": "40311"
      },
      "geometry": {
        "type": "Point",
        "coordinates": [
          -118.8040252,
          34.2558375
        ]
      }
    },
    {
      "type": "Feature",
      "properties": {
        "title": "Madera at Sunset Grove",
        "tag": "105mader",
        "stopId": "40312"
      },
      "geometry": {
        "type": "Point",
        "coordinates": [
          -118.8096192,
          34.2548992
        ]
      }
    },
    {
      "type": "Feature",
      "properties": {
        "title": "Madera at Woodranch",
        "tag": "106mader",
        "stopId": "40313"
      },
      "geometry": {
        "type": "Point",
        "coordinates": [
          -118.813212,
          34.2542222
        ]
      }
    },
    {
      "type": "Feature",
      "properties": {
        "title": "Ronald Reagan Library",
        "tag": "preslib",
        "stopId": "40314"
      },
      "geometry": {
        "type": "Point",
        "coordinates": [
          -118.8190323,
          34.2599603
        ]
      }
    },
    {
      "type": "Feature",
      "properties": {
        "title": "Country Club Dr at Freshmeadows",
        "tag": "107count",
        "stopId": "40315"
      },
      "geometry": {
        "type": "Point",
        "coordinates": [
          -118.8213397,
          34.2502798
        ]
      }
    },
    {
      "type": "Feature",
      "properties": {
        "title": "Country Club Dr at Red Lakes Pl",
        "tag": "108count",
        "stopId": "40316"
      },
      "geometry": {
        "type": "Point",
        "coordinates": [
          -118.8173794,
          34.2509592
        ]
      }
    },
    {
      "type": "Feature",
      "properties": {
        "title": "Country Club Dr at Wood Ranch Pkwy",
        "tag": "109count",
        "stopId": "40317"
      },
      "geometry": {
        "type": "Point",
        "coordinates": [
          -118.81205,
          34.2524318
        ]
      }
    },
    {
      "type": "Feature",
      "properties": {
        "title": "Wood Ranch Pkwy at Lake Park North",
        "tag": "110woodr",
        "stopId": "40350"
      },
      "geometry": {
        "type": "Point",
        "coordinates": [
          -118.811696,
          34.2477378
        ]
      }
    },
    {
      "type": "Feature",
      "properties": {
        "title": "Wood Ranch Pkwy at Lake Park South",
        "tag": "woodlake",
        "stopId": "40351"
      },
      "geometry": {
        "type": "Point",
        "coordinates": [
          -118.8110081,
          34.2461356
        ]
      }
    },
    {
      "type": "Feature",
      "properties": {
        "title": "Wood Ranch Pkwy at Martha Morrison North",
        "tag": "111woodr",
        "stopId": "40352"
      },
      "geometry": {
        "type": "Point",
        "coordinates": [
          -118.8100403,
          34.2418306
        ]
      }
    },
    {
      "type": "Feature",
      "properties": {
        "title": "Wood Ranch Parkway at High Meadow",
        "tag": "126woodr",
        "stopId": "40353"
      },
      "geometry": {
        "type": "Point",
        "coordinates": [
          -118.8063102,
          34.2381391
        ]
      }
    },
    {
      "type": "Feature",
      "properties": {
        "title": "Wood Ranch Parkway at Circle Knoll",
        "tag": "112woodr",
        "stopId": "40354"
      },
      "geometry": {
        "type": "Point",
        "coordinates": [
          -118.8034923,
          34.2320877
        ]
      }
    },
    {
      "type": "Feature",
      "properties": {
        "title": "Wood Ranch Pkwy at Martha Morrison South",
        "tag": "woodmart",
        "stopId": "40355"
      },
      "geometry": {
        "type": "Point",
        "coordinates": [
          -118.8050441,
          34.2344864
        ]
      }
    },
    {
      "type": "Feature",
      "properties": {
        "title": "Long Canyon at Twisted Oak",
        "tag": "113longc",
        "stopId": "40356"
      },
      "geometry": {
        "type": "Point",
        "coordinates": [
          -118.7977954,
          34.2296119
        ]
      }
    },
    {
      "type": "Feature",
      "properties": {
        "title": "Long Canyon at Rustic Hills",
        "tag": "114longc",
        "stopId": "40357"
      },
      "geometry": {
        "type": "Point",
        "coordinates": [
          -118.7945306,
          34.2315733
        ]
      }
    },
    {
      "type": "Feature",
      "properties": {
        "title": "First at Nonchalant",
        "tag": "115first",
        "stopId": "40358"
      },
      "geometry": {
        "type": "Point",
        "coordinates": [
          -118.7812958,
          34.2470638
        ]
      }
    },
    {
      "type": "Feature",
      "properties": {
        "title": "First at Mellow",
        "tag": "116first",
        "stopId": "40359"
      },
      "geometry": {
        "type": "Point",
        "coordinates": [
          -118.7805849,
          34.2488834
        ]
      }
    },
    {
      "type": "Feature",
      "properties": {
        "title": "First at Bennet",
        "tag": "117first",
        "stopId": "40360"
      },
      "geometry": {
        "type": "Point",
        "coordinates": [
          -118.7799712,
          34.2541094
        ]
      }
    },
    {
      "type": "Feature",
      "properties": {
        "title": "First at Fitzgerald",
        "tag": "118first",
        "stopId": "40361"
      },
      "geometry": {
        "type": "Point",
        "coordinates": [
          -118.7788529,
          34.2580731
        ]
      }
    },
    {
      "type": "Feature",
      "properties": {
        "title": "First at Royal",
        "tag": "119first",
        "stopId": "40362"
      },
      "geometry": {
        "type": "Point",
        "coordinates": [
          -118.7788721,
          34.264151
        ]
      }
    },
    {
      "type": "Feature",
      "properties": {
        "title": "Erringer Rd at Royal Ave",
        "tag": "120errin",
        "stopId": "40363"
      },
      "geometry": {
        "type": "Point",
        "coordinates": [
          -118.7613959,
          34.2646043
        ]
      }
    },
    {
      "type": "Feature",
      "properties": {
        "title": "Erringer Rd at Heywood St",
        "tag": "102errin",
        "stopId": "40309"
      },
      "geometry": {
        "type": "Point",
        "coordinates": [
          -118.7613312,
          34.268854
        ]
      }
    },
    {
      "type": "Feature",
      "properties": {
        "title": "Alamo at Broadmoor Ave",
        "tag": "alabro",
        "stopId": "40308"
      },
      "geometry": {
        "type": "Point",
        "coordinates": [
          -118.7571987,
          34.2855382
        ]
      }
    },
    {
      "type": "Feature",
      "properties": {
        "title": "Alamo at Atherwood Ave",
        "tag": "alaath",
        "stopId": "40307"
      },
      "geometry": {
        "type": "Point",
        "coordinates": [
          -118.7520771,
          34.2863342
        ]
      }
    },
    {
      "type": "Feature",
      "properties": {
        "title": "Alamo at Wanda Ave",
        "tag": "alawan",
        "stopId": "40306"
      },
      "geometry": {
        "type": "Point",
        "coordinates": [
          -118.7480727,
          34.2863039
        ]
      }
    },
    {
      "type": "Feature",
      "properties": {
        "title": "Alamo at Reservoir",
        "tag": "99alamo",
        "stopId": "40302"
      },
      "geometry": {
        "type": "Point",
        "coordinates": [
          -118.7378963,
          34.2863011
        ]
      }
    },
    {
      "type": "Feature",
      "properties": {
        "title": "Alamo at Sequoia",
        "tag": "98alamo",
        "stopId": "40301"
      },
      "geometry": {
        "type": "Point",
        "coordinates": [
          -118.7316121,
          34.28633
        ]
      }
    },
    {
      "type": "Feature",
      "properties": {
        "title": "Lemon at Alamo",
        "tag": "123lemon",
        "stopId": "40364"
      },
      "geometry": {
        "type": "Point",
        "coordinates": [
          -118.7264652,
          34.2869555
        ]
      }
    },
    {
      "type": "Feature",
      "properties": {
        "title": "Avenida Simi at Berros",
        "tag": "124aveni",
        "stopId": "40365"
      },
      "geometry": {
        "type": "Point",
        "coordinates": [
          -118.7200633,
          34.289868
        ]
      }
    }
  ],
  "copyright": "All data copyright Simi Valley (SVT) 2018."
}