{
  "type": "FeatureCollection",
  "features": [
    {
      "type": "Feature",
      "properties": {
        "title": "Safeway",
        "tag": "921",
        "stopId": "7792500"
      },
      "geometry": {
        "type": "Point",
        "coordinates": [
          -122.87335,
          38.6096899
        ]
      }
    },
    {
      "type": "Feature",
      "properties": {
        "title": "Russian River Trailer Park",
        "tag": "923",
        "stopId": "7793500"
      },
      "geometry": {
        "type": "Point",
        "coordinates": [
          -122.86255,
          38.6040099
        ]
      }
    },
    {
      "type": "Feature",
      "properties": {
        "title": "Russian River Pines Apartments",
        "tag": "924",
        "stopId": "7793400"
      },
      "geometry": {
        "type": "Point",
        "coordinates": [
          -122.86134,
          38.6049199
        ]
      }
    },
    {
      "type": "Feature",
      "properties": {
        "title": "Catholic Church (Matheson St)",
        "tag": "925",
        "stopId": "7792600"
      },
      "geometry": {
        "type": "Point",
        "coordinates": [
          -122.86802,
          38.6107299
        ]
      }
    },
    {
      "type": "Feature",
      "properties": {
        "title": "Fitch Mountain Terrace",
        "tag": "926",
        "stopId": "7792800"
      },
      "geometry": {
        "type": "Point",
        "coordinates": [
          -122.85656,
          38.6103299
        ]
      }
    },
    {
      "type": "Feature",
      "properties": {
        "title": "Heron Dr & Hummingbird  Ct",
        "tag": "927",
        "stopId": "7792900"
      },
      "geometry": {
        "type": "Point",
        "coordinates": [
          -122.8546299,
          38.61074
        ]
      }
    },
    {
      "type": "Feature",
      "properties": {
        "title": "Flag Stop",
        "tag": "928",
        "stopId": "7793000"
      },
      "geometry": {
        "type": "Point",
        "coordinates": [
          -122.85182,
          38.6095199
        ]
      }
    },
    {
      "type": "Feature",
      "properties": {
        "title": "Flag Stop",
        "tag": "929",
        "stopId": "7793100"
      },
      "geometry": {
        "type": "Point",
        "coordinates": [
          -122.85029,
          38.6095399
        ]
      }
    },
    {
      "type": "Feature",
      "properties": {
        "title": "Flag Stop",
        "tag": "930",
        "stopId": "7793200"
      },
      "geometry": {
        "type": "Point",
        "coordinates": [
          -122.84657,
          38.6098999
        ]
      }
    },
    {
      "type": "Feature",
      "properties": {
        "title": "First St & Mason St",
        "tag": "931",
        "stopId": "7793300"
      },
      "geometry": {
        "type": "Point",
        "coordinates": [
          -122.8618599,
          38.60805
        ]
      }
    },
    {
      "type": "Feature",
      "properties": {
        "title": "Senior Center",
        "tag": "933",
        "stopId": "7792700"
      },
      "geometry": {
        "type": "Point",
        "coordinates": [
          -122.86908,
          38.6106599
        ]
      }
    },
    {
      "type": "Feature",
      "properties": {
        "title": "Across from Rite Aid",
        "tag": "936",
        "stopId": "7793600"
      },
      "geometry": {
        "type": "Point",
        "coordinates": [
          -122.87297,
          38.6159299
        ]
      }
    },
    {
      "type": "Feature",
      "properties": {
        "title": "Grove Street & W Grant St",
        "tag": "937",
        "stopId": "7793700"
      },
      "geometry": {
        "type": "Point",
        "coordinates": [
          -122.87555,
          38.61634
        ]
      }
    },
    {
      "type": "Feature",
      "properties": {
        "title": "Grove St & Dry Creek Rd",
        "tag": "938",
        "stopId": "7793800"
      },
      "geometry": {
        "type": "Point",
        "coordinates": [
          -122.87564,
          38.6258
        ]
      }
    },
    {
      "type": "Feature",
      "properties": {
        "title": "Parkland Farms",
        "tag": "940",
        "stopId": "7794000"
      },
      "geometry": {
        "type": "Point",
        "coordinates": [
          -122.87302,
          38.6377499
        ]
      }
    },
    {
      "type": "Feature",
      "properties": {
        "title": "Parkland Farms Blvd & Arbor Way",
        "tag": "941",
        "stopId": "7794100"
      },
      "geometry": {
        "type": "Point",
        "coordinates": [
          -122.8670481,
          38.6399504
        ]
      }
    },
    {
      "type": "Feature",
      "properties": {
        "title": "Bridle Path & Spur Ridge Lane",
        "tag": "942",
        "stopId": "7794200"
      },
      "geometry": {
        "type": "Point",
        "coordinates": [
          -122.8675099,
          38.64122
        ]
      }
    },
    {
      "type": "Feature",
      "properties": {
        "title": "March Ave & Healdsburg Ave",
        "tag": "943",
        "stopId": "7794300"
      },
      "geometry": {
        "type": "Point",
        "coordinates": [
          -122.87204,
          38.6261599
        ]
      }
    },
    {
      "type": "Feature",
      "properties": {
        "title": "Prentice Ave & March Ave",
        "tag": "944",
        "stopId": "7794400"
      },
      "geometry": {
        "type": "Point",
        "coordinates": [
          -122.8666499,
          38.62679
        ]
      }
    },
    {
      "type": "Feature",
      "properties": {
        "title": "Alliance Medical Center",
        "tag": "945",
        "stopId": "7794500"
      },
      "geometry": {
        "type": "Point",
        "coordinates": [
          -122.86509,
          38.6267699
        ]
      }
    },
    {
      "type": "Feature",
      "properties": {
        "title": "Powell Ave & Fitch St",
        "tag": "946",
        "stopId": "7794700"
      },
      "geometry": {
        "type": "Point",
        "coordinates": [
          -122.86685,
          38.6207699
        ]
      }
    },
    {
      "type": "Feature",
      "properties": {
        "title": "Fitch St & Grant St",
        "tag": "947",
        "stopId": "7794800"
      },
      "geometry": {
        "type": "Point",
        "coordinates": [
          -122.8673199,
          38.6164199
        ]
      }
    },
    {
      "type": "Feature",
      "properties": {
        "title": "CVS (Piper St)",
        "tag": "948",
        "stopId": "7794900"
      },
      "geometry": {
        "type": "Point",
        "coordinates": [
          -122.87084,
          38.6142299
        ]
      }
    },
    {
      "type": "Feature",
      "properties": {
        "title": "Santa Rosa Transit Mall",
        "tag": "757068",
        "stopId": "7700100"
      },
      "geometry": {
        "type": "Point",
        "coordinates": [
          -122.71373,
          38.4386899
        ]
      }
    },
    {
      "type": "Feature",
      "properties": {
        "title": "B St & Ross St",
        "tag": "757069",
        "stopId": "7700200"
      },
      "geometry": {
        "type": "Point",
        "coordinates": [
          -122.7168,
          38.44134
        ]
      }
    },
    {
      "type": "Feature",
      "properties": {
        "title": "Mendocino Ave & Cherry St",
        "tag": "757070",
        "stopId": "7700300"
      },
      "geometry": {
        "type": "Point",
        "coordinates": [
          -122.7168699,
          38.4445299
        ]
      }
    },
    {
      "type": "Feature",
      "properties": {
        "title": "Mendocino Ave & College Ave",
        "tag": "757071",
        "stopId": "7700400"
      },
      "geometry": {
        "type": "Point",
        "coordinates": [
          -122.71756,
          38.4461499
        ]
      }
    },
    {
      "type": "Feature",
      "properties": {
        "title": "Mendocino Ave & Ridgeway",
        "tag": "757073",
        "stopId": "7700600"
      },
      "geometry": {
        "type": "Point",
        "coordinates": [
          -122.7174099,
          38.44998
        ]
      }
    },
    {
      "type": "Feature",
      "properties": {
        "title": "Ac Santa Rosa Junior College",
        "tag": "757074",
        "stopId": "7700700"
      },
      "geometry": {
        "type": "Point",
        "coordinates": [
          -122.71722,
          38.4550299
        ]
      }
    },
    {
      "type": "Feature",
      "properties": {
        "title": "Mendocino Ave & Dexter St",
        "tag": "757075",
        "stopId": "7700800"
      },
      "geometry": {
        "type": "Point",
        "coordinates": [
          -122.71713,
          38.45721
        ]
      }
    },
    {
      "type": "Feature",
      "properties": {
        "title": "Mendocino Ave & Silva Ave",
        "tag": "757076",
        "stopId": "7700900"
      },
      "geometry": {
        "type": "Point",
        "coordinates": [
          -122.71708,
          38.45852
        ]
      }
    },
    {
      "type": "Feature",
      "properties": {
        "title": "Mendocino Ave & Steele Ln",
        "tag": "757077",
        "stopId": "7701000"
      },
      "geometry": {
        "type": "Point",
        "coordinates": [
          -122.71753,
          38.46212
        ]
      }
    },
    {
      "type": "Feature",
      "properties": {
        "title": "Administration Dr & Paulin",
        "tag": "757078",
        "stopId": "7701010"
      },
      "geometry": {
        "type": "Point",
        "coordinates": [
          -122.7220599,
          38.4642499
        ]
      }
    },
    {
      "type": "Feature",
      "properties": {
        "title": "Administration Dr & Ventura",
        "tag": "757079",
        "stopId": "7701020"
      },
      "geometry": {
        "type": "Point",
        "coordinates": [
          -122.7239999,
          38.4641599
        ]
      }
    },
    {
      "type": "Feature",
      "properties": {
        "title": "County Admin Center (Ventura Ave)",
        "tag": "757080",
        "stopId": "7701030"
      },
      "geometry": {
        "type": "Point",
        "coordinates": [
          -122.72422,
          38.4665399
        ]
      }
    },
    {
      "type": "Feature",
      "properties": {
        "title": "Kaiser Stop / Bicentennial Ave",
        "tag": "757082",
        "stopId": "7701050"
      },
      "geometry": {
        "type": "Point",
        "coordinates": [
          -122.7257,
          38.4703399
        ]
      }
    },
    {
      "type": "Feature",
      "properties": {
        "title": "Range Ave & Russel Ave",
        "tag": "757083",
        "stopId": "7701060"
      },
      "geometry": {
        "type": "Point",
        "coordinates": [
          -122.7327799,
          38.46832
        ]
      }
    },
    {
      "type": "Feature",
      "properties": {
        "title": "Range Ave & State Farm Dr",
        "tag": "757084",
        "stopId": "7701070"
      },
      "geometry": {
        "type": "Point",
        "coordinates": [
          -122.7327499,
          38.4655799
        ]
      }
    },
    {
      "type": "Feature",
      "properties": {
        "title": "Range Ave & @ Paulin Creek",
        "tag": "757085",
        "stopId": "7701080"
      },
      "geometry": {
        "type": "Point",
        "coordinates": [
          -122.7327199,
          38.46269
        ]
      }
    },
    {
      "type": "Feature",
      "properties": {
        "title": "Range Ave & Steele Ln",
        "tag": "757086",
        "stopId": "7701090"
      },
      "geometry": {
        "type": "Point",
        "coordinates": [
          -122.7326199,
          38.46037
        ]
      }
    },
    {
      "type": "Feature",
      "properties": {
        "title": "Mendocino Ave & Chanate Rd",
        "tag": "757087",
        "stopId": "7701100"
      },
      "geometry": {
        "type": "Point",
        "coordinates": [
          -122.71953,
          38.4656
        ]
      }
    },
    {
      "type": "Feature",
      "properties": {
        "title": "Mendocino Ave & Bicentennial Way",
        "tag": "757088",
        "stopId": "7701200"
      },
      "geometry": {
        "type": "Point",
        "coordinates": [
          -122.72338,
          38.4710399
        ]
      }
    },
    {
      "type": "Feature",
      "properties": {
        "title": "Mendocino Ave & Fountain Grove Pkwy",
        "tag": "757089",
        "stopId": "7701300"
      },
      "geometry": {
        "type": "Point",
        "coordinates": [
          -122.7278799,
          38.4743299
        ]
      }
    },
    {
      "type": "Feature",
      "properties": {
        "title": "Old Redwood Hwy &",
        "tag": "757090",
        "stopId": "7701400"
      },
      "geometry": {
        "type": "Point",
        "coordinates": [
          -122.73264,
          38.47935
        ]
      }
    },
    {
      "type": "Feature",
      "properties": {
        "title": "Old Redwood Hwy (Kaiser Stein Bldg)",
        "tag": "757091",
        "stopId": "7701500"
      },
      "geometry": {
        "type": "Point",
        "coordinates": [
          -122.7343999,
          38.4827199
        ]
      }
    },
    {
      "type": "Feature",
      "properties": {
        "title": "Old Redwood Hwy & Cardinal Newman HS",
        "tag": "757092",
        "stopId": "7701600"
      },
      "geometry": {
        "type": "Point",
        "coordinates": [
          -122.74103,
          38.4914499
        ]
      }
    },
    {
      "type": "Feature",
      "properties": {
        "title": "Old Redwood Hwy & La Mancha Apartments",
        "tag": "757093",
        "stopId": "7701700"
      },
      "geometry": {
        "type": "Point",
        "coordinates": [
          -122.74397,
          38.49373
        ]
      }
    },
    {
      "type": "Feature",
      "properties": {
        "title": "Old Redwood Hwy & Chelsea Drive",
        "tag": "757094",
        "stopId": "7701800"
      },
      "geometry": {
        "type": "Point",
        "coordinates": [
          -122.74604,
          38.4953899
        ]
      }
    },
    {
      "type": "Feature",
      "properties": {
        "title": "Mark West Springs Rd & Old Redwood Hwy",
        "tag": "757095",
        "stopId": "7701810"
      },
      "geometry": {
        "type": "Point",
        "coordinates": [
          -122.7503099,
          38.4965799
        ]
      }
    },
    {
      "type": "Feature",
      "properties": {
        "title": "River Rd & West of Hwy 101",
        "tag": "757096",
        "stopId": "7701830"
      },
      "geometry": {
        "type": "Point",
        "coordinates": [
          -122.76118,
          38.4965
        ]
      }
    },
    {
      "type": "Feature",
      "properties": {
        "title": "Fulton Rd & River Rd",
        "tag": "757097",
        "stopId": "7701840"
      },
      "geometry": {
        "type": "Point",
        "coordinates": [
          -122.76991,
          38.4969799
        ]
      }
    },
    {
      "type": "Feature",
      "properties": {
        "title": "Fulton Rd & Airport Blvd",
        "tag": "757098",
        "stopId": "7701850"
      },
      "geometry": {
        "type": "Point",
        "coordinates": [
          -122.76973,
          38.5102799
        ]
      }
    },
    {
      "type": "Feature",
      "properties": {
        "title": "River Rd & Fulton Rd",
        "tag": "757099",
        "stopId": "7701860"
      },
      "geometry": {
        "type": "Point",
        "coordinates": [
          -122.77145,
          38.4966399
        ]
      }
    },
    {
      "type": "Feature",
      "properties": {
        "title": "River Rd & Laughlin Rd",
        "tag": "757100",
        "stopId": "7701870"
      },
      "geometry": {
        "type": "Point",
        "coordinates": [
          -122.7880099,
          38.49311
        ]
      }
    },
    {
      "type": "Feature",
      "properties": {
        "title": "River Rd & Trenton-Healdsburg Rd",
        "tag": "757101",
        "stopId": "7701880"
      },
      "geometry": {
        "type": "Point",
        "coordinates": [
          -122.8553399,
          38.4884799
        ]
      }
    },
    {
      "type": "Feature",
      "properties": {
        "title": "Old Redwood Hwy & Mark West Springs Rd",
        "tag": "757102",
        "stopId": "7701900"
      },
      "geometry": {
        "type": "Point",
        "coordinates": [
          -122.7491199,
          38.4988599
        ]
      }
    },
    {
      "type": "Feature",
      "properties": {
        "title": "Larkfield Shopping Center",
        "tag": "757103",
        "stopId": "7701910"
      },
      "geometry": {
        "type": "Point",
        "coordinates": [
          -122.75158,
          38.5012499
        ]
      }
    },
    {
      "type": "Feature",
      "properties": {
        "title": "Old Redwood Hwy & Ascot Dr",
        "tag": "757104",
        "stopId": "7702000"
      },
      "geometry": {
        "type": "Point",
        "coordinates": [
          -122.7571,
          38.5033199
        ]
      }
    },
    {
      "type": "Feature",
      "properties": {
        "title": "Old Redwood Hwy & Deerwood Dr",
        "tag": "757105",
        "stopId": "7702010"
      },
      "geometry": {
        "type": "Point",
        "coordinates": [
          -122.75877,
          38.50552
        ]
      }
    },
    {
      "type": "Feature",
      "properties": {
        "title": "Old Redwood Hwy & Faught Rd",
        "tag": "757106",
        "stopId": "7702100"
      },
      "geometry": {
        "type": "Point",
        "coordinates": [
          -122.7598,
          38.5087799
        ]
      }
    },
    {
      "type": "Feature",
      "properties": {
        "title": "Old Redwood Hwy & Airport Blvd",
        "tag": "757107",
        "stopId": "7702200"
      },
      "geometry": {
        "type": "Point",
        "coordinates": [
          -122.7641899,
          38.5117999
        ]
      }
    },
    {
      "type": "Feature",
      "properties": {
        "title": "Old Redwood Hwy & Fulton Rd",
        "tag": "757108",
        "stopId": "7702300"
      },
      "geometry": {
        "type": "Point",
        "coordinates": [
          -122.76922,
          38.51566
        ]
      }
    },
    {
      "type": "Feature",
      "properties": {
        "title": "Old Redwood Hwy & Plymouth Way",
        "tag": "757109",
        "stopId": "7702400"
      },
      "geometry": {
        "type": "Point",
        "coordinates": [
          -122.77409,
          38.52005
        ]
      }
    },
    {
      "type": "Feature",
      "properties": {
        "title": "Old Redwood Hwy & Shiloh Rd",
        "tag": "757110",
        "stopId": "7702500"
      },
      "geometry": {
        "type": "Point",
        "coordinates": [
          -122.7758999,
          38.5220099
        ]
      }
    },
    {
      "type": "Feature",
      "properties": {
        "title": "Shiloh Rd & Old Redwood Hwy",
        "tag": "757111",
        "stopId": "7702510"
      },
      "geometry": {
        "type": "Point",
        "coordinates": [
          -122.7815099,
          38.5257999
        ]
      }
    },
    {
      "type": "Feature",
      "properties": {
        "title": "Shiloh Center & Wal-Mart (Hembree)",
        "tag": "757112",
        "stopId": "7702520"
      },
      "geometry": {
        "type": "Point",
        "coordinates": [
          -122.78887,
          38.5263699
        ]
      }
    },
    {
      "type": "Feature",
      "properties": {
        "title": "Hembree Ln & Wilson Ln",
        "tag": "757113",
        "stopId": "7702540"
      },
      "geometry": {
        "type": "Point",
        "coordinates": [
          -122.79623,
          38.53314
        ]
      }
    },
    {
      "type": "Feature",
      "properties": {
        "title": "Hembree Ln & Cornell St",
        "tag": "757114",
        "stopId": "7702550"
      },
      "geometry": {
        "type": "Point",
        "coordinates": [
          -122.79787,
          38.53616
        ]
      }
    },
    {
      "type": "Feature",
      "properties": {
        "title": "Hembree Ln & Broad Oak Way",
        "tag": "757115",
        "stopId": "7702560"
      },
      "geometry": {
        "type": "Point",
        "coordinates": [
          -122.7979399,
          38.5389899
        ]
      }
    },
    {
      "type": "Feature",
      "properties": {
        "title": "Old Redwood Hwy & Shiloh Rd",
        "tag": "757116",
        "stopId": "7702600"
      },
      "geometry": {
        "type": "Point",
        "coordinates": [
          -122.77955,
          38.5263499
        ]
      }
    },
    {
      "type": "Feature",
      "properties": {
        "title": "Old Redwood Hwy & Savannah Way",
        "tag": "757117",
        "stopId": "7702700"
      },
      "geometry": {
        "type": "Point",
        "coordinates": [
          -122.78374,
          38.5316799
        ]
      }
    },
    {
      "type": "Feature",
      "properties": {
        "title": "Old Redwood Hwy & Shamrock Circle",
        "tag": "757118",
        "stopId": "7702800"
      },
      "geometry": {
        "type": "Point",
        "coordinates": [
          -122.7873799,
          38.5347999
        ]
      }
    },
    {
      "type": "Feature",
      "properties": {
        "title": "Old Redwood Hwy & Thrushwing",
        "tag": "757119",
        "stopId": "7702900"
      },
      "geometry": {
        "type": "Point",
        "coordinates": [
          -122.79086,
          38.53795
        ]
      }
    },
    {
      "type": "Feature",
      "properties": {
        "title": "Old Redwood Hwy & Pleasant Ave",
        "tag": "757120",
        "stopId": "7703000"
      },
      "geometry": {
        "type": "Point",
        "coordinates": [
          -122.7938,
          38.5402999
        ]
      }
    },
    {
      "type": "Feature",
      "properties": {
        "title": "Old Redwood Hwy & Hembree Ln",
        "tag": "757121",
        "stopId": "7703100"
      },
      "geometry": {
        "type": "Point",
        "coordinates": [
          -122.79728,
          38.54187
        ]
      }
    },
    {
      "type": "Feature",
      "properties": {
        "title": "Old Redwood Hwy & Alden Ln",
        "tag": "757122",
        "stopId": "7703200"
      },
      "geometry": {
        "type": "Point",
        "coordinates": [
          -122.80003,
          38.54341
        ]
      }
    },
    {
      "type": "Feature",
      "properties": {
        "title": "Old Redwood Hwy & Lakewood Dr",
        "tag": "757123",
        "stopId": "7703300"
      },
      "geometry": {
        "type": "Point",
        "coordinates": [
          -122.80614,
          38.5462499
        ]
      }
    },
    {
      "type": "Feature",
      "properties": {
        "title": "Windsor River Rd & Old Redwood Hwy",
        "tag": "757124",
        "stopId": "7703400"
      },
      "geometry": {
        "type": "Point",
        "coordinates": [
          -122.8115199,
          38.5474299
        ]
      }
    },
    {
      "type": "Feature",
      "properties": {
        "title": "Windsor River Rd (Windsor Depot)",
        "tag": "757125",
        "stopId": "7703500"
      },
      "geometry": {
        "type": "Point",
        "coordinates": [
          -122.81615,
          38.5473199
        ]
      }
    },
    {
      "type": "Feature",
      "properties": {
        "title": "Windsor River Rd & Starr Rd",
        "tag": "757126",
        "stopId": "7703600"
      },
      "geometry": {
        "type": "Point",
        "coordinates": [
          -122.8252299,
          38.5473499
        ]
      }
    },
    {
      "type": "Feature",
      "properties": {
        "title": "Starr Rd & Buckingham Dr",
        "tag": "757127",
        "stopId": "7703700"
      },
      "geometry": {
        "type": "Point",
        "coordinates": [
          -122.82593,
          38.54879
        ]
      }
    },
    {
      "type": "Feature",
      "properties": {
        "title": "Starr Rd & Stellar Ln",
        "tag": "757128",
        "stopId": "7703800"
      },
      "geometry": {
        "type": "Point",
        "coordinates": [
          -122.8259699,
          38.5512599
        ]
      }
    },
    {
      "type": "Feature",
      "properties": {
        "title": "Starr Rd & Colleen Dr",
        "tag": "757129",
        "stopId": "7703900"
      },
      "geometry": {
        "type": "Point",
        "coordinates": [
          -122.82597,
          38.5539699
        ]
      }
    },
    {
      "type": "Feature",
      "properties": {
        "title": "Starr Rd & Gumview Rd",
        "tag": "757130",
        "stopId": "7704000"
      },
      "geometry": {
        "type": "Point",
        "coordinates": [
          -122.82596,
          38.5563599
        ]
      }
    },
    {
      "type": "Feature",
      "properties": {
        "title": "Starr Rd & Twin Oaks Ln",
        "tag": "757131",
        "stopId": "7704200"
      },
      "geometry": {
        "type": "Point",
        "coordinates": [
          -122.82596,
          38.5597899
        ]
      }
    },
    {
      "type": "Feature",
      "properties": {
        "title": "Old Redwood Hwy & Starr Rd",
        "tag": "757132",
        "stopId": "7704300"
      },
      "geometry": {
        "type": "Point",
        "coordinates": [
          -122.82837,
          38.5646099
        ]
      }
    },
    {
      "type": "Feature",
      "properties": {
        "title": "Old Redwood Hwy &",
        "tag": "757133",
        "stopId": "7704400"
      },
      "geometry": {
        "type": "Point",
        "coordinates": [
          -122.83126,
          38.5663399
        ]
      }
    },
    {
      "type": "Feature",
      "properties": {
        "title": "Old Redwood Hwy & Eastside Rd",
        "tag": "757134",
        "stopId": "7704500"
      },
      "geometry": {
        "type": "Point",
        "coordinates": [
          -122.84165,
          38.5745199
        ]
      }
    },
    {
      "type": "Feature",
      "properties": {
        "title": "Old Redwood Hwy & Eastside Rd",
        "tag": "757135",
        "stopId": "7704600"
      },
      "geometry": {
        "type": "Point",
        "coordinates": [
          -122.84312,
          38.57779
        ]
      }
    },
    {
      "type": "Feature",
      "properties": {
        "title": "Old Redwood Hwy & Btwn Eastside/Limerick",
        "tag": "757136",
        "stopId": "7704700"
      },
      "geometry": {
        "type": "Point",
        "coordinates": [
          -122.8460299,
          38.5828099
        ]
      }
    },
    {
      "type": "Feature",
      "properties": {
        "title": "Old Redwood Hwy & Limerick Ln",
        "tag": "757137",
        "stopId": "7704800"
      },
      "geometry": {
        "type": "Point",
        "coordinates": [
          -122.8494599,
          38.5886699
        ]
      }
    },
    {
      "type": "Feature",
      "properties": {
        "title": "Healdsburg Ave & Exchange Way",
        "tag": "757138",
        "stopId": "7704900"
      },
      "geometry": {
        "type": "Point",
        "coordinates": [
          -122.8687299,
          38.6056199
        ]
      }
    },
    {
      "type": "Feature",
      "properties": {
        "title": "Healdsburg Ave & Mill St",
        "tag": "757139",
        "stopId": "7705000"
      },
      "geometry": {
        "type": "Point",
        "coordinates": [
          -122.86949,
          38.60758
        ]
      }
    },
    {
      "type": "Feature",
      "properties": {
        "title": "Healdsburg Plaza",
        "tag": "757140",
        "stopId": "7705100"
      },
      "geometry": {
        "type": "Point",
        "coordinates": [
          -122.87049,
          38.6106899
        ]
      }
    },
    {
      "type": "Feature",
      "properties": {
        "title": "Healdsburg Ave & Powell Ave",
        "tag": "757141",
        "stopId": "7705200"
      },
      "geometry": {
        "type": "Point",
        "coordinates": [
          -122.87235,
          38.6210999
        ]
      }
    },
    {
      "type": "Feature",
      "properties": {
        "title": "Healdsburg Ave & Dry Creek Rd",
        "tag": "757142",
        "stopId": "7705300"
      },
      "geometry": {
        "type": "Point",
        "coordinates": [
          -122.87254,
          38.6235399
        ]
      }
    },
    {
      "type": "Feature",
      "properties": {
        "title": "Dry Creek Rd & Healdsburg Ave",
        "tag": "757143",
        "stopId": "7705310"
      },
      "geometry": {
        "type": "Point",
        "coordinates": [
          -122.8737599,
          38.6263599
        ]
      }
    },
    {
      "type": "Feature",
      "properties": {
        "title": "Grove St & Chaquita Rd",
        "tag": "757144",
        "stopId": "7705320"
      },
      "geometry": {
        "type": "Point",
        "coordinates": [
          -122.87666,
          38.6331699
        ]
      }
    },
    {
      "type": "Feature",
      "properties": {
        "title": "Healdsburg Ave & Terrace",
        "tag": "757145",
        "stopId": "7705400"
      },
      "geometry": {
        "type": "Point",
        "coordinates": [
          -122.87252,
          38.6276699
        ]
      }
    },
    {
      "type": "Feature",
      "properties": {
        "title": "Healdsburg Ave & Foss Creek (driveway)",
        "tag": "757146",
        "stopId": "7705500"
      },
      "geometry": {
        "type": "Point",
        "coordinates": [
          -122.8733399,
          38.6332399
        ]
      }
    },
    {
      "type": "Feature",
      "properties": {
        "title": "Healdsburg Ave & Parkland Farms Dr",
        "tag": "757147",
        "stopId": "7705600"
      },
      "geometry": {
        "type": "Point",
        "coordinates": [
          -122.87384,
          38.6383799
        ]
      }
    },
    {
      "type": "Feature",
      "properties": {
        "title": "Healdsburg Ave & Alexander Valley Rd",
        "tag": "757148",
        "stopId": "7705700"
      },
      "geometry": {
        "type": "Point",
        "coordinates": [
          -122.86925,
          38.65064
        ]
      }
    },
    {
      "type": "Feature",
      "properties": {
        "title": "Healdsburg Ave & Lytton Springs Rd",
        "tag": "757149",
        "stopId": "7705800"
      },
      "geometry": {
        "type": "Point",
        "coordinates": [
          -122.8714299,
          38.6582599
        ]
      }
    },
    {
      "type": "Feature",
      "properties": {
        "title": "Geyserville Ave & Independence Ln",
        "tag": "757150",
        "stopId": "7705810"
      },
      "geometry": {
        "type": "Point",
        "coordinates": [
          -122.8797799,
          38.67911
        ]
      }
    },
    {
      "type": "Feature",
      "properties": {
        "title": "Geyserville Ave & Tzabaco Creek Rd",
        "tag": "757151",
        "stopId": "7705900"
      },
      "geometry": {
        "type": "Point",
        "coordinates": [
          -122.8853599,
          38.6934699
        ]
      }
    },
    {
      "type": "Feature",
      "properties": {
        "title": "Geyserville Ave & Walden St",
        "tag": "757152",
        "stopId": "7706000"
      },
      "geometry": {
        "type": "Point",
        "coordinates": [
          -122.90211,
          38.7054799
        ]
      }
    },
    {
      "type": "Feature",
      "properties": {
        "title": "Geyserville Ave (Geyserville Park & Ride)",
        "tag": "757153",
        "stopId": "7706100"
      },
      "geometry": {
        "type": "Point",
        "coordinates": [
          -122.90522,
          38.70732
        ]
      }
    },
    {
      "type": "Feature",
      "properties": {
        "title": "Geyserville Ave & Geysers Ridge Rd",
        "tag": "757154",
        "stopId": "7706200"
      },
      "geometry": {
        "type": "Point",
        "coordinates": [
          -122.9116,
          38.71069
        ]
      }
    },
    {
      "type": "Feature",
      "properties": {
        "title": "Geyserville Ave & Canyon Rd",
        "tag": "757155",
        "stopId": "7706300"
      },
      "geometry": {
        "type": "Point",
        "coordinates": [
          -122.91735,
          38.71451
        ]
      }
    },
    {
      "type": "Feature",
      "properties": {
        "title": "Geyserville Rd & East of Hwy 101",
        "tag": "757156",
        "stopId": "7706400"
      },
      "geometry": {
        "type": "Point",
        "coordinates": [
          -122.93937,
          38.72807
        ]
      }
    },
    {
      "type": "Feature",
      "properties": {
        "title": "Geyserville Rd & Zanzi Ln",
        "tag": "757157",
        "stopId": "7706500"
      },
      "geometry": {
        "type": "Point",
        "coordinates": [
          -122.9493399,
          38.7420899
        ]
      }
    },
    {
      "type": "Feature",
      "properties": {
        "title": "Asti Rd & Washington School Rd",
        "tag": "757158",
        "stopId": "7706600"
      },
      "geometry": {
        "type": "Point",
        "coordinates": [
          -122.9712799,
          38.7563899
        ]
      }
    },
    {
      "type": "Feature",
      "properties": {
        "title": "Asti",
        "tag": "757159",
        "stopId": "7706700"
      },
      "geometry": {
        "type": "Point",
        "coordinates": [
          -122.97549,
          38.7615799
        ]
      }
    },
    {
      "type": "Feature",
      "properties": {
        "title": "Asti Rd & Theresa Dr",
        "tag": "757160",
        "stopId": "7706710"
      },
      "geometry": {
        "type": "Point",
        "coordinates": [
          -122.9914,
          38.7661
        ]
      }
    },
    {
      "type": "Feature",
      "properties": {
        "title": "Theresa Dr",
        "tag": "757161",
        "stopId": "7706800"
      },
      "geometry": {
        "type": "Point",
        "coordinates": [
          -122.9943199,
          38.76796
        ]
      }
    },
    {
      "type": "Feature",
      "properties": {
        "title": "Cloverdale Blvd & Sandholm Dr",
        "tag": "757162",
        "stopId": "7706900"
      },
      "geometry": {
        "type": "Point",
        "coordinates": [
          -123.00991,
          38.78197
        ]
      }
    },
    {
      "type": "Feature",
      "properties": {
        "title": "Cloverdale Blvd & Church Ln",
        "tag": "757163",
        "stopId": "7707000"
      },
      "geometry": {
        "type": "Point",
        "coordinates": [
          -123.01411,
          38.78609
        ]
      }
    },
    {
      "type": "Feature",
      "properties": {
        "title": "Cloverdale Blvd & Brookside Dr",
        "tag": "757164",
        "stopId": "7707100"
      },
      "geometry": {
        "type": "Point",
        "coordinates": [
          -123.0175,
          38.79201
        ]
      }
    },
    {
      "type": "Feature",
      "properties": {
        "title": "Cloverdale Blvd & Tarman Dr",
        "tag": "757165",
        "stopId": "7707200"
      },
      "geometry": {
        "type": "Point",
        "coordinates": [
          -123.01814,
          38.79817
        ]
      }
    },
    {
      "type": "Feature",
      "properties": {
        "title": "Cloverdale Blvd & South St",
        "tag": "757166",
        "stopId": "7707300"
      },
      "geometry": {
        "type": "Point",
        "coordinates": [
          -123.0164799,
          38.80028
        ]
      }
    },
    {
      "type": "Feature",
      "properties": {
        "title": "Asti Rd & Cloverdale Depot",
        "tag": "757167",
        "stopId": "7707310"
      },
      "geometry": {
        "type": "Point",
        "coordinates": [
          -123.01182,
          38.7980599
        ]
      }
    },
    {
      "type": "Feature",
      "properties": {
        "title": "Cloverdale City Hall & Plaza",
        "tag": "757168",
        "stopId": "7707400"
      },
      "geometry": {
        "type": "Point",
        "coordinates": [
          -123.01742,
          38.8059599
        ]
      }
    },
    {
      "type": "Feature",
      "properties": {
        "title": "Kings Circle & E Third St",
        "tag": "757169",
        "stopId": "7707410"
      },
      "geometry": {
        "type": "Point",
        "coordinates": [
          -123.01564,
          38.8102699
        ]
      }
    },
    {
      "type": "Feature",
      "properties": {
        "title": "Cloverdale Blvd & Healdsburg Ave",
        "tag": "757170",
        "stopId": "7707500"
      },
      "geometry": {
        "type": "Point",
        "coordinates": [
          -123.0166699,
          38.8005299
        ]
      }
    },
    {
      "type": "Feature",
      "properties": {
        "title": "Cloverdale Blvd & Franklin St",
        "tag": "757171",
        "stopId": "7707600"
      },
      "geometry": {
        "type": "Point",
        "coordinates": [
          -123.0184599,
          38.7982099
        ]
      }
    },
    {
      "type": "Feature",
      "properties": {
        "title": "Cloverdale Blvd & Brookside Dr",
        "tag": "757172",
        "stopId": "7707700"
      },
      "geometry": {
        "type": "Point",
        "coordinates": [
          -123.0175599,
          38.7910399
        ]
      }
    },
    {
      "type": "Feature",
      "properties": {
        "title": "Cloverdale Blvd & Treadway",
        "tag": "757173",
        "stopId": "7707800"
      },
      "geometry": {
        "type": "Point",
        "coordinates": [
          -123.0129699,
          38.7843699
        ]
      }
    },
    {
      "type": "Feature",
      "properties": {
        "title": "Cloverdale Blvd & Sandholm Dr",
        "tag": "757175",
        "stopId": "7707900"
      },
      "geometry": {
        "type": "Point",
        "coordinates": [
          -123.0090699,
          38.78107
        ]
      }
    },
    {
      "type": "Feature",
      "properties": {
        "title": "Dutcher Creek Rd & Hiatt Rd",
        "tag": "757176",
        "stopId": "7708000"
      },
      "geometry": {
        "type": "Point",
        "coordinates": [
          -123.00221,
          38.77495
        ]
      }
    },
    {
      "type": "Feature",
      "properties": {
        "title": "Theresa Dr & Hwy 101",
        "tag": "757177",
        "stopId": "7708100"
      },
      "geometry": {
        "type": "Point",
        "coordinates": [
          -122.99454,
          38.7676599
        ]
      }
    },
    {
      "type": "Feature",
      "properties": {
        "title": "Asti Rd & Theresa Dr",
        "tag": "757178",
        "stopId": "7708110"
      },
      "geometry": {
        "type": "Point",
        "coordinates": [
          -122.9919299,
          38.7660999
        ]
      }
    },
    {
      "type": "Feature",
      "properties": {
        "title": "Asti",
        "tag": "757179",
        "stopId": "7708200"
      },
      "geometry": {
        "type": "Point",
        "coordinates": [
          -122.97568,
          38.7613999
        ]
      }
    },
    {
      "type": "Feature",
      "properties": {
        "title": "Asti Rd & Washington School Rd",
        "tag": "757180",
        "stopId": "7708300"
      },
      "geometry": {
        "type": "Point",
        "coordinates": [
          -122.9712199,
          38.7561099
        ]
      }
    },
    {
      "type": "Feature",
      "properties": {
        "title": "Geyserville Ave & Zanzi Ln",
        "tag": "757181",
        "stopId": "7708400"
      },
      "geometry": {
        "type": "Point",
        "coordinates": [
          -122.94952,
          38.74198
        ]
      }
    },
    {
      "type": "Feature",
      "properties": {
        "title": "Geyserville Ave & East of Hwy 101",
        "tag": "757182",
        "stopId": "7708500"
      },
      "geometry": {
        "type": "Point",
        "coordinates": [
          -122.9394699,
          38.7279899
        ]
      }
    },
    {
      "type": "Feature",
      "properties": {
        "title": "Geyserville Ave & Canyon Rd",
        "tag": "757183",
        "stopId": "7708600"
      },
      "geometry": {
        "type": "Point",
        "coordinates": [
          -122.91731,
          38.71433
        ]
      }
    },
    {
      "type": "Feature",
      "properties": {
        "title": "Geyserville Ave & Geysers Ridge Rd",
        "tag": "757184",
        "stopId": "7708700"
      },
      "geometry": {
        "type": "Point",
        "coordinates": [
          -122.91209,
          38.7108
        ]
      }
    },
    {
      "type": "Feature",
      "properties": {
        "title": "Geyserville Ave & School House Ln",
        "tag": "757185",
        "stopId": "7708800"
      },
      "geometry": {
        "type": "Point",
        "coordinates": [
          -122.9070099,
          38.7082099
        ]
      }
    },
    {
      "type": "Feature",
      "properties": {
        "title": "Geyserville Ave (Ac Geyserville Park & Ride)",
        "tag": "757186",
        "stopId": "7708810"
      },
      "geometry": {
        "type": "Point",
        "coordinates": [
          -122.90527,
          38.7071799
        ]
      }
    },
    {
      "type": "Feature",
      "properties": {
        "title": "Geyserville Ave & Walden St",
        "tag": "757187",
        "stopId": "7708900"
      },
      "geometry": {
        "type": "Point",
        "coordinates": [
          -122.9022399,
          38.7053299
        ]
      }
    },
    {
      "type": "Feature",
      "properties": {
        "title": "Geyserville Ave &",
        "tag": "757188",
        "stopId": "7709000"
      },
      "geometry": {
        "type": "Point",
        "coordinates": [
          -122.8849499,
          38.6930499
        ]
      }
    },
    {
      "type": "Feature",
      "properties": {
        "title": "Geyserville Ave & Independence Ln",
        "tag": "757189",
        "stopId": "7709010"
      },
      "geometry": {
        "type": "Point",
        "coordinates": [
          -122.87989,
          38.6791299
        ]
      }
    },
    {
      "type": "Feature",
      "properties": {
        "title": "Healdsburg Ave & Lytton Springs Rd",
        "tag": "757190",
        "stopId": "7709100"
      },
      "geometry": {
        "type": "Point",
        "coordinates": [
          -122.87176,
          38.65885
        ]
      }
    },
    {
      "type": "Feature",
      "properties": {
        "title": "Healdsburg Ave & Alexander Vly Rd",
        "tag": "757191",
        "stopId": "7709200"
      },
      "geometry": {
        "type": "Point",
        "coordinates": [
          -122.8691099,
          38.64984
        ]
      }
    },
    {
      "type": "Feature",
      "properties": {
        "title": "Healdsburg Ave & Parkland Farms Dr",
        "tag": "757192",
        "stopId": "7709300"
      },
      "geometry": {
        "type": "Point",
        "coordinates": [
          -122.8739699,
          38.63882
        ]
      }
    },
    {
      "type": "Feature",
      "properties": {
        "title": "Healdsburg Ave & Grove St",
        "tag": "757193",
        "stopId": "7709400"
      },
      "geometry": {
        "type": "Point",
        "coordinates": [
          -122.8742099,
          38.63448
        ]
      }
    },
    {
      "type": "Feature",
      "properties": {
        "title": "Healdsburg Ave & Sunnyvale Dr",
        "tag": "757194",
        "stopId": "7709500"
      },
      "geometry": {
        "type": "Point",
        "coordinates": [
          -122.87277,
          38.6284499
        ]
      }
    },
    {
      "type": "Feature",
      "properties": {
        "title": "Healdsburg Ave & Dry Creek Rd",
        "tag": "757195",
        "stopId": "7709600"
      },
      "geometry": {
        "type": "Point",
        "coordinates": [
          -122.8728099,
          38.62504
        ]
      }
    },
    {
      "type": "Feature",
      "properties": {
        "title": "Healdsburg Ave & Sherman St",
        "tag": "757196",
        "stopId": "7709700"
      },
      "geometry": {
        "type": "Point",
        "coordinates": [
          -122.8720299,
          38.6186399
        ]
      }
    },
    {
      "type": "Feature",
      "properties": {
        "title": "Healdsburg Ave & Matheson",
        "tag": "757197",
        "stopId": "7709800"
      },
      "geometry": {
        "type": "Point",
        "coordinates": [
          -122.87039,
          38.6095599
        ]
      }
    },
    {
      "type": "Feature",
      "properties": {
        "title": "Healdsburg Ave & Mill St",
        "tag": "757198",
        "stopId": "7709900"
      },
      "geometry": {
        "type": "Point",
        "coordinates": [
          -122.86969,
          38.60736
        ]
      }
    },
    {
      "type": "Feature",
      "properties": {
        "title": "Old Redwood Hwy & Limerick Ln",
        "tag": "757199",
        "stopId": "7710000"
      },
      "geometry": {
        "type": "Point",
        "coordinates": [
          -122.84937,
          38.5881
        ]
      }
    },
    {
      "type": "Feature",
      "properties": {
        "title": "Old Redwood Hwy & Btwn Eastside/Limerick",
        "tag": "757200",
        "stopId": "7710100"
      },
      "geometry": {
        "type": "Point",
        "coordinates": [
          -122.84619,
          38.58276
        ]
      }
    },
    {
      "type": "Feature",
      "properties": {
        "title": "Old Redwood Hwy & Eastside Rd",
        "tag": "757201",
        "stopId": "7710200"
      },
      "geometry": {
        "type": "Point",
        "coordinates": [
          -122.8433599,
          38.5778199
        ]
      }
    },
    {
      "type": "Feature",
      "properties": {
        "title": "Old Redwood Hwy & Eastside Rd",
        "tag": "757202",
        "stopId": "7710300"
      },
      "geometry": {
        "type": "Point",
        "coordinates": [
          -122.8419099,
          38.5746
        ]
      }
    },
    {
      "type": "Feature",
      "properties": {
        "title": "Old Redwood Hwy & West of Hwy 101",
        "tag": "757203",
        "stopId": "7710400"
      },
      "geometry": {
        "type": "Point",
        "coordinates": [
          -122.83098,
          38.56597
        ]
      }
    },
    {
      "type": "Feature",
      "properties": {
        "title": "Old Redwood Hwy & Starr Rd",
        "tag": "757204",
        "stopId": "7710500"
      },
      "geometry": {
        "type": "Point",
        "coordinates": [
          -122.8280399,
          38.5642099
        ]
      }
    },
    {
      "type": "Feature",
      "properties": {
        "title": "Starr Rd & Entrada",
        "tag": "757205",
        "stopId": "7710600"
      },
      "geometry": {
        "type": "Point",
        "coordinates": [
          -122.8261999,
          38.55897
        ]
      }
    },
    {
      "type": "Feature",
      "properties": {
        "title": "Starr Rd & Gumview Rd",
        "tag": "757206",
        "stopId": "7710700"
      },
      "geometry": {
        "type": "Point",
        "coordinates": [
          -122.8262299,
          38.55622
        ]
      }
    },
    {
      "type": "Feature",
      "properties": {
        "title": "Starr Rd & Coleen Dr",
        "tag": "757207",
        "stopId": "7710800"
      },
      "geometry": {
        "type": "Point",
        "coordinates": [
          -122.8261599,
          38.5536699
        ]
      }
    },
    {
      "type": "Feature",
      "properties": {
        "title": "Starr Rd & Buckingham Dr",
        "tag": "757208",
        "stopId": "7710900"
      },
      "geometry": {
        "type": "Point",
        "coordinates": [
          -122.8261299,
          38.5487799
        ]
      }
    },
    {
      "type": "Feature",
      "properties": {
        "title": "Windsor River Rd & Spencer St",
        "tag": "757209",
        "stopId": "7711000"
      },
      "geometry": {
        "type": "Point",
        "coordinates": [
          -122.8206499,
          38.5471699
        ]
      }
    },
    {
      "type": "Feature",
      "properties": {
        "title": "Windsor River Rd (Windsor Depot)",
        "tag": "757210",
        "stopId": "7711100"
      },
      "geometry": {
        "type": "Point",
        "coordinates": [
          -122.81624,
          38.5471299
        ]
      }
    },
    {
      "type": "Feature",
      "properties": {
        "title": "Windsor Rd & Windsor Depot",
        "tag": "757211",
        "stopId": "7711110"
      },
      "geometry": {
        "type": "Point",
        "coordinates": [
          -122.81687,
          38.5475499
        ]
      }
    },
    {
      "type": "Feature",
      "properties": {
        "title": "Windsor River Rd & Old Red Hwy",
        "tag": "757212",
        "stopId": "7711200"
      },
      "geometry": {
        "type": "Point",
        "coordinates": [
          -122.81193,
          38.54721
        ]
      }
    },
    {
      "type": "Feature",
      "properties": {
        "title": "Old Redwood Hwy & Lakewood Dr",
        "tag": "757213",
        "stopId": "7711300"
      },
      "geometry": {
        "type": "Point",
        "coordinates": [
          -122.80609,
          38.5459699
        ]
      }
    },
    {
      "type": "Feature",
      "properties": {
        "title": "Old Redwood Hwy & Alden Ln",
        "tag": "757214",
        "stopId": "7711400"
      },
      "geometry": {
        "type": "Point",
        "coordinates": [
          -122.8001699,
          38.5431399
        ]
      }
    },
    {
      "type": "Feature",
      "properties": {
        "title": "Old Redwood Hwy & Hembree Ln",
        "tag": "757215",
        "stopId": "7711500"
      },
      "geometry": {
        "type": "Point",
        "coordinates": [
          -122.79682,
          38.54143
        ]
      }
    },
    {
      "type": "Feature",
      "properties": {
        "title": "Old Redwood Hwy & Pleasant Ave",
        "tag": "757216",
        "stopId": "7711600"
      },
      "geometry": {
        "type": "Point",
        "coordinates": [
          -122.79429,
          38.5402499
        ]
      }
    },
    {
      "type": "Feature",
      "properties": {
        "title": "Old Redwood Hwy & Shira St",
        "tag": "757217",
        "stopId": "7711700"
      },
      "geometry": {
        "type": "Point",
        "coordinates": [
          -122.79246,
          38.53908
        ]
      }
    },
    {
      "type": "Feature",
      "properties": {
        "title": "Old Redwood Hwy & Shira St",
        "tag": "757218",
        "stopId": "7711800"
      },
      "geometry": {
        "type": "Point",
        "coordinates": [
          -122.79099,
          38.53776
        ]
      }
    },
    {
      "type": "Feature",
      "properties": {
        "title": "Old Redwood Hwy & Billington Ln",
        "tag": "757219",
        "stopId": "7711900"
      },
      "geometry": {
        "type": "Point",
        "coordinates": [
          -122.7882399,
          38.5353099
        ]
      }
    },
    {
      "type": "Feature",
      "properties": {
        "title": "Old Redwood Hwy & Deanna Pl",
        "tag": "757220",
        "stopId": "7711910"
      },
      "geometry": {
        "type": "Point",
        "coordinates": [
          -122.78513,
          38.53269
        ]
      }
    },
    {
      "type": "Feature",
      "properties": {
        "title": "Old Redwood Hwy & Anna Dr",
        "tag": "757221",
        "stopId": "7711920"
      },
      "geometry": {
        "type": "Point",
        "coordinates": [
          -122.78264,
          38.53037
        ]
      }
    },
    {
      "type": "Feature",
      "properties": {
        "title": "Old Redwood Hwy & Kendall Way",
        "tag": "757222",
        "stopId": "7712000"
      },
      "geometry": {
        "type": "Point",
        "coordinates": [
          -122.7807699,
          38.5277099
        ]
      }
    },
    {
      "type": "Feature",
      "properties": {
        "title": "Hembree Ln & Broad Oak Way",
        "tag": "757223",
        "stopId": "7712010"
      },
      "geometry": {
        "type": "Point",
        "coordinates": [
          -122.7980999,
          38.53921
        ]
      }
    },
    {
      "type": "Feature",
      "properties": {
        "title": "Hembree Ln & Dove Ln",
        "tag": "757224",
        "stopId": "7712020"
      },
      "geometry": {
        "type": "Point",
        "coordinates": [
          -122.7980699,
          38.5360299
        ]
      }
    },
    {
      "type": "Feature",
      "properties": {
        "title": "Shiloh Center & Wal-Mart (McFarlane)",
        "tag": "757225",
        "stopId": "7712030"
      },
      "geometry": {
        "type": "Point",
        "coordinates": [
          -122.78865,
          38.5277199
        ]
      }
    },
    {
      "type": "Feature",
      "properties": {
        "title": "Shiloh Center & Wal-Mart (Hembree)",
        "tag": "757226",
        "stopId": "7712040"
      },
      "geometry": {
        "type": "Point",
        "coordinates": [
          -122.7879299,
          38.52613
        ]
      }
    },
    {
      "type": "Feature",
      "properties": {
        "title": "Old Redwood Hwy & Shiloh Rd",
        "tag": "757227",
        "stopId": "7712100"
      },
      "geometry": {
        "type": "Point",
        "coordinates": [
          -122.77904,
          38.5251899
        ]
      }
    },
    {
      "type": "Feature",
      "properties": {
        "title": "Old Redwood Hwy & Shiloh Rd",
        "tag": "757228",
        "stopId": "7712200"
      },
      "geometry": {
        "type": "Point",
        "coordinates": [
          -122.7759099,
          38.5217299
        ]
      }
    },
    {
      "type": "Feature",
      "properties": {
        "title": "Old Redwood Hwy & Plymouth Way",
        "tag": "757229",
        "stopId": "7712300"
      },
      "geometry": {
        "type": "Point",
        "coordinates": [
          -122.7742999,
          38.5200499
        ]
      }
    },
    {
      "type": "Feature",
      "properties": {
        "title": "Old Redwood Hwy & Donna Drive/Fulton Rd",
        "tag": "757231",
        "stopId": "7712500"
      },
      "geometry": {
        "type": "Point",
        "coordinates": [
          -122.7706399,
          38.5166699
        ]
      }
    },
    {
      "type": "Feature",
      "properties": {
        "title": "Old Redwood Hwy & Airport Blvd",
        "tag": "757232",
        "stopId": "7712600"
      },
      "geometry": {
        "type": "Point",
        "coordinates": [
          -122.7657799,
          38.5127299
        ]
      }
    },
    {
      "type": "Feature",
      "properties": {
        "title": "Airport Blvd & Aviation Blvd",
        "tag": "757233",
        "stopId": "7712900"
      },
      "geometry": {
        "type": "Point",
        "coordinates": [
          -122.78167,
          38.5112399
        ]
      }
    },
    {
      "type": "Feature",
      "properties": {
        "title": "Airport Blvd & Brickway Blvd",
        "tag": "757235",
        "stopId": "7713100"
      },
      "geometry": {
        "type": "Point",
        "coordinates": [
          -122.79352,
          38.5111899
        ]
      }
    },
    {
      "type": "Feature",
      "properties": {
        "title": "Westwind Blvd & Airport Blvd",
        "tag": "757236",
        "stopId": "7713110"
      },
      "geometry": {
        "type": "Point",
        "coordinates": [
          -122.7959099,
          38.5090299
        ]
      }
    },
    {
      "type": "Feature",
      "properties": {
        "title": "Copperhill Parkway & N Laughlin Rd",
        "tag": "757237",
        "stopId": "7713120"
      },
      "geometry": {
        "type": "Point",
        "coordinates": [
          -122.79796,
          38.5075199
        ]
      }
    },
    {
      "type": "Feature",
      "properties": {
        "title": "N Laughlin Rd & Copperhill Parkway",
        "tag": "757238",
        "stopId": "7713130"
      },
      "geometry": {
        "type": "Point",
        "coordinates": [
          -122.80019,
          38.5090899
        ]
      }
    },
    {
      "type": "Feature",
      "properties": {
        "title": "Airport Blvd & N Laughlin Rd",
        "tag": "757239",
        "stopId": "7713200"
      },
      "geometry": {
        "type": "Point",
        "coordinates": [
          -122.80066,
          38.5111299
        ]
      }
    },
    {
      "type": "Feature",
      "properties": {
        "title": "Airport Blvd & Ordinance Rd",
        "tag": "757240",
        "stopId": "7713210"
      },
      "geometry": {
        "type": "Point",
        "coordinates": [
          -122.80286,
          38.5110799
        ]
      }
    },
    {
      "type": "Feature",
      "properties": {
        "title": "Sonoma Co Airport Terminal Stop",
        "tag": "757241",
        "stopId": "7713300"
      },
      "geometry": {
        "type": "Point",
        "coordinates": [
          -122.8053,
          38.5100699
        ]
      }
    },
    {
      "type": "Feature",
      "properties": {
        "title": "Airport Blvd & N Laughlin Rd",
        "tag": "757242",
        "stopId": "7713310"
      },
      "geometry": {
        "type": "Point",
        "coordinates": [
          -122.80161,
          38.51091
        ]
      }
    },
    {
      "type": "Feature",
      "properties": {
        "title": "Old Redwood Hwy & Windsor Rd",
        "tag": "757250",
        "stopId": "7713480"
      },
      "geometry": {
        "type": "Point",
        "coordinates": [
          -122.8162599,
          38.5523599
        ]
      }
    },
    {
      "type": "Feature",
      "properties": {
        "title": "N Laughlin Rd & Copperhill Parkway",
        "tag": "757254",
        "stopId": "7713700"
      },
      "geometry": {
        "type": "Point",
        "coordinates": [
          -122.8003799,
          38.5090299
        ]
      }
    },
    {
      "type": "Feature",
      "properties": {
        "title": "Copperhill Pkwy & N Laughlin Rd",
        "tag": "757255",
        "stopId": "7713800"
      },
      "geometry": {
        "type": "Point",
        "coordinates": [
          -122.79787,
          38.50722
        ]
      }
    },
    {
      "type": "Feature",
      "properties": {
        "title": "Westwind Blvd & Airport Blvd",
        "tag": "757256",
        "stopId": "7713900"
      },
      "geometry": {
        "type": "Point",
        "coordinates": [
          -122.79574,
          38.50907
        ]
      }
    },
    {
      "type": "Feature",
      "properties": {
        "title": "Airport Blvd & Brickway Blvd",
        "tag": "757257",
        "stopId": "7714000"
      },
      "geometry": {
        "type": "Point",
        "coordinates": [
          -122.7933,
          38.5109699
        ]
      }
    },
    {
      "type": "Feature",
      "properties": {
        "title": "Airport Blvd & SMART Station",
        "tag": "757258",
        "stopId": "7714100"
      },
      "geometry": {
        "type": "Point",
        "coordinates": [
          -122.7847,
          38.5110799
        ]
      }
    },
    {
      "type": "Feature",
      "properties": {
        "title": "Airport Blvd & Aviation Blvd",
        "tag": "757259",
        "stopId": "7714400"
      },
      "geometry": {
        "type": "Point",
        "coordinates": [
          -122.78042,
          38.5109599
        ]
      }
    },
    {
      "type": "Feature",
      "properties": {
        "title": "Fulton Rd & Airport Blvd",
        "tag": "757260",
        "stopId": "7714410"
      },
      "geometry": {
        "type": "Point",
        "coordinates": [
          -122.77007,
          38.5106799
        ]
      }
    },
    {
      "type": "Feature",
      "properties": {
        "title": "Fulton Rd & River Rd",
        "tag": "757261",
        "stopId": "7714420"
      },
      "geometry": {
        "type": "Point",
        "coordinates": [
          -122.77015,
          38.4976699
        ]
      }
    },
    {
      "type": "Feature",
      "properties": {
        "title": "River Rd & Fulton Rd",
        "tag": "757262",
        "stopId": "7714430"
      },
      "geometry": {
        "type": "Point",
        "coordinates": [
          -122.76741,
          38.4963399
        ]
      }
    },
    {
      "type": "Feature",
      "properties": {
        "title": "River Rd & W of Hwy 101",
        "tag": "757263",
        "stopId": "7714440"
      },
      "geometry": {
        "type": "Point",
        "coordinates": [
          -122.76092,
          38.49629
        ]
      }
    },
    {
      "type": "Feature",
      "properties": {
        "title": "Mark West Springs Rd & Old Redwood Hwy",
        "tag": "757264",
        "stopId": "7714450"
      },
      "geometry": {
        "type": "Point",
        "coordinates": [
          -122.7501199,
          38.49641
        ]
      }
    },
    {
      "type": "Feature",
      "properties": {
        "title": "Old Redwood Hwy & Airport Blvd",
        "tag": "757265",
        "stopId": "7714600"
      },
      "geometry": {
        "type": "Point",
        "coordinates": [
          -122.7630699,
          38.5106399
        ]
      }
    },
    {
      "type": "Feature",
      "properties": {
        "title": "Old Redwood Hwy & Faught Rd",
        "tag": "757266",
        "stopId": "7714700"
      },
      "geometry": {
        "type": "Point",
        "coordinates": [
          -122.75995,
          38.50853
        ]
      }
    },
    {
      "type": "Feature",
      "properties": {
        "title": "Old Redwood Hwy & Deerwood Dr",
        "tag": "757267",
        "stopId": "7714800"
      },
      "geometry": {
        "type": "Point",
        "coordinates": [
          -122.7590099,
          38.5054299
        ]
      }
    },
    {
      "type": "Feature",
      "properties": {
        "title": "Old Redwood Hwy & Ascot",
        "tag": "757268",
        "stopId": "7714900"
      },
      "geometry": {
        "type": "Point",
        "coordinates": [
          -122.7571899,
          38.50313
        ]
      }
    },
    {
      "type": "Feature",
      "properties": {
        "title": "Larkfield Shopping Center",
        "tag": "757269",
        "stopId": "7715000"
      },
      "geometry": {
        "type": "Point",
        "coordinates": [
          -122.75173,
          38.5010199
        ]
      }
    },
    {
      "type": "Feature",
      "properties": {
        "title": "Old Redwood Hwy & Larkfield Maples Ct",
        "tag": "757270",
        "stopId": "7715100"
      },
      "geometry": {
        "type": "Point",
        "coordinates": [
          -122.7496499,
          38.4992499
        ]
      }
    },
    {
      "type": "Feature",
      "properties": {
        "title": "Old Redwood Hwy & Mark West Springs Rd",
        "tag": "757271",
        "stopId": "7715200"
      },
      "geometry": {
        "type": "Point",
        "coordinates": [
          -122.74694,
          38.49587
        ]
      }
    },
    {
      "type": "Feature",
      "properties": {
        "title": "Old Redwood Hwy & Chelsea Dr",
        "tag": "757272",
        "stopId": "7715300"
      },
      "geometry": {
        "type": "Point",
        "coordinates": [
          -122.74392,
          38.49344
        ]
      }
    },
    {
      "type": "Feature",
      "properties": {
        "title": "Old Redwood Hwy & Cardinal Newman HS",
        "tag": "757273",
        "stopId": "7715400"
      },
      "geometry": {
        "type": "Point",
        "coordinates": [
          -122.74073,
          38.4909299
        ]
      }
    },
    {
      "type": "Feature",
      "properties": {
        "title": "Old Redwood Hwy (Kaiser Stein Bldg)",
        "tag": "757274",
        "stopId": "7715500"
      },
      "geometry": {
        "type": "Point",
        "coordinates": [
          -122.7346999,
          38.48284
        ]
      }
    },
    {
      "type": "Feature",
      "properties": {
        "title": "Mendocino Ave & Fountain Grove Pkwy",
        "tag": "757275",
        "stopId": "7715600"
      },
      "geometry": {
        "type": "Point",
        "coordinates": [
          -122.72746,
          38.47379
        ]
      }
    },
    {
      "type": "Feature",
      "properties": {
        "title": "Mendocino Ave & Bicentennial Way",
        "tag": "757276",
        "stopId": "7715610"
      },
      "geometry": {
        "type": "Point",
        "coordinates": [
          -122.7257599,
          38.4724499
        ]
      }
    },
    {
      "type": "Feature",
      "properties": {
        "title": "Coddingtown",
        "tag": "757277",
        "stopId": "7715700"
      },
      "geometry": {
        "type": "Point",
        "coordinates": [
          -122.73244,
          38.4571299
        ]
      }
    },
    {
      "type": "Feature",
      "properties": {
        "title": "Range Ave & Steele Ln",
        "tag": "757278",
        "stopId": "7715710"
      },
      "geometry": {
        "type": "Point",
        "coordinates": [
          -122.73238,
          38.46076
        ]
      }
    },
    {
      "type": "Feature",
      "properties": {
        "title": "Range Ave & @ Paulin Creek",
        "tag": "757279",
        "stopId": "7715720"
      },
      "geometry": {
        "type": "Point",
        "coordinates": [
          -122.73252,
          38.46323
        ]
      }
    },
    {
      "type": "Feature",
      "properties": {
        "title": "Range Ave & State Farm Dr",
        "tag": "757280",
        "stopId": "7715730"
      },
      "geometry": {
        "type": "Point",
        "coordinates": [
          -122.7325199,
          38.46656
        ]
      }
    },
    {
      "type": "Feature",
      "properties": {
        "title": "Range Ave & Russel Ave",
        "tag": "757281",
        "stopId": "7715740"
      },
      "geometry": {
        "type": "Point",
        "coordinates": [
          -122.73248,
          38.46963
        ]
      }
    },
    {
      "type": "Feature",
      "properties": {
        "title": "Kaiser Stop / Bicentennial Ave",
        "tag": "757282",
        "stopId": "7715750"
      },
      "geometry": {
        "type": "Point",
        "coordinates": [
          -122.72489,
          38.4700999
        ]
      }
    },
    {
      "type": "Feature",
      "properties": {
        "title": "Russell & Ventura (Kaiser Stop)",
        "tag": "757283",
        "stopId": "7715760"
      },
      "geometry": {
        "type": "Point",
        "coordinates": [
          -122.72447,
          38.4690899
        ]
      }
    },
    {
      "type": "Feature",
      "properties": {
        "title": "County Admin Center (Ventura Ave)",
        "tag": "757284",
        "stopId": "7715770"
      },
      "geometry": {
        "type": "Point",
        "coordinates": [
          -122.72443,
          38.4665299
        ]
      }
    },
    {
      "type": "Feature",
      "properties": {
        "title": "Administration Dr & Ventura Ave",
        "tag": "757285",
        "stopId": "7715780"
      },
      "geometry": {
        "type": "Point",
        "coordinates": [
          -122.7238599,
          38.46406
        ]
      }
    },
    {
      "type": "Feature",
      "properties": {
        "title": "Administration Dr & Paulin",
        "tag": "757286",
        "stopId": "7715790"
      },
      "geometry": {
        "type": "Point",
        "coordinates": [
          -122.72178,
          38.4641899
        ]
      }
    },
    {
      "type": "Feature",
      "properties": {
        "title": "Mendocino Ave/ Bicentennial Way",
        "tag": "757287",
        "stopId": "7715800"
      },
      "geometry": {
        "type": "Point",
        "coordinates": [
          -122.72224,
          38.4693699
        ]
      }
    },
    {
      "type": "Feature",
      "properties": {
        "title": "Mendocino Ave & Chanate Rd",
        "tag": "757288",
        "stopId": "7715900"
      },
      "geometry": {
        "type": "Point",
        "coordinates": [
          -122.7193299,
          38.4646499
        ]
      }
    },
    {
      "type": "Feature",
      "properties": {
        "title": "Mendocino Ave & Schurman Dr",
        "tag": "757289",
        "stopId": "7716000"
      },
      "geometry": {
        "type": "Point",
        "coordinates": [
          -122.71822,
          38.46285
        ]
      }
    },
    {
      "type": "Feature",
      "properties": {
        "title": "Mendocino Ave & Clement Ave",
        "tag": "757290",
        "stopId": "7716100"
      },
      "geometry": {
        "type": "Point",
        "coordinates": [
          -122.71732,
          38.4592599
        ]
      }
    },
    {
      "type": "Feature",
      "properties": {
        "title": "Santa Rosa Junior College",
        "tag": "757291",
        "stopId": "7716200"
      },
      "geometry": {
        "type": "Point",
        "coordinates": [
          -122.71759,
          38.4538799
        ]
      }
    },
    {
      "type": "Feature",
      "properties": {
        "title": "Mendocino Ave & Ridgeway Ave",
        "tag": "757292",
        "stopId": "7716300"
      },
      "geometry": {
        "type": "Point",
        "coordinates": [
          -122.71767,
          38.4509599
        ]
      }
    },
    {
      "type": "Feature",
      "properties": {
        "title": "Mendocino Ave & Benton",
        "tag": "757293",
        "stopId": "7716400"
      },
      "geometry": {
        "type": "Point",
        "coordinates": [
          -122.7177399,
          38.44802
        ]
      }
    },
    {
      "type": "Feature",
      "properties": {
        "title": "Healdsburg Ave & Tenth St",
        "tag": "757294",
        "stopId": "7716500"
      },
      "geometry": {
        "type": "Point",
        "coordinates": [
          -122.7179199,
          38.44366
        ]
      }
    },
    {
      "type": "Feature",
      "properties": {
        "title": "B St & Seventh St",
        "tag": "757295",
        "stopId": "7716600"
      },
      "geometry": {
        "type": "Point",
        "coordinates": [
          -122.7166999,
          38.4408999
        ]
      }
    },
    {
      "type": "Feature",
      "properties": {
        "title": "Occidental (Bohemian Hwy & Hill St)",
        "tag": "757296",
        "stopId": "7717000"
      },
      "geometry": {
        "type": "Point",
        "coordinates": [
          -122.94867,
          38.4096299
        ]
      }
    },
    {
      "type": "Feature",
      "properties": {
        "title": "Camp Meeker (Bohemian Hwy & Van Ness Ave)",
        "tag": "757297",
        "stopId": "7717100"
      },
      "geometry": {
        "type": "Point",
        "coordinates": [
          -122.95664,
          38.4242199
        ]
      }
    },
    {
      "type": "Feature",
      "properties": {
        "title": "Monte Rio (Creekside Park)",
        "tag": "757298",
        "stopId": "7717200"
      },
      "geometry": {
        "type": "Point",
        "coordinates": [
          -123.01185,
          38.4608299
        ]
      }
    },
    {
      "type": "Feature",
      "properties": {
        "title": "Main St & Moscow Rd",
        "tag": "757299",
        "stopId": "7717300"
      },
      "geometry": {
        "type": "Point",
        "coordinates": [
          -123.01047,
          38.4641299
        ]
      }
    },
    {
      "type": "Feature",
      "properties": {
        "title": "Villa Grande",
        "tag": "757300",
        "stopId": "7717310"
      },
      "geometry": {
        "type": "Point",
        "coordinates": [
          -123.02152,
          38.4737299
        ]
      }
    },
    {
      "type": "Feature",
      "properties": {
        "title": "Moscow Rd & West St",
        "tag": "757301",
        "stopId": "7717320"
      },
      "geometry": {
        "type": "Point",
        "coordinates": [
          -123.0248099,
          38.47298
        ]
      }
    },
    {
      "type": "Feature",
      "properties": {
        "title": "Moscow Rd & Casini Ranch",
        "tag": "757302",
        "stopId": "7717330"
      },
      "geometry": {
        "type": "Point",
        "coordinates": [
          -123.04532,
          38.4602799
        ]
      }
    },
    {
      "type": "Feature",
      "properties": {
        "title": "Duncans Mills",
        "tag": "757303",
        "stopId": "7717340"
      },
      "geometry": {
        "type": "Point",
        "coordinates": [
          -123.05369,
          38.4534199
        ]
      }
    },
    {
      "type": "Feature",
      "properties": {
        "title": "Hwy 116 & Cazadero Hwy",
        "tag": "757304",
        "stopId": "7717360"
      },
      "geometry": {
        "type": "Point",
        "coordinates": [
          -123.0509299,
          38.46695
        ]
      }
    },
    {
      "type": "Feature",
      "properties": {
        "title": "Hwy 116 & Laurel Dell Ave",
        "tag": "757305",
        "stopId": "7717370"
      },
      "geometry": {
        "type": "Point",
        "coordinates": [
          -123.04111,
          38.4666899
        ]
      }
    },
    {
      "type": "Feature",
      "properties": {
        "title": "Hwy 116 & west of Duncan Rd",
        "tag": "757306",
        "stopId": "7717380"
      },
      "geometry": {
        "type": "Point",
        "coordinates": [
          -123.0257499,
          38.47732
        ]
      }
    },
    {
      "type": "Feature",
      "properties": {
        "title": "Hwy 116 & Front St",
        "tag": "757307",
        "stopId": "7717390"
      },
      "geometry": {
        "type": "Point",
        "coordinates": [
          -123.01415,
          38.46967
        ]
      }
    },
    {
      "type": "Feature",
      "properties": {
        "title": "D St & Bohemian Hwy",
        "tag": "757308",
        "stopId": "7717400"
      },
      "geometry": {
        "type": "Point",
        "coordinates": [
          -123.01066,
          38.4677399
        ]
      }
    },
    {
      "type": "Feature",
      "properties": {
        "title": "Hwy 116 & Ridgecrest Dr",
        "tag": "757309",
        "stopId": "7717500"
      },
      "geometry": {
        "type": "Point",
        "coordinates": [
          -122.99837,
          38.4776199
        ]
      }
    },
    {
      "type": "Feature",
      "properties": {
        "title": "Hwy 116 & Riverside Dr",
        "tag": "757310",
        "stopId": "7717600"
      },
      "geometry": {
        "type": "Point",
        "coordinates": [
          -123.01455,
          38.49267
        ]
      }
    },
    {
      "type": "Feature",
      "properties": {
        "title": "Hwy 116 & Old Cazadero Rd",
        "tag": "757311",
        "stopId": "7717700"
      },
      "geometry": {
        "type": "Point",
        "coordinates": [
          -123.00836,
          38.49527
        ]
      }
    },
    {
      "type": "Feature",
      "properties": {
        "title": "Hwy 116 (Guerneville Park & Ride)",
        "tag": "757312",
        "stopId": "7717800"
      },
      "geometry": {
        "type": "Point",
        "coordinates": [
          -123.0027399,
          38.5018499
        ]
      }
    },
    {
      "type": "Feature",
      "properties": {
        "title": "Guerneville Safeway",
        "tag": "757313",
        "stopId": "7717900"
      },
      "geometry": {
        "type": "Point",
        "coordinates": [
          -123.00056,
          38.5018299
        ]
      }
    },
    {
      "type": "Feature",
      "properties": {
        "title": "River Rd & Armstrong Woods Rd",
        "tag": "757314",
        "stopId": "7718000"
      },
      "geometry": {
        "type": "Point",
        "coordinates": [
          -122.9969199,
          38.50197
        ]
      }
    },
    {
      "type": "Feature",
      "properties": {
        "title": "Guernewood Rd & Neeley Rd",
        "tag": "757315",
        "stopId": "7718010"
      },
      "geometry": {
        "type": "Point",
        "coordinates": [
          -123.0021629,
          38.4988962
        ]
      }
    },
    {
      "type": "Feature",
      "properties": {
        "title": "Beach/ Orchard",
        "tag": "757316",
        "stopId": "7718020"
      },
      "geometry": {
        "type": "Point",
        "coordinates": [
          -123.01077,
          38.4848299
        ]
      }
    },
    {
      "type": "Feature",
      "properties": {
        "title": "Orchard Ave & Montesano Ave",
        "tag": "757317",
        "stopId": "7718030"
      },
      "geometry": {
        "type": "Point",
        "coordinates": [
          -123.01293,
          38.4873899
        ]
      }
    },
    {
      "type": "Feature",
      "properties": {
        "title": "Orchard Ave & River Ln",
        "tag": "757318",
        "stopId": "7718040"
      },
      "geometry": {
        "type": "Point",
        "coordinates": [
          -123.01377,
          38.48968
        ]
      }
    },
    {
      "type": "Feature",
      "properties": {
        "title": "Neeley Rd & Hwy 116",
        "tag": "757319",
        "stopId": "7718050"
      },
      "geometry": {
        "type": "Point",
        "coordinates": [
          -122.9935999,
          38.49835
        ]
      }
    },
    {
      "type": "Feature",
      "properties": {
        "title": "River Rd & Old River Rd",
        "tag": "757320",
        "stopId": "7718100"
      },
      "geometry": {
        "type": "Point",
        "coordinates": [
          -122.9921299,
          38.5047
        ]
      }
    },
    {
      "type": "Feature",
      "properties": {
        "title": "River Rd & Bonita Ave",
        "tag": "757321",
        "stopId": "7718200"
      },
      "geometry": {
        "type": "Point",
        "coordinates": [
          -122.9890299,
          38.50734
        ]
      }
    },
    {
      "type": "Feature",
      "properties": {
        "title": "River Rd",
        "tag": "757322",
        "stopId": "7718300"
      },
      "geometry": {
        "type": "Point",
        "coordinates": [
          -122.98367,
          38.5134999
        ]
      }
    },
    {
      "type": "Feature",
      "properties": {
        "title": "Rio Nido",
        "tag": "757323",
        "stopId": "7718400"
      },
      "geometry": {
        "type": "Point",
        "coordinates": [
          -122.97784,
          38.5194099
        ]
      }
    },
    {
      "type": "Feature",
      "properties": {
        "title": "River Rd & Odd Fellows Park Rd",
        "tag": "757324",
        "stopId": "7718500"
      },
      "geometry": {
        "type": "Point",
        "coordinates": [
          -122.96647,
          38.51025
        ]
      }
    },
    {
      "type": "Feature",
      "properties": {
        "title": "River Rd",
        "tag": "757325",
        "stopId": "7718600"
      },
      "geometry": {
        "type": "Point",
        "coordinates": [
          -122.9406,
          38.50411
        ]
      }
    },
    {
      "type": "Feature",
      "properties": {
        "title": "River Rd & Westside Rd",
        "tag": "757326",
        "stopId": "7718700"
      },
      "geometry": {
        "type": "Point",
        "coordinates": [
          -122.92902,
          38.50818
        ]
      }
    },
    {
      "type": "Feature",
      "properties": {
        "title": "River Rd & River Dr (East)",
        "tag": "757327",
        "stopId": "7718710"
      },
      "geometry": {
        "type": "Point",
        "coordinates": [
          -122.92226,
          38.5092599
        ]
      }
    },
    {
      "type": "Feature",
      "properties": {
        "title": "River Rd & Scenic Rd",
        "tag": "757328",
        "stopId": "7718800"
      },
      "geometry": {
        "type": "Point",
        "coordinates": [
          -122.9138399,
          38.50575
        ]
      }
    },
    {
      "type": "Feature",
      "properties": {
        "title": "River Rd & Rio Vista",
        "tag": "757329",
        "stopId": "7718900"
      },
      "geometry": {
        "type": "Point",
        "coordinates": [
          -122.90404,
          38.49962
        ]
      }
    },
    {
      "type": "Feature",
      "properties": {
        "title": "Mirabel Rd Ext & River Rd",
        "tag": "757330",
        "stopId": "7719000"
      },
      "geometry": {
        "type": "Point",
        "coordinates": [
          -122.89606,
          38.4932399
        ]
      }
    },
    {
      "type": "Feature",
      "properties": {
        "title": "River Rd & Trenton-Healdsburg Rd",
        "tag": "757331",
        "stopId": "7719010"
      },
      "geometry": {
        "type": "Point",
        "coordinates": [
          -122.8548699,
          38.4880199
        ]
      }
    },
    {
      "type": "Feature",
      "properties": {
        "title": "River Rd & Woolsey Rd",
        "tag": "757332",
        "stopId": "7719020"
      },
      "geometry": {
        "type": "Point",
        "coordinates": [
          -122.7871,
          38.4932199
        ]
      }
    },
    {
      "type": "Feature",
      "properties": {
        "title": "Mirabel Rd & Trenton Rd",
        "tag": "757333",
        "stopId": "7719100"
      },
      "geometry": {
        "type": "Point",
        "coordinates": [
          -122.8951499,
          38.4899799
        ]
      }
    },
    {
      "type": "Feature",
      "properties": {
        "title": "Mirabel Rd & Giusti Rd",
        "tag": "757334",
        "stopId": "7719200"
      },
      "geometry": {
        "type": "Point",
        "coordinates": [
          -122.8948999,
          38.48098
        ]
      }
    },
    {
      "type": "Feature",
      "properties": {
        "title": "Mirabel Rd & Hwy 116",
        "tag": "757335",
        "stopId": "7719300"
      },
      "geometry": {
        "type": "Point",
        "coordinates": [
          -122.8949999,
          38.4743599
        ]
      }
    },
    {
      "type": "Feature",
      "properties": {
        "title": "Forestville (Downtown)",
        "tag": "757336",
        "stopId": "7719400"
      },
      "geometry": {
        "type": "Point",
        "coordinates": [
          -122.89289,
          38.4735399
        ]
      }
    },
    {
      "type": "Feature",
      "properties": {
        "title": "Hwy 116 & Fallen Apple Ln",
        "tag": "757337",
        "stopId": "7719500"
      },
      "geometry": {
        "type": "Point",
        "coordinates": [
          -122.88193,
          38.46586
        ]
      }
    },
    {
      "type": "Feature",
      "properties": {
        "title": "Hwy 116 & Appian Way",
        "tag": "757338",
        "stopId": "7719600"
      },
      "geometry": {
        "type": "Point",
        "coordinates": [
          -122.87373,
          38.45794
        ]
      }
    },
    {
      "type": "Feature",
      "properties": {
        "title": "Hwy 116 & Guerneville Rd",
        "tag": "757339",
        "stopId": "7719700"
      },
      "geometry": {
        "type": "Point",
        "coordinates": [
          -122.8681399,
          38.4513699
        ]
      }
    },
    {
      "type": "Feature",
      "properties": {
        "title": "Green Valley Rd & Hwy 116/Hicks Rd",
        "tag": "757340",
        "stopId": "7719800"
      },
      "geometry": {
        "type": "Point",
        "coordinates": [
          -122.86736,
          38.4457599
        ]
      }
    },
    {
      "type": "Feature",
      "properties": {
        "title": "Ross Rd & Kamuela Rd",
        "tag": "757341",
        "stopId": "7719900"
      },
      "geometry": {
        "type": "Point",
        "coordinates": [
          -122.8706799,
          38.44178
        ]
      }
    },
    {
      "type": "Feature",
      "properties": {
        "title": "Graton",
        "tag": "757342",
        "stopId": "7720000"
      },
      "geometry": {
        "type": "Point",
        "coordinates": [
          -122.86997,
          38.4373299
        ]
      }
    },
    {
      "type": "Feature",
      "properties": {
        "title": "Graton Rd & Sonoma Ave",
        "tag": "757343",
        "stopId": "7720100"
      },
      "geometry": {
        "type": "Point",
        "coordinates": [
          -122.86155,
          38.43675
        ]
      }
    },
    {
      "type": "Feature",
      "properties": {
        "title": "Graton Rd & Hwy 116",
        "tag": "757344",
        "stopId": "7720200"
      },
      "geometry": {
        "type": "Point",
        "coordinates": [
          -122.8583599,
          38.43685
        ]
      }
    },
    {
      "type": "Feature",
      "properties": {
        "title": "Gravenstein Hwy & Occidental Rd",
        "tag": "757345",
        "stopId": "7720300"
      },
      "geometry": {
        "type": "Point",
        "coordinates": [
          -122.8483999,
          38.4254199
        ]
      }
    },
    {
      "type": "Feature",
      "properties": {
        "title": "Gravenstein Hwy & Mills Station Rd",
        "tag": "757346",
        "stopId": "7720400"
      },
      "geometry": {
        "type": "Point",
        "coordinates": [
          -122.84338,
          38.41305
        ]
      }
    },
    {
      "type": "Feature",
      "properties": {
        "title": "Gravenstein Hwy & Hurlbut Ave",
        "tag": "757347",
        "stopId": "7720500"
      },
      "geometry": {
        "type": "Point",
        "coordinates": [
          -122.83851,
          38.40732
        ]
      }
    },
    {
      "type": "Feature",
      "properties": {
        "title": "Healdsburg Ave & Murphy Ave",
        "tag": "757348",
        "stopId": "7720600"
      },
      "geometry": {
        "type": "Point",
        "coordinates": [
          -122.83259,
          38.40524
        ]
      }
    },
    {
      "type": "Feature",
      "properties": {
        "title": "Healdsburg Ave & N Main St (Safeway)",
        "tag": "757349",
        "stopId": "7720700"
      },
      "geometry": {
        "type": "Point",
        "coordinates": [
          -122.8269399,
          38.40518
        ]
      }
    },
    {
      "type": "Feature",
      "properties": {
        "title": "Keating Ave & Pitt Ave",
        "tag": "757350",
        "stopId": "7720710"
      },
      "geometry": {
        "type": "Point",
        "coordinates": [
          -122.82711,
          38.4038599
        ]
      }
    },
    {
      "type": "Feature",
      "properties": {
        "title": "North Main St & Wilton Ave",
        "tag": "757351",
        "stopId": "7720720"
      },
      "geometry": {
        "type": "Point",
        "coordinates": [
          -122.82527,
          38.40364
        ]
      }
    },
    {
      "type": "Feature",
      "properties": {
        "title": "Bodega Ave & N Main St",
        "tag": "757352",
        "stopId": "7720730"
      },
      "geometry": {
        "type": "Point",
        "coordinates": [
          -122.8244899,
          38.4020799
        ]
      }
    },
    {
      "type": "Feature",
      "properties": {
        "title": "Senior Center",
        "tag": "757353",
        "stopId": "7720740"
      },
      "geometry": {
        "type": "Point",
        "coordinates": [
          -122.82609,
          38.4025699
        ]
      }
    },
    {
      "type": "Feature",
      "properties": {
        "title": "Wilton Ave & Florence Ave",
        "tag": "757354",
        "stopId": "7720750"
      },
      "geometry": {
        "type": "Point",
        "coordinates": [
          -122.8287599,
          38.40199
        ]
      }
    },
    {
      "type": "Feature",
      "properties": {
        "title": "Burbank Heights",
        "tag": "757355",
        "stopId": "7720800"
      },
      "geometry": {
        "type": "Point",
        "coordinates": [
          -122.83354,
          38.3973299
        ]
      }
    },
    {
      "type": "Feature",
      "properties": {
        "title": "Burbank Heights",
        "tag": "757356",
        "stopId": "7720811"
      },
      "geometry": {
        "type": "Point",
        "coordinates": [
          -122.8339533,
          38.3953856
        ]
      }
    },
    {
      "type": "Feature",
      "properties": {
        "title": "Bodega Ave & Virginia Ave",
        "tag": "757357",
        "stopId": "7720820"
      },
      "geometry": {
        "type": "Point",
        "coordinates": [
          -122.8344599,
          38.3982199
        ]
      }
    },
    {
      "type": "Feature",
      "properties": {
        "title": "Bodega Ave & Pleasant Hill Ave",
        "tag": "757358",
        "stopId": "7720830"
      },
      "geometry": {
        "type": "Point",
        "coordinates": [
          -122.83899,
          38.3982699
        ]
      }
    },
    {
      "type": "Feature",
      "properties": {
        "title": "Pleasant Hill Ave & Valentine Ave",
        "tag": "757359",
        "stopId": "7720840"
      },
      "geometry": {
        "type": "Point",
        "coordinates": [
          -122.8397799,
          38.4020799
        ]
      }
    },
    {
      "type": "Feature",
      "properties": {
        "title": "Ragle Park - Ragle Rd & Covert Ln",
        "tag": "757361",
        "stopId": "7720860"
      },
      "geometry": {
        "type": "Point",
        "coordinates": [
          -122.84525,
          38.4051199
        ]
      }
    },
    {
      "type": "Feature",
      "properties": {
        "title": "Mill Station Rd & Hwy 116",
        "tag": "757362",
        "stopId": "7720870"
      },
      "geometry": {
        "type": "Point",
        "coordinates": [
          -122.8434299,
          38.41241
        ]
      }
    },
    {
      "type": "Feature",
      "properties": {
        "title": "Lucky's",
        "tag": "757363",
        "stopId": "7720880"
      },
      "geometry": {
        "type": "Point",
        "coordinates": [
          -122.83995,
          38.4077099
        ]
      }
    },
    {
      "type": "Feature",
      "properties": {
        "title": "Hwy 12 & Morris St",
        "tag": "757364",
        "stopId": "7720900"
      },
      "geometry": {
        "type": "Point",
        "coordinates": [
          -122.81784,
          38.4030599
        ]
      }
    },
    {
      "type": "Feature",
      "properties": {
        "title": "Hwy 12 & Llano Rd",
        "tag": "757365",
        "stopId": "7721000"
      },
      "geometry": {
        "type": "Point",
        "coordinates": [
          -122.7941,
          38.4120099
        ]
      }
    },
    {
      "type": "Feature",
      "properties": {
        "title": "Irwin Ln & Hwy 12",
        "tag": "757366",
        "stopId": "7721010"
      },
      "geometry": {
        "type": "Point",
        "coordinates": [
          -122.7894799,
          38.41794
        ]
      }
    },
    {
      "type": "Feature",
      "properties": {
        "title": "Irwin Ln & Occidental Rd",
        "tag": "757367",
        "stopId": "7721020"
      },
      "geometry": {
        "type": "Point",
        "coordinates": [
          -122.78791,
          38.4228399
        ]
      }
    },
    {
      "type": "Feature",
      "properties": {
        "title": "Earl Baum Ctr (Occidental Rd)",
        "tag": "757368",
        "stopId": "7721030"
      },
      "geometry": {
        "type": "Point",
        "coordinates": [
          -122.78039,
          38.4237299
        ]
      }
    },
    {
      "type": "Feature",
      "properties": {
        "title": "Hwy 12 & Merced Ave",
        "tag": "757370",
        "stopId": "7721100"
      },
      "geometry": {
        "type": "Point",
        "coordinates": [
          -122.7785099,
          38.4211
        ]
      }
    },
    {
      "type": "Feature",
      "properties": {
        "title": "Wright Rd & Sebastopol Rd",
        "tag": "757371",
        "stopId": "7721200"
      },
      "geometry": {
        "type": "Point",
        "coordinates": [
          -122.76917,
          38.42616
        ]
      }
    },
    {
      "type": "Feature",
      "properties": {
        "title": "Sebastopol Rd & Doubles Dr",
        "tag": "757372",
        "stopId": "7721300"
      },
      "geometry": {
        "type": "Point",
        "coordinates": [
          -122.76167,
          38.4252099
        ]
      }
    },
    {
      "type": "Feature",
      "properties": {
        "title": "SR Corporate Center (The Lakes)",
        "tag": "757373",
        "stopId": "7721400"
      },
      "geometry": {
        "type": "Point",
        "coordinates": [
          -122.7512,
          38.4259899
        ]
      }
    },
    {
      "type": "Feature",
      "properties": {
        "title": "Sebastopol Rd & Stony Point Rd",
        "tag": "757374",
        "stopId": "7721700"
      },
      "geometry": {
        "type": "Point",
        "coordinates": [
          -122.7434499,
          38.42661
        ]
      }
    },
    {
      "type": "Feature",
      "properties": {
        "title": "Sebastopol Rd & Hampton Way",
        "tag": "757375",
        "stopId": "7721800"
      },
      "geometry": {
        "type": "Point",
        "coordinates": [
          -122.73784,
          38.4275399
        ]
      }
    },
    {
      "type": "Feature",
      "properties": {
        "title": "Sebastopol Rd & Burbank Ave",
        "tag": "757376",
        "stopId": "7721900"
      },
      "geometry": {
        "type": "Point",
        "coordinates": [
          -122.73408,
          38.4283999
        ]
      }
    },
    {
      "type": "Feature",
      "properties": {
        "title": "Sebastopol Rd & West Ave",
        "tag": "757377",
        "stopId": "7722000"
      },
      "geometry": {
        "type": "Point",
        "coordinates": [
          -122.7306599,
          38.42925
        ]
      }
    },
    {
      "type": "Feature",
      "properties": {
        "title": "Sebastopol Rd & Avalon Ave",
        "tag": "757378",
        "stopId": "7722100"
      },
      "geometry": {
        "type": "Point",
        "coordinates": [
          -122.7277,
          38.42994
        ]
      }
    },
    {
      "type": "Feature",
      "properties": {
        "title": "Third St & Railroad St",
        "tag": "757379",
        "stopId": "7722400"
      },
      "geometry": {
        "type": "Point",
        "coordinates": [
          -122.7194399,
          38.43675
        ]
      }
    },
    {
      "type": "Feature",
      "properties": {
        "title": "Third St & E St",
        "tag": "757380",
        "stopId": "7723600"
      },
      "geometry": {
        "type": "Point",
        "coordinates": [
          -122.7098699,
          38.44121
        ]
      }
    },
    {
      "type": "Feature",
      "properties": {
        "title": "Memorial Hospital",
        "tag": "757381",
        "stopId": "7723700"
      },
      "geometry": {
        "type": "Point",
        "coordinates": [
          -122.70049,
          38.4430199
        ]
      }
    },
    {
      "type": "Feature",
      "properties": {
        "title": "Montgomery Dr & Shortt Rd",
        "tag": "757382",
        "stopId": "7723800"
      },
      "geometry": {
        "type": "Point",
        "coordinates": [
          -122.6917899,
          38.44543
        ]
      }
    },
    {
      "type": "Feature",
      "properties": {
        "title": "Montgomery Village",
        "tag": "757383",
        "stopId": "7723900"
      },
      "geometry": {
        "type": "Point",
        "coordinates": [
          -122.6869,
          38.4467299
        ]
      }
    },
    {
      "type": "Feature",
      "properties": {
        "title": "Montgomery Dr & Yulupa Ave",
        "tag": "757384",
        "stopId": "7724000"
      },
      "geometry": {
        "type": "Point",
        "coordinates": [
          -122.67897,
          38.4495199
        ]
      }
    },
    {
      "type": "Feature",
      "properties": {
        "title": "Montgomery Dr & Jacqueline",
        "tag": "757385",
        "stopId": "7724100"
      },
      "geometry": {
        "type": "Point",
        "coordinates": [
          -122.67472,
          38.4522099
        ]
      }
    },
    {
      "type": "Feature",
      "properties": {
        "title": "Montgomery Dr & Summerfield Dr",
        "tag": "757386",
        "stopId": "7724200"
      },
      "geometry": {
        "type": "Point",
        "coordinates": [
          -122.67226,
          38.45429
        ]
      }
    },
    {
      "type": "Feature",
      "properties": {
        "title": "Mission Blvd & Hwy 12",
        "tag": "757387",
        "stopId": "7724300"
      },
      "geometry": {
        "type": "Point",
        "coordinates": [
          -122.67303,
          38.45829
        ]
      }
    },
    {
      "type": "Feature",
      "properties": {
        "title": "Hwy 12 & Acacia Ln",
        "tag": "757388",
        "stopId": "7724400"
      },
      "geometry": {
        "type": "Point",
        "coordinates": [
          -122.66872,
          38.46232
        ]
      }
    },
    {
      "type": "Feature",
      "properties": {
        "title": "Hwy 12 & Middle Rincon Rd",
        "tag": "757389",
        "stopId": "7724500"
      },
      "geometry": {
        "type": "Point",
        "coordinates": [
          -122.66545,
          38.4635899
        ]
      }
    },
    {
      "type": "Feature",
      "properties": {
        "title": "Hwy 12 & Maria Ln",
        "tag": "757390",
        "stopId": "7724600"
      },
      "geometry": {
        "type": "Point",
        "coordinates": [
          -122.6604299,
          38.46473
        ]
      }
    },
    {
      "type": "Feature",
      "properties": {
        "title": "Hwy 12 & Boas Dr",
        "tag": "757391",
        "stopId": "7724700"
      },
      "geometry": {
        "type": "Point",
        "coordinates": [
          -122.6572799,
          38.4648899
        ]
      }
    },
    {
      "type": "Feature",
      "properties": {
        "title": "St Francis Ctr (Hwy 12 & Calistoga Rd)",
        "tag": "757392",
        "stopId": "7724800"
      },
      "geometry": {
        "type": "Point",
        "coordinates": [
          -122.65362,
          38.4647499
        ]
      }
    },
    {
      "type": "Feature",
      "properties": {
        "title": "Hwy 12 & Melita Rd",
        "tag": "757393",
        "stopId": "7724900"
      },
      "geometry": {
        "type": "Point",
        "coordinates": [
          -122.6510299,
          38.46463
        ]
      }
    },
    {
      "type": "Feature",
      "properties": {
        "title": "Hwy 12 & Mountain Hawk",
        "tag": "757394",
        "stopId": "7725000"
      },
      "geometry": {
        "type": "Point",
        "coordinates": [
          -122.6425199,
          38.4619299
        ]
      }
    },
    {
      "type": "Feature",
      "properties": {
        "title": "Hwy 12 & Fairway Dr",
        "tag": "757395",
        "stopId": "7725100"
      },