{
  "type": "FeatureCollection",
  "features": [
    {
      "type": "Feature",
      "properties": {
        "title": "N Louisiana Ave at Emma Rd",
        "tag": "759437",
        "stopId": "100"
      },
      "geometry": {
        "type": "Point",
        "coordinates": [
          -82.59153,
          35.5960799
        ]
      }
    },
    {
      "type": "Feature",
      "properties": {
        "title": "N Louisiana Ave at Emma Elementary School",
        "tag": "759438",
        "stopId": "101"
      },
      "geometry": {
        "type": "Point",
        "coordinates": [
          -82.5911,
          35.59852
        ]
      }
    },
    {
      "type": "Feature",
      "properties": {
        "title": "N Louisiana Ave at Mosswood Mobile Home Park",
        "tag": "759439",
        "stopId": "102"
      },
      "geometry": {
        "type": "Point",
        "coordinates": [
          -82.59034,
          35.60161
        ]
      }
    },
    {
      "type": "Feature",
      "properties": {
        "title": "Adams Hill Rd at Pearson Bridge Rd",
        "tag": "759440",
        "stopId": "103"
      },
      "geometry": {
        "type": "Point",
        "coordinates": [
          -82.5912,
          35.6065199
        ]
      }
    },
    {
      "type": "Feature",
      "properties": {
        "title": "Bingham Rd at Adams Hill Rd",
        "tag": "759441",
        "stopId": "104"
      },
      "geometry": {
        "type": "Point",
        "coordinates": [
          -82.5866099,
          35.60419
        ]
      }
    },
    {
      "type": "Feature",
      "properties": {
        "title": "Bingham Rd at Crossroad Ct",
        "tag": "759442",
        "stopId": "105"
      },
      "geometry": {
        "type": "Point",
        "coordinates": [
          -82.5862599,
          35.6027999
        ]
      }
    },
    {
      "type": "Feature",
      "properties": {
        "title": "Bingham Rd at Keith Dr",
        "tag": "759443",
        "stopId": "106"
      },
      "geometry": {
        "type": "Point",
        "coordinates": [
          -82.58478,
          35.6009099
        ]
      }
    },
    {
      "type": "Feature",
      "properties": {
        "title": "Bingham Rd at Emma Rd",
        "tag": "759444",
        "stopId": "107"
      },
      "geometry": {
        "type": "Point",
        "coordinates": [
          -82.5826214,
          35.5980828
        ]
      }
    },
    {
      "type": "Feature",
      "properties": {
        "title": "Emma Rd at Emma Hill Dr",
        "tag": "759445",
        "stopId": "108"
      },
      "geometry": {
        "type": "Point",
        "coordinates": [
          -82.5869399,
          35.5969099
        ]
      }
    },
    {
      "type": "Feature",
      "properties": {
        "title": "Emma Rd at N Louisiana Ave",
        "tag": "759446",
        "stopId": "109"
      },
      "geometry": {
        "type": "Point",
        "coordinates": [
          -82.59152,
          35.5957499
        ]
      }
    },
    {
      "type": "Feature",
      "properties": {
        "title": "N Louisiana Ave at Hazel Mill Rd",
        "tag": "759447",
        "stopId": "110"
      },
      "geometry": {
        "type": "Point",
        "coordinates": [
          -82.5930899,
          35.59151
        ]
      }
    },
    {
      "type": "Feature",
      "properties": {
        "title": "N Louisiana Ave at Patton Ave",
        "tag": "759448",
        "stopId": "111"
      },
      "geometry": {
        "type": "Point",
        "coordinates": [
          -82.59259,
          35.5877699
        ]
      }
    },
    {
      "type": "Feature",
      "properties": {
        "title": "Fairview Rd at 101 Fairview Rd",
        "tag": "759460",
        "stopId": "123"
      },
      "geometry": {
        "type": "Point",
        "coordinates": [
          -82.53693,
          35.5665599
        ]
      }
    },
    {
      "type": "Feature",
      "properties": {
        "title": "Fairview Rd at Eastview St",
        "tag": "759461",
        "stopId": "124"
      },
      "geometry": {
        "type": "Point",
        "coordinates": [
          -82.53179,
          35.56683
        ]
      }
    },
    {
      "type": "Feature",
      "properties": {
        "title": "Fairview Rd at East St",
        "tag": "759462",
        "stopId": "125"
      },
      "geometry": {
        "type": "Point",
        "coordinates": [
          -82.5293399,
          35.56781
        ]
      }
    },
    {
      "type": "Feature",
      "properties": {
        "title": "Fairview Rd at Ridge Ave",
        "tag": "759463",
        "stopId": "126"
      },
      "geometry": {
        "type": "Point",
        "coordinates": [
          -82.5267099,
          35.56717
        ]
      }
    },
    {
      "type": "Feature",
      "properties": {
        "title": "Cedar St at Fairview Ave",
        "tag": "759464",
        "stopId": "127"
      },
      "geometry": {
        "type": "Point",
        "coordinates": [
          -82.51328,
          35.56629
        ]
      }
    },
    {
      "type": "Feature",
      "properties": {
        "title": "Fairview Rd at Unaka Ave",
        "tag": "759465",
        "stopId": "128"
      },
      "geometry": {
        "type": "Point",
        "coordinates": [
          -82.52161,
          35.56612
        ]
      }
    },
    {
      "type": "Feature",
      "properties": {
        "title": "Fairview Rd at Shannon Dr",
        "tag": "759466",
        "stopId": "129"
      },
      "geometry": {
        "type": "Point",
        "coordinates": [
          -82.51977,
          35.56546
        ]
      }
    },
    {
      "type": "Feature",
      "properties": {
        "title": "Fairview Rd at Harmony Ln",
        "tag": "759467",
        "stopId": "130"
      },
      "geometry": {
        "type": "Point",
        "coordinates": [
          -82.51633,
          35.56496
        ]
      }
    },
    {
      "type": "Feature",
      "properties": {
        "title": "Fairview Rd at Liberty St",
        "tag": "759468",
        "stopId": "131"
      },
      "geometry": {
        "type": "Point",
        "coordinates": [
          -82.51332,
          35.5644599
        ]
      }
    },
    {
      "type": "Feature",
      "properties": {
        "title": "Fairview Rd at Old Fairview Rd",
        "tag": "759469",
        "stopId": "132"
      },
      "geometry": {
        "type": "Point",
        "coordinates": [
          -82.51118,
          35.56505
        ]
      }
    },
    {
      "type": "Feature",
      "properties": {
        "title": "Entrance And Exit Ramp At Home Depot",
        "tag": "759470",
        "stopId": "133"
      },
      "geometry": {
        "type": "Point",
        "coordinates": [
          -82.5083899,
          35.56698
        ]
      }
    },
    {
      "type": "Feature",
      "properties": {
        "title": "River Ridge Dr at River Ridge Shopping Center",
        "tag": "759471",
        "stopId": "134"
      },
      "geometry": {
        "type": "Point",
        "coordinates": [
          -82.50646,
          35.5706099
        ]
      }
    },
    {
      "type": "Feature",
      "properties": {
        "title": "River Ridge Dr at J & S Cafeteria",
        "tag": "759472",
        "stopId": "135"
      },
      "geometry": {
        "type": "Point",
        "coordinates": [
          -82.50792,
          35.5705799
        ]
      }
    },
    {
      "type": "Feature",
      "properties": {
        "title": "Fairview Rd at Oakley Plaza Shopping Center",
        "tag": "759473",
        "stopId": "136"
      },
      "geometry": {
        "type": "Point",
        "coordinates": [
          -82.5030299,
          35.57117
        ]
      }
    },
    {
      "type": "Feature",
      "properties": {
        "title": "Fairview Rd at 101 Fairview Rd",
        "tag": "759474",
        "stopId": "137"
      },
      "geometry": {
        "type": "Point",
        "coordinates": [
          -82.5378699,
          35.56659
        ]
      }
    },
    {
      "type": "Feature",
      "properties": {
        "title": "Wood Ave at River Hills Rd",
        "tag": "759475",
        "stopId": "138"
      },
      "geometry": {
        "type": "Point",
        "coordinates": [
          -82.5184199,
          35.57592
        ]
      }
    },
    {
      "type": "Feature",
      "properties": {
        "title": "N Louisiana Ave at Arctic Rd",
        "tag": "759476",
        "stopId": "139"
      },
      "geometry": {
        "type": "Point",
        "coordinates": [
          -82.58977,
          35.6039299
        ]
      }
    },
    {
      "type": "Feature",
      "properties": {
        "title": "Wood Ave at Future Dr",
        "tag": "759477",
        "stopId": "140"
      },
      "geometry": {
        "type": "Point",
        "coordinates": [
          -82.51655,
          35.5719999
        ]
      }
    },
    {
      "type": "Feature",
      "properties": {
        "title": "Wood Ave at Cheerio Ln",
        "tag": "759478",
        "stopId": "141"
      },
      "geometry": {
        "type": "Point",
        "coordinates": [
          -82.5141299,
          35.5698999
        ]
      }
    },
    {
      "type": "Feature",
      "properties": {
        "title": "Cedar St at Fairview Rd",
        "tag": "759479",
        "stopId": "142"
      },
      "geometry": {
        "type": "Point",
        "coordinates": [
          -82.51284,
          35.5647199
        ]
      }
    },
    {
      "type": "Feature",
      "properties": {
        "title": "Pearson Bridge Rd at Bingham Rd",
        "tag": "759480",
        "stopId": "143"
      },
      "geometry": {
        "type": "Point",
        "coordinates": [
          -82.58713,
          35.6072599
        ]
      }
    },
    {
      "type": "Feature",
      "properties": {
        "title": "Fairview Rd at Harmony Ln",
        "tag": "759481",
        "stopId": "144"
      },
      "geometry": {
        "type": "Point",
        "coordinates": [
          -82.51632,
          35.5650399
        ]
      }
    },
    {
      "type": "Feature",
      "properties": {
        "title": "Fairview Rd at Blalock Ave",
        "tag": "759482",
        "stopId": "145"
      },
      "geometry": {
        "type": "Point",
        "coordinates": [
          -82.5212899,
          35.5660799
        ]
      }
    },
    {
      "type": "Feature",
      "properties": {
        "title": "Fairview Rd at Third St",
        "tag": "759483",
        "stopId": "146"
      },
      "geometry": {
        "type": "Point",
        "coordinates": [
          -82.52554,
          35.56676
        ]
      }
    },
    {
      "type": "Feature",
      "properties": {
        "title": "Fairview Rd at East St",
        "tag": "759484",
        "stopId": "148"
      },
      "geometry": {
        "type": "Point",
        "coordinates": [
          -82.52918,
          35.5679099
        ]
      }
    },
    {
      "type": "Feature",
      "properties": {
        "title": "Fairview Rd at Stoner Rd",
        "tag": "759485",
        "stopId": "149"
      },
      "geometry": {
        "type": "Point",
        "coordinates": [
          -82.53153,
          35.5670399
        ]
      }
    },
    {
      "type": "Feature",
      "properties": {
        "title": "N Louisiana Ave at Patton Ave",
        "tag": "759497",
        "stopId": "161"
      },
      "geometry": {
        "type": "Point",
        "coordinates": [
          -82.59246,
          35.5877899
        ]
      }
    },
    {
      "type": "Feature",
      "properties": {
        "title": "N Louisiana Ave at Hazel Mill Rd",
        "tag": "759498",
        "stopId": "162"
      },
      "geometry": {
        "type": "Point",
        "coordinates": [
          -82.59286,
          35.5918499
        ]
      }
    },
    {
      "type": "Feature",
      "properties": {
        "title": "ART Station",
        "tag": "759499",
        "stopId": "200"
      },
      "geometry": {
        "type": "Point",
        "coordinates": [
          -82.5557,
          35.5928099
        ]
      }
    },
    {
      "type": "Feature",
      "properties": {
        "title": "Broadway St at College St",
        "tag": "759500",
        "stopId": "202"
      },
      "geometry": {
        "type": "Point",
        "coordinates": [
          -82.55188,
          35.5956899
        ]
      }
    },
    {
      "type": "Feature",
      "properties": {
        "title": "Broadway St at Walnut St",
        "tag": "759501",
        "stopId": "203"
      },
      "geometry": {
        "type": "Point",
        "coordinates": [
          -82.5521199,
          35.5965699
        ]
      }
    },
    {
      "type": "Feature",
      "properties": {
        "title": "Broadway St at Woodfin St",
        "tag": "759502",
        "stopId": "204"
      },
      "geometry": {
        "type": "Point",
        "coordinates": [
          -82.55299,
          35.59844
        ]
      }
    },
    {
      "type": "Feature",
      "properties": {
        "title": "Merrimon Ave at Marcellus St",
        "tag": "759503",
        "stopId": "205"
      },
      "geometry": {
        "type": "Point",
        "coordinates": [
          -82.55367,
          35.60048
        ]
      }
    },
    {
      "type": "Feature",
      "properties": {
        "title": "Merrimon Ave at E Chestnut St",
        "tag": "759504",
        "stopId": "206"
      },
      "geometry": {
        "type": "Point",
        "coordinates": [
          -82.5531,
          35.6031699
        ]
      }
    },
    {
      "type": "Feature",
      "properties": {
        "title": "Merrimon Ave at Hillside St",
        "tag": "759505",
        "stopId": "207"
      },
      "geometry": {
        "type": "Point",
        "coordinates": [
          -82.55372,
          35.6076
        ]
      }
    },
    {
      "type": "Feature",
      "properties": {
        "title": "Merrimon Ave at Spears Ave",
        "tag": "759506",
        "stopId": "208"
      },
      "geometry": {
        "type": "Point",
        "coordinates": [
          -82.55463,
          35.6103199
        ]
      }
    },
    {
      "type": "Feature",
      "properties": {
        "title": "Merrimon Ave at Coleman Ave",
        "tag": "759507",
        "stopId": "209"
      },
      "geometry": {
        "type": "Point",
        "coordinates": [
          -82.55504,
          35.6130299
        ]
      }
    },
    {
      "type": "Feature",
      "properties": {
        "title": "W T Weaver Blvd at Merrimon Ave",
        "tag": "759508",
        "stopId": "210"
      },
      "geometry": {
        "type": "Point",
        "coordinates": [
          -82.55513,
          35.6153799
        ]
      }
    },
    {
      "type": "Feature",
      "properties": {
        "title": "W T Weaver Blvd at King St",
        "tag": "759509",
        "stopId": "211"
      },
      "geometry": {
        "type": "Point",
        "coordinates": [
          -82.55871,
          35.6142499
        ]
      }
    },
    {
      "type": "Feature",
      "properties": {
        "title": "W T Weaver Blvd at Barnard St",
        "tag": "759510",
        "stopId": "212"
      },
      "geometry": {
        "type": "Point",
        "coordinates": [
          -82.5613299,
          35.6142699
        ]
      }
    },
    {
      "type": "Feature",
      "properties": {
        "title": "UNC Asheville at Edgewood Rd",
        "tag": "759511",
        "stopId": "213"
      },
      "geometry": {
        "type": "Point",
        "coordinates": [
          -82.5636599,
          35.6180699
        ]
      }
    },
    {
      "type": "Feature",
      "properties": {
        "title": "UNC Asheville at Sherrill Center",
        "tag": "759512",
        "stopId": "214"
      },
      "geometry": {
        "type": "Point",
        "coordinates": [
          -82.5668,
          35.6182499
        ]
      }
    },
    {
      "type": "Feature",
      "properties": {
        "title": "UNC Asheville at Governors Hall",
        "tag": "759513",
        "stopId": "215"
      },
      "geometry": {
        "type": "Point",
        "coordinates": [
          -82.5675899,
          35.6156699
        ]
      }
    },
    {
      "type": "Feature",
      "properties": {
        "title": "UNC Asheville at Zeis Hall",
        "tag": "759514",
        "stopId": "216"
      },
      "geometry": {
        "type": "Point",
        "coordinates": [
          -82.56469,
          35.6159799
        ]
      }
    },
    {
      "type": "Feature",
      "properties": {
        "title": "W T Weaver Blvd at Barnard St",
        "tag": "759515",
        "stopId": "217"
      },
      "geometry": {
        "type": "Point",
        "coordinates": [
          -82.56142,
          35.61412
        ]
      }
    },
    {
      "type": "Feature",
      "properties": {
        "title": "W T Weaver Blvd at King St",
        "tag": "759516",
        "stopId": "218"
      },
      "geometry": {
        "type": "Point",
        "coordinates": [
          -82.5585199,
          35.61419
        ]
      }
    },
    {
      "type": "Feature",
      "properties": {
        "title": "Merrimon Ave at Murdock Ave",
        "tag": "759517",
        "stopId": "219"
      },
      "geometry": {
        "type": "Point",
        "coordinates": [
          -82.55448,
          35.6163199
        ]
      }
    },
    {
      "type": "Feature",
      "properties": {
        "title": "Merrimon Ave at Edgewood Rd",
        "tag": "759518",
        "stopId": "220"
      },
      "geometry": {
        "type": "Point",
        "coordinates": [
          -82.55427,
          35.62028
        ]
      }
    },
    {
      "type": "Feature",
      "properties": {
        "title": "Merrimon Ave at E Larchmont Rd",
        "tag": "759519",
        "stopId": "221"
      },
      "geometry": {
        "type": "Point",
        "coordinates": [
          -82.55456,
          35.6232099
        ]
      }
    },
    {
      "type": "Feature",
      "properties": {
        "title": "Merrimon Ave at Gracelyn Rd",
        "tag": "759520",
        "stopId": "222"
      },
      "geometry": {
        "type": "Point",
        "coordinates": [
          -82.55392,
          35.62539
        ]
      }
    },
    {
      "type": "Feature",
      "properties": {
        "title": "Merrimon Ave at Ottari Rd",
        "tag": "759521",
        "stopId": "223"
      },
      "geometry": {
        "type": "Point",
        "coordinates": [
          -82.55263,
          35.62833
        ]
      }
    },
    {
      "type": "Feature",
      "properties": {
        "title": "Merrimon Ave at Beaverdam Rd",
        "tag": "759522",
        "stopId": "224"
      },
      "geometry": {
        "type": "Point",
        "coordinates": [
          -82.55267,
          35.6299299
        ]
      }
    },
    {
      "type": "Feature",
      "properties": {
        "title": "Merrimon Ave at Beaver Point Park",
        "tag": "759523",
        "stopId": "225"
      },
      "geometry": {
        "type": "Point",
        "coordinates": [
          -82.5543099,
          35.6319999
        ]
      }
    },
    {
      "type": "Feature",
      "properties": {
        "title": "Merrimon Ave at Wembley Rd",
        "tag": "759524",
        "stopId": "226"
      },
      "geometry": {
        "type": "Point",
        "coordinates": [
          -82.55693,
          35.63483
        ]
      }
    },
    {
      "type": "Feature",
      "properties": {
        "title": "West Intersection With Midland Dr",
        "tag": "759525",
        "stopId": "227"
      },
      "geometry": {
        "type": "Point",
        "coordinates": [
          -82.56611,
          35.63615
        ]
      }
    },
    {
      "type": "Feature",
      "properties": {
        "title": "Merrimon Ave at Stratford Rd",
        "tag": "759526",
        "stopId": "228"
      },
      "geometry": {
        "type": "Point",
        "coordinates": [
          -82.57098,
          35.6370999
        ]
      }
    },
    {
      "type": "Feature",
      "properties": {
        "title": "Elkwood Ave at Merrimon Ave",
        "tag": "759527",
        "stopId": "229"
      },
      "geometry": {
        "type": "Point",
        "coordinates": [
          -82.575,
          35.6371499
        ]
      }
    },
    {
      "type": "Feature",
      "properties": {
        "title": "Elkwood Ave at Northridge Dr",
        "tag": "759528",
        "stopId": "230"
      },
      "geometry": {
        "type": "Point",
        "coordinates": [
          -82.5755099,
          35.63493
        ]
      }
    },
    {
      "type": "Feature",
      "properties": {
        "title": "Elkwood Ave at Valley Park Rd",
        "tag": "759529",
        "stopId": "231"
      },
      "geometry": {
        "type": "Point",
        "coordinates": [
          -82.5760299,
          35.6324
        ]
      }
    },
    {
      "type": "Feature",
      "properties": {
        "title": "Lakeshore Dr at Elkwood Ave",
        "tag": "759530",
        "stopId": "232"
      },
      "geometry": {
        "type": "Point",
        "coordinates": [
          -82.57484,
          35.6297799
        ]
      }
    },
    {
      "type": "Feature",
      "properties": {
        "title": "Lakeshore Dr at Westwood Rd",
        "tag": "759531",
        "stopId": "233"
      },
      "geometry": {
        "type": "Point",
        "coordinates": [
          -82.56979,
          35.63085
        ]
      }
    },
    {
      "type": "Feature",
      "properties": {
        "title": "Lakeshore Dr at Glenview Rd",
        "tag": "759532",
        "stopId": "234"
      },
      "geometry": {
        "type": "Point",
        "coordinates": [
          -82.56689,
          35.63128
        ]
      }
    },
    {
      "type": "Feature",
      "properties": {
        "title": "Lakeshore Dr at Pine Tree Cir",
        "tag": "759533",
        "stopId": "235"
      },
      "geometry": {
        "type": "Point",
        "coordinates": [
          -82.5604999,
          35.6322899
        ]
      }
    },
    {
      "type": "Feature",
      "properties": {
        "title": "Lakeshore Dr at Mt Vernon Pl",
        "tag": "759534",
        "stopId": "236"
      },
      "geometry": {
        "type": "Point",
        "coordinates": [
          -82.5556599,
          35.6289499
        ]
      }
    },
    {
      "type": "Feature",
      "properties": {
        "title": "Lakeshore Dr at Merrimon Ave",
        "tag": "759535",
        "stopId": "237"
      },
      "geometry": {
        "type": "Point",
        "coordinates": [
          -82.55343,
          35.6269899
        ]
      }
    },
    {
      "type": "Feature",
      "properties": {
        "title": "Merrimon Ave at Colonial Pl",
        "tag": "759536",
        "stopId": "238"
      },
      "geometry": {
        "type": "Point",
        "coordinates": [
          -82.5541499,
          35.62545
        ]
      }
    },
    {
      "type": "Feature",
      "properties": {
        "title": "Merrimon Ave at Larchmont Rd",
        "tag": "759537",
        "stopId": "239"
      },
      "geometry": {
        "type": "Point",
        "coordinates": [
          -82.55473,
          35.6233199
        ]
      }
    },
    {
      "type": "Feature",
      "properties": {
        "title": "Merrimon Ave at Edgewood Rd",
        "tag": "759538",
        "stopId": "240"
      },
      "geometry": {
        "type": "Point",
        "coordinates": [
          -82.5544299,
          35.61967
        ]
      }
    },
    {
      "type": "Feature",
      "properties": {
        "title": "Merrimon Ave at Coleman Ave",
        "tag": "759539",
        "stopId": "241"
      },
      "geometry": {
        "type": "Point",
        "coordinates": [
          -82.55523,
          35.6128599
        ]
      }
    },
    {
      "type": "Feature",
      "properties": {
        "title": "Merrimon Ave at Spears Ave",
        "tag": "759540",
        "stopId": "242"
      },
      "geometry": {
        "type": "Point",
        "coordinates": [
          -82.5547499,
          35.61009
        ]
      }
    },
    {
      "type": "Feature",
      "properties": {
        "title": "Merrimon Ave at Hillside St",
        "tag": "759541",
        "stopId": "243"
      },
      "geometry": {
        "type": "Point",
        "coordinates": [
          -82.55387,
          35.6074899
        ]
      }
    },
    {
      "type": "Feature",
      "properties": {
        "title": "Merrimon Ave at E Chestnut St",
        "tag": "759542",
        "stopId": "244"
      },
      "geometry": {
        "type": "Point",
        "coordinates": [
          -82.55327,
          35.6034099
        ]
      }
    },
    {
      "type": "Feature",
      "properties": {
        "title": "Merrimon Ave at Greenlife Grocery",
        "tag": "759543",
        "stopId": "245"
      },
      "geometry": {
        "type": "Point",
        "coordinates": [
          -82.5534899,
          35.6016299
        ]
      }
    },
    {
      "type": "Feature",
      "properties": {
        "title": "Broadway St at Woodfin St",
        "tag": "759544",
        "stopId": "246"
      },
      "geometry": {
        "type": "Point",
        "coordinates": [
          -82.55312,
          35.5983199
        ]
      }
    },
    {
      "type": "Feature",
      "properties": {
        "title": "Broadway St at Walnut St",
        "tag": "759545",
        "stopId": "247"
      },
      "geometry": {
        "type": "Point",
        "coordinates": [
          -82.55232,
          35.59669
        ]
      }
    },
    {
      "type": "Feature",
      "properties": {
        "title": "Broadway St at College St",
        "tag": "759546",
        "stopId": "248"
      },
      "geometry": {
        "type": "Point",
        "coordinates": [
          -82.55201,
          35.5956299
        ]
      }
    },
    {
      "type": "Feature",
      "properties": {
        "title": "Beaverdam Rd at Merrimon Ave",
        "tag": "759547",
        "stopId": "249"
      },
      "geometry": {
        "type": "Point",
        "coordinates": [
          -82.55254,
          35.6291899
        ]
      }
    },
    {
      "type": "Feature",
      "properties": {
        "title": "Beaverdam Rd at Kimberly Ave",
        "tag": "759548",
        "stopId": "250"
      },
      "geometry": {
        "type": "Point",
        "coordinates": [
          -82.54966,
          35.6346899
        ]
      }
    },
    {
      "type": "Feature",
      "properties": {
        "title": "Beaverdam Rd at Elk Mountain Scenic Hwy",
        "tag": "759549",
        "stopId": "251"
      },
      "geometry": {
        "type": "Point",
        "coordinates": [
          -82.547605,
          35.6364436
        ]
      }
    },
    {
      "type": "Feature",
      "properties": {
        "title": "Beaverdam Rd at Timber Trail",
        "tag": "759550",
        "stopId": "252"
      },
      "geometry": {
        "type": "Point",
        "coordinates": [
          -82.54405,
          35.6375199
        ]
      }
    },
    {
      "type": "Feature",
      "properties": {
        "title": "Beaverdam Rd at Sycamore St",
        "tag": "759551",
        "stopId": "253"
      },
      "geometry": {
        "type": "Point",
        "coordinates": [
          -82.54067,
          35.63954
        ]
      }
    },
    {
      "type": "Feature",
      "properties": {
        "title": "Beaverdam Rd at Carter Cove Rd",
        "tag": "759552",
        "stopId": "254"
      },
      "geometry": {
        "type": "Point",
        "coordinates": [
          -82.5365799,
          35.64274
        ]
      }
    },
    {
      "type": "Feature",
      "properties": {
        "title": "Beaverdam Rd at Wolfe Cove Rd",
        "tag": "759553",
        "stopId": "255"
      },
      "geometry": {
        "type": "Point",
        "coordinates": [
          -82.53143,
          35.64164
        ]
      }
    },
    {
      "type": "Feature",
      "properties": {
        "title": "Centre Park Dr at Social Security Administration",
        "tag": "759554",
        "stopId": "256"
      },
      "geometry": {
        "type": "Point",
        "coordinates": [
          -82.52927,
          35.6002799
        ]
      }
    },
    {
      "type": "Feature",
      "properties": {
        "title": "Valley Rd at Golden Living Center",
        "tag": "759555",
        "stopId": "257"
      },
      "geometry": {
        "type": "Point",
        "coordinates": [
          -82.52807,
          35.6440799
        ]
      }
    },
    {
      "type": "Feature",
      "properties": {
        "title": "Beaverdam Rd at Valley Rd",
        "tag": "759556",
        "stopId": "258"
      },
      "geometry": {
        "type": "Point",
        "coordinates": [
          -82.52898,
          35.6420499
        ]
      }
    },
    {
      "type": "Feature",
      "properties": {
        "title": "Beaverdam Rd at Faircrest Rd",
        "tag": "759557",
        "stopId": "259"
      },
      "geometry": {
        "type": "Point",
        "coordinates": [
          -82.53229,
          35.6417299
        ]
      }
    },
    {
      "type": "Feature",
      "properties": {
        "title": "Beaverdam Rd at Carter Cove Rd",
        "tag": "759558",
        "stopId": "260"
      },
      "geometry": {
        "type": "Point",
        "coordinates": [
          -82.5355599,
          35.6431499
        ]
      }
    },
    {
      "type": "Feature",
      "properties": {
        "title": "Beaverdam Rd at Wild Cherry Rd",
        "tag": "759559",
        "stopId": "261"
      },
      "geometry": {
        "type": "Point",
        "coordinates": [
          -82.5400399,
          35.6409499
        ]
      }
    },
    {
      "type": "Feature",
      "properties": {
        "title": "Beaverdam Rd at Killian Rd",
        "tag": "759560",
        "stopId": "262"
      },
      "geometry": {
        "type": "Point",
        "coordinates": [
          -82.54248,
          35.6387599
        ]
      }
    },
    {
      "type": "Feature",
      "properties": {
        "title": "Beaverdam Rd at Elk Mountain Scenic Hwy",
        "tag": "759561",
        "stopId": "263"
      },
      "geometry": {
        "type": "Point",
        "coordinates": [
          -82.5476399,
          35.6365199
        ]
      }
    },
    {
      "type": "Feature",
      "properties": {
        "title": "Beaverdam Rd at Kimberly Ave",
        "tag": "759562",
        "stopId": "264"
      },
      "geometry": {
        "type": "Point",
        "coordinates": [
          -82.5497999,
          35.6346999
        ]
      }
    },
    {
      "type": "Feature",
      "properties": {
        "title": "Merrimon Ave at Beaverdam Rd",
        "tag": "759563",
        "stopId": "265"
      },
      "geometry": {
        "type": "Point",
        "coordinates": [
          -82.55284,
          35.6290199
        ]
      }
    },
    {
      "type": "Feature",
      "properties": {
        "title": "Merrimon Ave at Lakeshore Rd",
        "tag": "759564",
        "stopId": "266"
      },
      "geometry": {
        "type": "Point",
        "coordinates": [
          -82.5532199,
          35.6270999
        ]
      }
    },
    {
      "type": "Feature",
      "properties": {
        "title": "Patton Ave at Otis St",
        "tag": "759565",
        "stopId": "300"
      },
      "geometry": {
        "type": "Point",
        "coordinates": [
          -82.55712,
          35.5940299
        ]
      }
    },
    {
      "type": "Feature",
      "properties": {
        "title": "Patton Ave at S French Broad Ave",
        "tag": "759566",
        "stopId": "301"
      },
      "geometry": {
        "type": "Point",
        "coordinates": [
          -82.5586499,
          35.59371
        ]
      }
    },
    {
      "type": "Feature",
      "properties": {
        "title": "Patton Ave at Clingman Ave",
        "tag": "759567",
        "stopId": "302"
      },
      "geometry": {
        "type": "Point",
        "coordinates": [
          -82.56195,
          35.5930699
        ]
      }
    },
    {
      "type": "Feature",
      "properties": {
        "title": "Montford Ave at Haywood St",
        "tag": "759568",
        "stopId": "303"
      },
      "geometry": {
        "type": "Point",
        "coordinates": [
          -82.5592599,
          35.5963599
        ]
      }
    },
    {
      "type": "Feature",
      "properties": {
        "title": "Hill St at Montford Ave",
        "tag": "759569",
        "stopId": "304"
      },
      "geometry": {
        "type": "Point",
        "coordinates": [
          -82.56024,
          35.5970899
        ]
      }
    },
    {
      "type": "Feature",
      "properties": {
        "title": "Hill St at Isaac Dickson Elementary",
        "tag": "759570",
        "stopId": "305"
      },
      "geometry": {
        "type": "Point",
        "coordinates": [
          -82.5642099,
          35.59427
        ]
      }
    },
    {
      "type": "Feature",
      "properties": {
        "title": "Hill St at Cross Pl",
        "tag": "759571",
        "stopId": "306"
      },
      "geometry": {
        "type": "Point",
        "coordinates": [
          -82.56765,
          35.59378
        ]
      }
    },
    {
      "type": "Feature",
      "properties": {
        "title": "Atkinson St at Hill St",
        "tag": "759572",
        "stopId": "307"
      },
      "geometry": {
        "type": "Point",
        "coordinates": [
          -82.56903,
          35.5956099
        ]
      }
    },
    {
      "type": "Feature",
      "properties": {
        "title": "Atkinson St at Community Center",
        "tag": "759573",
        "stopId": "308"
      },
      "geometry": {
        "type": "Point",
        "coordinates": [
          -82.5707199,
          35.5951399
        ]
      }
    },
    {
      "type": "Feature",
      "properties": {
        "title": "Atkinson St at Building 24",
        "tag": "759574",
        "stopId": "309"
      },
      "geometry": {
        "type": "Point",
        "coordinates": [
          -82.5697399,
          35.59231
        ]
      }
    },
    {
      "type": "Feature",
      "properties": {
        "title": "Atkinson St at Building 1",
        "tag": "759575",
        "stopId": "310"
      },
      "geometry": {
        "type": "Point",
        "coordinates": [
          -82.57038,
          35.5949999
        ]
      }
    },
    {
      "type": "Feature",
      "properties": {
        "title": "Atkinson St at Hill St",
        "tag": "759576",
        "stopId": "311"
      },
      "geometry": {
        "type": "Point",
        "coordinates": [
          -82.56895,
          35.5955399
        ]
      }
    },
    {
      "type": "Feature",
      "properties": {
        "title": "Hill St at Cross Pl",
        "tag": "759577",
        "stopId": "312"
      },
      "geometry": {
        "type": "Point",
        "coordinates": [
          -82.5676699,
          35.5936899
        ]
      }
    },
    {
      "type": "Feature",
      "properties": {
        "title": "Hill St at Isaac Dickson Elementary",
        "tag": "759578",
        "stopId": "313"
      },
      "geometry": {
        "type": "Point",
        "coordinates": [
          -82.56408,
          35.59423
        ]
      }
    },
    {
      "type": "Feature",
      "properties": {
        "title": "Hill St at Montford Ave",
        "tag": "759579",
        "stopId": "314"
      },
      "geometry": {
        "type": "Point",
        "coordinates": [
          -82.56017,
          35.5969999
        ]
      }
    },
    {
      "type": "Feature",
      "properties": {
        "title": "Patton Ave at Clingman Ave",
        "tag": "759581",
        "stopId": "316"
      },
      "geometry": {
        "type": "Point",
        "coordinates": [
          -82.56186,
          35.5929099
        ]
      }
    },
    {
      "type": "Feature",
      "properties": {
        "title": "Patton Ave at S French Broad Ave",
        "tag": "759582",
        "stopId": "317"
      },
      "geometry": {
        "type": "Point",
        "coordinates": [
          -82.55888,
          35.5935099
        ]
      }
    },
    {
      "type": "Feature",
      "properties": {
        "title": "Patton Ave at Otis St",
        "tag": "759583",
        "stopId": "318"
      },
      "geometry": {
        "type": "Point",
        "coordinates": [
          -82.5566999,
          35.59397
        ]
      }
    },
    {
      "type": "Feature",
      "properties": {
        "title": "Patton Ave at Haywood St",
        "tag": "759584",
        "stopId": "401"
      },
      "geometry": {
        "type": "Point",
        "coordinates": [
          -82.5542199,
          35.5945
        ]
      }
    },
    {
      "type": "Feature",
      "properties": {
        "title": "College St at Court Plaza",
        "tag": "759585",
        "stopId": "403"
      },
      "geometry": {
        "type": "Point",
        "coordinates": [
          -82.549056,
          35.5962719
        ]
      }
    },
    {
      "type": "Feature",
      "properties": {
        "title": "College St at S Charlotte St",
        "tag": "759586",
        "stopId": "404"
      },
      "geometry": {
        "type": "Point",
        "coordinates": [
          -82.54569,
          35.5975399
        ]
      }
    },
    {
      "type": "Feature",
      "properties": {
        "title": "College St at Martin Luther King Jr Dr",
        "tag": "759587",
        "stopId": "405"
      },
      "geometry": {
        "type": "Point",
        "coordinates": [
          -82.5442,
          35.5979899
        ]
      }
    },
    {
      "type": "Feature",
      "properties": {
        "title": "Tunnel Rd at College St",
        "tag": "759588",
        "stopId": "406"
      },
      "geometry": {
        "type": "Point",
        "coordinates": [
          -82.5416499,
          35.59914
        ]
      }
    },
    {
      "type": "Feature",
      "properties": {
        "title": "Greyhound Station",
        "tag": "759589",
        "stopId": "407"
      },
      "geometry": {
        "type": "Point",
        "coordinates": [
          -82.5346899,
          35.59674
        ]
      }
    },
    {
      "type": "Feature",
      "properties": {
        "title": "Tunnel Rd at Chunns Cove Rd",
        "tag": "759590",
        "stopId": "408"
      },
      "geometry": {
        "type": "Point",
        "coordinates": [
          -82.53208,
          35.5944199
        ]
      }
    },
    {
      "type": "Feature",
      "properties": {
        "title": "Entrance And Exit Ramp",
        "tag": "759591",
        "stopId": "409"
      },
      "geometry": {
        "type": "Point",
        "coordinates": [
          -82.5310599,
          35.5925499
        ]
      }
    },
    {
      "type": "Feature",
      "properties": {
        "title": "Tunnel Rd at Kenilworth Rd",
        "tag": "759592",
        "stopId": "410"
      },
      "geometry": {
        "type": "Point",
        "coordinates": [
          -82.5301399,
          35.5898199
        ]
      }
    },
    {
      "type": "Feature",
      "properties": {
        "title": "Tunnel Rd at White Pine Dr",
        "tag": "759593",
        "stopId": "411"
      },
      "geometry": {
        "type": "Point",
        "coordinates": [
          -82.5279899,
          35.5853099
        ]
      }
    },
    {
      "type": "Feature",
      "properties": {
        "title": "S Tunnel Rd at Asheville Mall",
        "tag": "759594",
        "stopId": "412"
      },
      "geometry": {
        "type": "Point",
        "coordinates": [
          -82.52519,
          35.5825699
        ]
      }
    },
    {
      "type": "Feature",
      "properties": {
        "title": "S Tunnel Rd at Best Buy",
        "tag": "759595",
        "stopId": "413"
      },
      "geometry": {
        "type": "Point",
        "coordinates": [
          -82.52309,
          35.5805
        ]
      }
    },
    {
      "type": "Feature",
      "properties": {
        "title": "S Tunnel Rd at Lowes",
        "tag": "759596",
        "stopId": "414"
      },
      "geometry": {
        "type": "Point",
        "coordinates": [
          -82.5217099,
          35.5791499
        ]
      }
    },
    {
      "type": "Feature",
      "properties": {
        "title": "Swannanoa River Rd at S Tunnel Rd",
        "tag": "759597",
        "stopId": "415"
      },
      "geometry": {
        "type": "Point",
        "coordinates": [
          -82.51978,
          35.5778399
        ]
      }
    },
    {
      "type": "Feature",
      "properties": {
        "title": "Swannanoa River Rd at U-Haul",
        "tag": "759598",
        "stopId": "416"
      },
      "geometry": {
        "type": "Point",
        "coordinates": [
          -82.51734,
          35.57893
        ]
      }
    },
    {
      "type": "Feature",
      "properties": {
        "title": "Bleachery Blvd at WalMart / Kohls",
        "tag": "759599",
        "stopId": "417"
      },
      "geometry": {
        "type": "Point",
        "coordinates": [
          -82.51454,
          35.5758199
        ]
      }
    },
    {
      "type": "Feature",
      "properties": {
        "title": "Swannanoa River Rd at Bleachery Blvd",
        "tag": "759600",
        "stopId": "418"
      },
      "geometry": {
        "type": "Point",
        "coordinates": [
          -82.51209,
          35.5773899
        ]
      }
    },
    {
      "type": "Feature",
      "properties": {
        "title": "Swannanoa River Rd at Fairway Dr",
        "tag": "759601",
        "stopId": "419"
      },
      "geometry": {
        "type": "Point",
        "coordinates": [
          -82.506609,
          35.5748596
        ]
      }
    },
    {
      "type": "Feature",
      "properties": {
        "title": "Swannanoa River Rd at Fairview Rd",
        "tag": "759602",
        "stopId": "420"
      },
      "geometry": {
        "type": "Point",
        "coordinates": [
          -82.50228,
          35.5747799
        ]
      }
    },
    {
      "type": "Feature",
      "properties": {
        "title": "Swannanoa River Rd at Manna Food Bank",
        "tag": "759603",
        "stopId": "421"
      },
      "geometry": {
        "type": "Point",
        "coordinates": [
          -82.49874,
          35.57693
        ]
      }
    },
    {
      "type": "Feature",
      "properties": {
        "title": "Swannanoa River Rd at Kensington Dr",
        "tag": "759604",
        "stopId": "422"
      },
      "geometry": {
        "type": "Point",
        "coordinates": [
          -82.4967099,
          35.57948
        ]
      }
    },
    {
      "type": "Feature",
      "properties": {
        "title": "Swannanoa River Rd at Azalea Rd E",
        "tag": "759605",
        "stopId": "423"
      },
      "geometry": {
        "type": "Point",
        "coordinates": [
          -82.49472,
          35.58182
        ]
      }
    },
    {
      "type": "Feature",
      "properties": {
        "title": "Swannanoa River Rd at E Hawthorne Dr",
        "tag": "759606",
        "stopId": "424"
      },
      "geometry": {
        "type": "Point",
        "coordinates": [
          -82.49497,
          35.58389
        ]
      }
    },
    {
      "type": "Feature",
      "properties": {
        "title": "Tunnel Rd at Swannanoa River Rd",
        "tag": "759607",
        "stopId": "425"
      },
      "geometry": {
        "type": "Point",
        "coordinates": [
          -82.49105,
          35.5872899
        ]
      }
    },
    {
      "type": "Feature",
      "properties": {
        "title": "Tunnel Rd at Riceville Rd",
        "tag": "759608",
        "stopId": "426"
      },
      "geometry": {
        "type": "Point",
        "coordinates": [
          -82.48837,
          35.58733
        ]
      }
    },
    {
      "type": "Feature",
      "properties": {
        "title": "Veterans Affairs Medical Center at Tunnel Rd",
        "tag": "759609",
        "stopId": "427"
      },
      "geometry": {
        "type": "Point",
        "coordinates": [
          -82.4847,
          35.5884699
        ]
      }
    },
    {
      "type": "Feature",
      "properties": {
        "title": "Tunnel Rd at Riceville Rd",
        "tag": "759610",
        "stopId": "428"
      },
      "geometry": {
        "type": "Point",
        "coordinates": [
          -82.4879,
          35.5875099
        ]
      }
    },
    {
      "type": "Feature",
      "properties": {
        "title": "Swannanoa River Rd at Tunnel Rd",
        "tag": "759611",
        "stopId": "429"
      },
      "geometry": {
        "type": "Point",
        "coordinates": [
          -82.4917,
          35.5871799
        ]
      }
    },
    {
      "type": "Feature",
      "properties": {
        "title": "Swannanoa River Rd at Governors View Rd",
        "tag": "759612",
        "stopId": "430"
      },
      "geometry": {
        "type": "Point",
        "coordinates": [
          -82.49435,
          35.5853899
        ]
      }
    },
    {
      "type": "Feature",
      "properties": {
        "title": "Swannanoa River Rd at Azalea Rd E",
        "tag": "759613",
        "stopId": "431"
      },
      "geometry": {
        "type": "Point",
        "coordinates": [
          -82.4947599,
          35.5821699
        ]
      }
    },
    {
      "type": "Feature",
      "properties": {
        "title": "Swannanoa River Rd at Kensington",
        "tag": "759614",
        "stopId": "432"
      },
      "geometry": {
        "type": "Point",
        "coordinates": [
          -82.4965899,
          35.57975
        ]
      }
    },
    {
      "type": "Feature",
      "properties": {
        "title": "Swannanoa River Rd at Fairview Rd",
        "tag": "759615",
        "stopId": "433"
      },
      "geometry": {
        "type": "Point",
        "coordinates": [
          -82.50293,
          35.5746299
        ]
      }
    },
    {
      "type": "Feature",
      "properties": {
        "title": "Swannanoa River Rd at Fairway Dr",
        "tag": "759616",
        "stopId": "434"
      },
      "geometry": {
        "type": "Point",
        "coordinates": [
          -82.50636,
          35.5748299
        ]
      }
    },
    {
      "type": "Feature",
      "properties": {
        "title": "Veterans Affairs Medical Center",
        "tag": "759617",
        "stopId": "435"
      },
      "geometry": {
        "type": "Point",
        "coordinates": [
          -82.4853599,
          35.58708
        ]
      }
    },
    {
      "type": "Feature",
      "properties": {
        "title": "Swannanoa River Rd at Bleachery Blvd",
        "tag": "759618",
        "stopId": "436"
      },
      "geometry": {
        "type": "Point",
        "coordinates": [
          -82.51244,
          35.5778299
        ]
      }
    },
    {
      "type": "Feature",
      "properties": {
        "title": "Swannanoa River Rd at Beechwood Rd",
        "tag": "759619",
        "stopId": "437"
      },
      "geometry": {
        "type": "Point",
        "coordinates": [
          -82.5156499,
          35.5800799
        ]
      }
    },
    {
      "type": "Feature",
      "properties": {
        "title": "Swannanoa River Rd at S Tunnel Rd",
        "tag": "759620",
        "stopId": "438"
      },
      "geometry": {
        "type": "Point",
        "coordinates": [
          -82.5181899,
          35.57886
        ]
      }
    },
    {
      "type": "Feature",
      "properties": {
        "title": "S Tunnel Rd at Swannanoa River Rd",
        "tag": "759621",
        "stopId": "439"
      },
      "geometry": {
        "type": "Point",
        "coordinates": [
          -82.52038,
          35.5781599
        ]
      }
    },
    {
      "type": "Feature",
      "properties": {
        "title": "S Tunnel Rd at Overlook Village",
        "tag": "759622",
        "stopId": "440"
      },
      "geometry": {
        "type": "Point",
        "coordinates": [
          -82.52259,
          35.58035
        ]
      }
    },
    {
      "type": "Feature",
      "properties": {
        "title": "S Tunnel Rd at Asheville Mall",
        "tag": "759623",
        "stopId": "441"
      },
      "geometry": {
        "type": "Point",
        "coordinates": [
          -82.52498,
          35.5826499
        ]
      }
    },
    {
      "type": "Feature",
      "properties": {
        "title": "Asheville Mall",
        "tag": "759624",
        "stopId": "442"
      },
      "geometry": {
        "type": "Point",
        "coordinates": [
          -82.52849,
          35.5862699
        ]
      }
    },
    {
      "type": "Feature",
      "properties": {
        "title": "Tunnel Rd at Kenilworth Rd",
        "tag": "759625",
        "stopId": "443"
      },
      "geometry": {
        "type": "Point",
        "coordinates": [
          -82.52986,
          35.5897499
        ]
      }
    },
    {
      "type": "Feature",
      "properties": {
        "title": "Entrance And Exit Ramp",
        "tag": "759626",
        "stopId": "444"
      },
      "geometry": {
        "type": "Point",
        "coordinates": [
          -82.53087,
          35.59264
        ]
      }
    },
    {
      "type": "Feature",
      "properties": {
        "title": "Tunnel Rd at Chunns Cove Rd",
        "tag": "759627",
        "stopId": "445"
      },
      "geometry": {
        "type": "Point",
        "coordinates": [
          -82.5319,
          35.5945999
        ]
      }
    },
    {
      "type": "Feature",
      "properties": {
        "title": "Greyhound Station",
        "tag": "759628",
        "stopId": "446"
      },
      "geometry": {
        "type": "Point",
        "coordinates": [
          -82.53431,
          35.5966999
        ]
      }
    },
    {
      "type": "Feature",
      "properties": {
        "title": "College St at Town Mountain Rd",
        "tag": "759629",
        "stopId": "447"
      },
      "geometry": {
        "type": "Point",
        "coordinates": [
          -82.54426,
          35.5981899
        ]
      }
    },
    {
      "type": "Feature",
      "properties": {
        "title": "College St at Oak St",
        "tag": "759630",
        "stopId": "448"
      },
      "geometry": {
        "type": "Point",
        "coordinates": [
          -82.5470399,
          35.5973599
        ]
      }
    },
    {
      "type": "Feature",
      "properties": {
        "title": "College St at Court Plaza",
        "tag": "759631",
        "stopId": "449"
      },
      "geometry": {
        "type": "Point",
        "coordinates": [
          -82.54909,
          35.5964599
        ]
      }
    },
    {
      "type": "Feature",
      "properties": {
        "title": "College St at Broadway St",
        "tag": "759632",
        "stopId": "450"
      },
      "geometry": {
        "type": "Point",
        "coordinates": [
          -82.5517899,
          35.5955999
        ]
      }
    },
    {
      "type": "Feature",
      "properties": {
        "title": "Tunnel Rd at Crockett Ave",
        "tag": "759633",
        "stopId": "513"
      },
      "geometry": {
        "type": "Point",
        "coordinates": [
          -82.51345,
          35.5866599
        ]
      }
    },
    {
      "type": "Feature",
      "properties": {
        "title": "Tunnel Rd at Overbrook Rd",
        "tag": "759634",
        "stopId": "514"
      },
      "geometry": {
        "type": "Point",
        "coordinates": [
          -82.5104499,
          35.5866599
        ]
      }
    },
    {
      "type": "Feature",
      "properties": {
        "title": "Tunnel Rd at Arco Rd",
        "tag": "759635",
        "stopId": "515"
      },
      "geometry": {
        "type": "Point",
        "coordinates": [
          -82.5065599,
          35.58648
        ]
      }
    },
    {
      "type": "Feature",
      "properties": {
        "title": "East Asheville Library",
        "tag": "759636",
        "stopId": "516"
      },
      "geometry": {
        "type": "Point",
        "coordinates": [
          -82.5030499,
          35.58711
        ]
      }
    },
    {
      "type": "Feature",
      "properties": {
        "title": "Beverly Rd at Tunnel Rd",
        "tag": "759637",
        "stopId": "517"
      },
      "geometry": {
        "type": "Point",
        "coordinates": [
          -82.50017,
          35.5891999
        ]
      }
    },
    {
      "type": "Feature",
      "properties": {
        "title": "Beverly Rd at Avon Rd",
        "tag": "759638",
        "stopId": "518"
      },
      "geometry": {
        "type": "Point",
        "coordinates": [
          -82.50411,
          35.5911299
        ]
      }
    },
    {
      "type": "Feature",
      "properties": {
        "title": "Beverly Rd at New Haw Creek Rd",
        "tag": "759639",
        "stopId": "519"
      },
      "geometry": {
        "type": "Point",
        "coordinates": [
          -82.50555,
          35.5919599
        ]
      }
    },
    {
      "type": "Feature",
      "properties": {
        "title": "New Haw Creek Rd at Bethesda Rd",
        "tag": "759640",
        "stopId": "520"
      },
      "geometry": {
        "type": "Point",
        "coordinates": [
          -82.50319,
          35.5955
        ]
      }
    },
    {
      "type": "Feature",
      "properties": {
        "title": "New Haw Creek Rd at Bell Rd",
        "tag": "759641",
        "stopId": "521"
      },
      "geometry": {
        "type": "Point",
        "coordinates": [
          -82.50211,
          35.6022499
        ]
      }
    },
    {
      "type": "Feature",
      "properties": {
        "title": "Old Haw Creek Rd at Willowbrook Rd",
        "tag": "759642",
        "stopId": "522"
      },
      "geometry": {
        "type": "Point",
        "coordinates": [
          -82.5040899,
          35.6003
        ]
      }
    },
    {
      "type": "Feature",
      "properties": {
        "title": "Old Haw Creek Rd at Pressley Rd",
        "tag": "759643",
        "stopId": "523"
      },
      "geometry": {
        "type": "Point",
        "coordinates": [
          -82.5078799,
          35.59728
        ]
      }
    },
    {
      "type": "Feature",
      "properties": {
        "title": "Old Haw Creek Rd at Greenbriar Rd",
        "tag": "759644",
        "stopId": "524"
      },
      "geometry": {
        "type": "Point",
        "coordinates": [
          -82.5100099,
          35.5955999
        ]
      }
    },
    {
      "type": "Feature",
      "properties": {
        "title": "Old Haw Creek Rd at Dillingham Rd",
        "tag": "759645",
        "stopId": "525"
      },
      "geometry": {
        "type": "Point",
        "coordinates": [
          -82.51353,
          35.5919499
        ]
      }
    },
    {
      "type": "Feature",
      "properties": {
        "title": "Old Haw Creek Rd at Spruce Hill Ln",
        "tag": "759646",
        "stopId": "526"
      },
      "geometry": {
        "type": "Point",
        "coordinates": [
          -82.5159099,
          35.5906199
        ]
      }
    },
    {
      "type": "Feature",
      "properties": {
        "title": "Waters Rd at Old Haw Creek Rd",
        "tag": "759647",
        "stopId": "527"
      },
      "geometry": {
        "type": "Point",
        "coordinates": [
          -82.51735,
          35.5907099
        ]
      }
    },
    {
      "type": "Feature",
      "properties": {
        "title": "Middlebrook Rd at New Haw Creek Rd",
        "tag": "759648",
        "stopId": "528"
      },
      "geometry": {
        "type": "Point",
        "coordinates": [
          -82.5175399,
          35.5874899
        ]
      }
    },
    {
      "type": "Feature",
      "properties": {
        "title": "New Haw Creek Rd at Crockett Ave",
        "tag": "759649",
        "stopId": "529"
      },
      "geometry": {
        "type": "Point",
        "coordinates": [
          -82.51402,
          35.5870699
        ]
      }
    },
    {
      "type": "Feature",
      "properties": {
        "title": "New Haw Creek Rd at Arco Rd",
        "tag": "759650",
        "stopId": "530"
      },
      "geometry": {
        "type": "Point",
        "coordinates": [
          -82.51011,
          35.5898299
        ]
      }
    },
    {
      "type": "Feature",
      "properties": {
        "title": "New Haw Creek Rd at Beverly Rd",
        "tag": "759651",
        "stopId": "531"
      },
      "geometry": {
        "type": "Point",
        "coordinates": [
          -82.5058389,
          35.5919044
        ]
      }
    },
    {
      "type": "Feature",
      "properties": {
        "title": "Beverly Rd at Tunnel Rd",
        "tag": "759652",
        "stopId": "532"
      },
      "geometry": {
        "type": "Point",
        "coordinates": [
          -82.50053,
          35.5891599
        ]
      }
    },
    {
      "type": "Feature",
      "properties": {
        "title": "Tunnel Rd at Maple Springs Rd",
        "tag": "759653",
        "stopId": "533"
      },
      "geometry": {
        "type": "Point",
        "coordinates": [
          -82.4952299,
          35.5884499
        ]
      }
    },
    {
      "type": "Feature",
      "properties": {
        "title": "Tunnel Rd at Pleasant Ridge Rd",
        "tag": "759654",
        "stopId": "536"
      },
      "geometry": {
        "type": "Point",
        "coordinates": [
          -82.4821299,
          35.58654
        ]
      }
    },
    {
      "type": "Feature",
      "properties": {
        "title": "Tunnel Rd at Reddick Rd",
        "tag": "759655",
        "stopId": "537"
      },
      "geometry": {
        "type": "Point",
        "coordinates": [
          -82.4757999,
          35.5862199
        ]
      }
    },
    {
      "type": "Feature",
      "properties": {
        "title": "Tunnel Rd at E  Azalea Rd",
        "tag": "759656",
        "stopId": "538"
      },
      "geometry": {
        "type": "Point",
        "coordinates": [
          -82.4725699,
          35.58481
        ]
      }
    },
    {
      "type": "Feature",
      "properties": {
        "title": "US 70 East at ABCCM",
        "tag": "759657",
        "stopId": "539"
      },
      "geometry": {
        "type": "Point",
        "coordinates": [
          -82.46734,
          35.5835499
        ]
      }
    },
    {
      "type": "Feature",
      "properties": {
        "title": "US 70 East at Porters Cove Rd",
        "tag": "759658",
        "stopId": "540"
      },
      "geometry": {
        "type": "Point",
        "coordinates": [
          -82.46409,
          35.58376
        ]
      }
    },
    {
      "type": "Feature",
      "properties": {
        "title": "US 70 West at Moffitt Branch Rd",
        "tag": "759659",
        "stopId": "541"
      },
      "geometry": {
        "type": "Point",
        "coordinates": [
          -82.4643999,
          35.58392
        ]
      }
    },
    {
      "type": "Feature",
      "properties": {
        "title": "US 70 West at ABCCM",
        "tag": "759660",
        "stopId": "542"
      },
      "geometry": {
        "type": "Point",
        "coordinates": [
          -82.46732,
          35.5838099
        ]
      }
    },
    {
      "type": "Feature",
      "properties": {
        "title": "Tunnel Rd at Lower Grassy Branch Rd",
        "tag": "759661",
        "stopId": "543"
      },
      "geometry": {
        "type": "Point",
        "coordinates": [
          -82.4729499,
          35.5852399
        ]
      }
    },
    {
      "type": "Feature",
      "properties": {
        "title": "Tunnel Rd at Arnold Rd",
        "tag": "759662",
        "stopId": "544"
      },
      "geometry": {
        "type": "Point",
        "coordinates": [
          -82.48266,
          35.5868399
        ]
      }
    },
    {
      "type": "Feature",
      "properties": {
        "title": "Veterans Affairs Medical Center",
        "tag": "759663",
        "stopId": "545"
      },
      "geometry": {
        "type": "Point",
        "coordinates": [
          -82.48521,
          35.5872599
        ]
      }
    },
    {
      "type": "Feature",
      "properties": {
        "title": "Tunnel Rd at Swannanoa River Rd",
        "tag": "759664",
        "stopId": "546"
      },
      "geometry": {
        "type": "Point",
        "coordinates": [
          -82.49165,
          35.5874699
        ]
      }
    },
    {
      "type": "Feature",
      "properties": {
        "title": "Tunnel Rd at Maple Springs Rd",
        "tag": "759665",
        "stopId": "547"
      },
      "geometry": {
        "type": "Point",
        "coordinates": [
          -82.49515,
          35.5886799
        ]
      }
    },
    {
      "type": "Feature",
      "properties": {
        "title": "Tunnel Rd at Avon Rd",
        "tag": "759666",
        "stopId": "548"
      },
      "geometry": {
        "type": "Point",
        "coordinates": [
          -82.50307,
          35.5873399
        ]
      }
    },
    {
      "type": "Feature",
      "properties": {
        "title": "Tunnel Rd at Arco Rd",
        "tag": "759667",
        "stopId": "549"
      },
      "geometry": {
        "type": "Point",
        "coordinates": [
          -82.50716,
          35.5866899
        ]
      }
    },
    {
      "type": "Feature",
      "properties": {
        "title": "Tunnel Rd at Whitson Rd",
        "tag": "759668",
        "stopId": "550"
      },
      "geometry": {
        "type": "Point",
        "coordinates": [
          -82.51034,
          35.5868399
        ]
      }
    },
    {
      "type": "Feature",
      "properties": {
        "title": "Tunnel Rd at New Haw Creek Rd",
        "tag": "759669",
        "stopId": "551"
      },
      "geometry": {
        "type": "Point",
        "coordinates": [
          -82.51354,
          35.5868999
        ]
      }
    },
    {
      "type": "Feature",
      "properties": {
        "title": "US 70 East at Warren Wilson Rd",
        "tag": "759670",
        "stopId": "552"
      },
      "geometry": {
        "type": "Point",
        "coordinates": [
          -82.43585,
          35.5929199
        ]
      }
    },
    {
      "type": "Feature",
      "properties": {
        "title": "US 70 East at Jims Branch Rd",
        "tag": "759671",
        "stopId": "560"
      },
      "geometry": {
        "type": "Point",
        "coordinates": [
          -82.4518099,
          35.59043
        ]
      }
    },
    {
      "type": "Feature",
      "properties": {
        "title": "US 70 West at Warren Wilson Rd",
        "tag": "759674",
        "stopId": "563"
      },
      "geometry": {
        "type": "Point",
        "coordinates": [
          -82.43665,
          35.5929499
        ]
      }
    },
    {
      "type": "Feature",
      "properties": {
        "title": "US 70 East at Buckeye Cove Rd",
        "tag": "759675",
        "stopId": "564"
      },
      "geometry": {
        "type": "Point",
        "coordinates": [
          -82.4299699,
          35.59361
        ]
      }
    },
    {
      "type": "Feature",
      "properties": {
        "title": "US 70 East at New Salem Rd",
        "tag": "759676",
        "stopId": "565"
      },
      "geometry": {
        "type": "Point",
        "coordinates": [
          -82.4251499,
          35.5949
        ]
      }
    },
    {
      "type": "Feature",
      "properties": {
        "title": "US 70 East at Riverwood Rd",
        "tag": "759677",
        "stopId": "566"
      },
      "geometry": {
        "type": "Point",
        "coordinates": [
          -82.40986,
          35.5988
        ]
      }
    },
    {
      "type": "Feature",
      "properties": {
        "title": "US 70 East at Patton Cove Rd",
        "tag": "759678",
        "stopId": "567"
      },
      "geometry": {
        "type": "Point",
        "coordinates": [
          -82.4029099,
          35.60003
        ]
      }
    },
    {
      "type": "Feature",
      "properties": {
        "title": "US 70 East at Whitson Ave",
        "tag": "759679",
        "stopId": "568"
      },
      "geometry": {
        "type": "Point",
        "coordinates": [
          -82.39792,
          35.6017699
        ]
      }
    },
    {
      "type": "Feature",
      "properties": {
        "title": "US 70 East at Lytle Cove Rd",
        "tag": "759680",
        "stopId": "569"
      },
      "geometry": {
        "type": "Point",
        "coordinates": [
          -82.36725,
          35.6021099
        ]
      }
    },
    {
      "type": "Feature",
      "properties": {
        "title": "US 70 East at Grovestone Rd",
        "tag": "759681",
        "stopId": "570"
      },
      "geometry": {
        "type": "Point",
        "coordinates": [
          -82.3624,
          35.6042199
        ]
      }
    },
    {
      "type": "Feature",
      "properties": {
        "title": "US 70 East at Ingles Warehouse",
        "tag": "759682",
        "stopId": "571"
      },
      "geometry": {
        "type": "Point",
        "coordinates": [
          -82.3590199,
          35.60558
        ]
      }
    },
    {
      "type": "Feature",
      "properties": {
        "title": "US 70 East at Amazing Savings",
        "tag": "759683",
        "stopId": "572"
      },
      "geometry": {
        "type": "Point",
        "coordinates": [
          -82.3503299,
          35.60754
        ]
      }
    },
    {
      "type": "Feature",
      "properties": {
        "title": "US 70 East at Blue Ridge Rd",
        "tag": "759684",
        "stopId": "573"
      },
      "geometry": {
        "type": "Point",
        "coordinates": [
          -82.34104,
          35.6094899
        ]
      }
    },
    {
      "type": "Feature",
      "properties": {
        "title": "W State St at Old US 70 Hwy",
        "tag": "759685",
        "stopId": "574"
      },
      "geometry": {
        "type": "Point",
        "coordinates": [
          -82.3338499,
          35.61099
        ]
      }
    },
    {
      "type": "Feature",
      "properties": {
        "title": "W State St at Cragmont Rd",
        "tag": "759686",
        "stopId": "575"
      },
      "geometry": {
        "type": "Point",
        "coordinates": [
          -82.32678,
          35.6137899
        ]
      }
    },
    {
      "type": "Feature",
      "properties": {
        "title": "W State St at S Dougherty St",
        "tag": "759687",
        "stopId": "576"
      },
      "geometry": {
        "type": "Point",
        "coordinates": [
          -82.3219,
          35.61573
        ]
      }
    },
    {
      "type": "Feature",
      "properties": {
        "title": "Park-N-Ride",
        "tag": "759688",
        "stopId": "577"
      },
      "geometry": {
        "type": "Point",
        "coordinates": [
          -82.31917,
          35.6156599
        ]
      }
    },
    {
      "type": "Feature",
      "properties": {
        "title": "W State St at N Dougherty St",
        "tag": "759689",
        "stopId": "578"
      },
      "geometry": {
        "type": "Point",
        "coordinates": [
          -82.3221199,
          35.61571
        ]
      }
    },
    {
      "type": "Feature",
      "properties": {
        "title": "W State St at Cragmont Rd",
        "tag": "759690",
        "stopId": "579"
      },
      "geometry": {
        "type": "Point",
        "coordinates": [
          -82.32734,
          35.6137499
        ]
      }
    },
    {
      "type": "Feature",
      "properties": {
        "title": "W State St at Old US 70 Hwy",
        "tag": "759691",
        "stopId": "580"
      },
      "geometry": {
        "type": "Point",
        "coordinates": [
          -82.3337099,
          35.6112299
        ]
      }
    },
    {
      "type": "Feature",
      "properties": {
        "title": "US 70 West at Blue Ridge Rd",
        "tag": "759692",
        "stopId": "581"
      },
      "geometry": {
        "type": "Point",
        "coordinates": [
          -82.34125,
          35.6096299
        ]
      }
    },
    {
      "type": "Feature",
      "properties": {
        "title": "US 70 West at Amazing Savings",
        "tag": "759693",
        "stopId": "582"
      },
      "geometry": {
        "type": "Point",
        "coordinates": [
          -82.3504599,
          35.60769
        ]
      }
    },
    {
      "type": "Feature",
      "properties": {
        "title": "US 70 West at Grovestone Rd",
        "tag": "759694",
        "stopId": "583"
      },
      "geometry": {
        "type": "Point",
        "coordinates": [
          -82.3621999,
          35.6045099
        ]
      }
    },
    {
      "type": "Feature",
      "properties": {
        "title": "US 70 West at Lytle Cove Rd",
        "tag": "759695",
        "stopId": "584"
      },
      "geometry": {
        "type": "Point",
        "coordinates": [
          -82.3678799,
          35.60205
        ]
      }
    },
    {
      "type": "Feature",
      "properties": {
        "title": "US 70 West at Whitson Ave",
        "tag": "759696",
        "stopId": "585"
      },
      "geometry": {
        "type": "Point",
        "coordinates": [
          -82.39764,
          35.6020699
        ]
      }
    },
    {
      "type": "Feature",
      "properties": {
        "title": "US 70 West at Patton Cove Rd",
        "tag": "759697",
        "stopId": "586"
      },
      "geometry": {
        "type": "Point",
        "coordinates": [
          -82.4036099,
          35.6000699
        ]
      }
    },
    {
      "type": "Feature",
      "properties": {
        "title": "US 70 West at Riverwood Rd",
        "tag": "759698",
        "stopId": "587"
      },
      "geometry": {
        "type": "Point",
        "coordinates": [
          -82.4093399,
          35.5991299
        ]
      }
    },
    {
      "type": "Feature",
      "properties": {
        "title": "US 70 West at New Salem Rd",
        "tag": "759699",
        "stopId": "588"
      },
      "geometry": {
        "type": "Point",
        "coordinates": [
          -82.42511,
          35.5950999
        ]
      }
    },
    {
      "type": "Feature",
      "properties": {
        "title": "US 70 West at Refer Ave",
        "tag": "759700",
        "stopId": "589"
      },
      "geometry": {
        "type": "Point",
        "coordinates": [
          -82.4294299,
          35.5938899
        ]
      }
    },
    {
      "type": "Feature",
      "properties": {
        "title": "US 70 West at Jims Branch Rd",
        "tag": "759701",
        "stopId": "590"
      },
      "geometry": {
        "type": "Point",
        "coordinates": [
          -82.4519699,
          35.5905699
        ]
      }
    },
    {
      "type": "Feature",
      "properties": {
        "title": "Biltmore Ave at Roebling Cir",
        "tag": "759702",
        "stopId": "591"
      },
      "geometry": {
        "type": "Point",
        "coordinates": [
          -82.5452599,
          35.57221
        ]
      }
    },
    {
      "type": "Feature",
      "properties": {
        "title": "Biltmore Ave at Caledonia Rd",
        "tag": "759703",
        "stopId": "592"
      },
      "geometry": {
        "type": "Point",
        "coordinates": [
          -82.54514,
          35.5723399
        ]
      }
    },
    {
      "type": "Feature",
      "properties": {
        "title": "US 70 East at Avery Wood Dr",
        "tag": "759704",
        "stopId": "593"
      },
      "geometry": {
        "type": "Point",
        "coordinates": [
          -82.39131,
          35.60255
        ]
      }
    },
    {
      "type": "Feature",
      "properties": {
        "title": "US 70 West at Avery Wood Dr",
        "tag": "759705",
        "stopId": "594"
      },
      "geometry": {
        "type": "Point",
        "coordinates": [
          -82.3900499,
          35.6024599
        ]
      }
    },
    {
      "type": "Feature",
      "properties": {
        "title": "Hilliard Ave at Coxe Ave",
        "tag": "759706",
        "stopId": "600"
      },
      "geometry": {
        "type": "Point",
        "coordinates": [
          -82.5544599,
          35.59097
        ]
      }
    },
    {
      "type": "Feature",
      "properties": {
        "title": "Hilliard Ave at Lexington Ave",
        "tag": "759707",
        "stopId": "601"
      },
      "geometry": {
        "type": "Point",
        "coordinates": [
          -82.55199,
          35.5911899
        ]
      }
    },
    {
      "type": "Feature",
      "properties": {
        "title": "Biltmore Ave at Hilliard Ave",
        "tag": "759708",
        "stopId": "602"
      },
      "geometry": {
        "type": "Point",
        "coordinates": [
          -82.5510599,
          35.5909899
        ]
      }
    },
    {
      "type": "Feature",
      "properties": {
        "title": "Biltmore Ave at Southside Ave",
        "tag": "759709",
        "stopId": "603"
      },
      "geometry": {
        "type": "Point",
        "coordinates": [
          -82.5517999,
          35.5885599
        ]
      }
    },
    {
      "type": "Feature",
      "properties": {
        "title": "Biltmore Ave at Short Coxe Ave",
        "tag": "759710",
        "stopId": "604"
      },
      "geometry": {
        "type": "Point",
        "coordinates": [
          -82.5518799,
          35.5865899
        ]
      }
    },
    {
      "type": "Feature",
      "properties": {
        "title": "Biltmore Ave at Choctaw St",
        "tag": "759711",
        "stopId": "605"
      },
      "geometry": {
        "type": "Point",
        "coordinates": [
          -82.5513599,
          35.58236
        ]
      }
    },
    {
      "type": "Feature",
      "properties": {
        "title": "Biltmore Ave at Hospital Dr",
        "tag": "759712",
        "stopId": "606"
      },
      "geometry": {
        "type": "Point",
        "coordinates": [
          -82.55031,
          35.5795599
        ]
      }
    },
    {
      "type": "Feature",
      "properties": {
        "title": "Biltmore Ave at Granby St",
        "tag": "759713",
        "stopId": "607"
      },
      "geometry": {
        "type": "Point",
        "coordinates": [
          -82.54911,
          35.57866
        ]
      }
    },
    {
      "type": "Feature",
      "properties": {
        "title": "Biltmore Ave at Doctors Dr",
        "tag": "759714",
        "stopId": "608"
      },
      "geometry": {
        "type": "Point",
        "coordinates": [
          -82.5473399,
          35.57608
        ]
      }
    },
    {
      "type": "Feature",
      "properties": {
        "title": "Biltmore Ave at Meadow Rd",
        "tag": "759715",
        "stopId": "609"
      },
      "geometry": {
        "type": "Point",
        "coordinates": [
          -82.54488,
          35.5699499
        ]
      }
    },
    {
      "type": "Feature",
      "properties": {
        "title": "Lodge St at Biltmore Ave",
        "tag": "759716",
        "stopId": "610"
      },
      "geometry": {
        "type": "Point",
        "coordinates": [
          -82.54308,
          35.5673299
        ]
      }
    },
    {
      "type": "Feature",
      "properties": {
        "title": "Brook St at Reed St",
        "tag": "759717",
        "stopId": "611"
      },
      "geometry": {
        "type": "Point",
        "coordinates": [
          -82.5404799,
          35.5663799
        ]
      }
    },
    {
      "type": "Feature",
      "properties": {
        "title": "Sweeten Creek Rd at London Rd",
        "tag": "759718",
        "stopId": "612"
      },
      "geometry": {
        "type": "Point",
        "coordinates": [
          -82.5387,
          35.5657899
        ]
      }
    },
    {
      "type": "Feature",
      "properties": {
        "title": "London Rd at Shady Oak Dr",
        "tag": "759719",
        "stopId": "613"
      },
      "geometry": {
        "type": "Point",
        "coordinates": [
          -82.5373099,
          35.5634899
        ]
      }
    },
    {
      "type": "Feature",
      "properties": {
        "title": "London Rd at Belvedere Rd",
        "tag": "759720",
        "stopId": "614"
      },
      "geometry": {
        "type": "Point",
        "coordinates": [
          -82.5346099,
          35.56116
        ]
      }
    },
    {
      "type": "Feature",
      "properties": {
        "title": "London Rd at Iris Dr",
        "tag": "759721",
        "stopId": "615"
      },
      "geometry": {
        "type": "Point",
        "coordinates": [
          -82.5334292,
          35.558338
        ]
      }
    },
    {
      "type": "Feature",
      "properties": {
        "title": "London Rd at Raleigh Ave",
        "tag": "759722",
        "stopId": "616"
      },
      "geometry": {
        "type": "Point",
        "coordinates": [
          -82.5324599,
          35.5547995
        ]
      }
    },
    {
      "type": "Feature",
      "properties": {
        "title": "London Rd at W Chapel Rd",
        "tag": "759723",
        "stopId": "617"
      },
      "geometry": {
        "type": "Point",
        "coordinates": [
          -82.53246,
          35.5512999
        ]
      }
    },
    {
      "type": "Feature",
      "properties": {
        "title": "W Chapel Rd at White Ave",
        "tag": "759724",
        "stopId": "618"
      },
      "geometry": {
        "type": "Point",
        "coordinates": [
          -82.53044,
          35.5510599
        ]
      }
    },
    {
      "type": "Feature",
      "properties": {
        "title": "Shiloh Rd at Brooklyn Rd",
        "tag": "759725",
        "stopId": "619"
      },
      "geometry": {
        "type": "Point",
        "coordinates": [
          -82.52941,
          35.5485899
        ]
      }
    },
    {
      "type": "Feature",
      "properties": {
        "title": "Shiloh Rd at Kent St",
        "tag": "759726",
        "stopId": "620"
      },
      "geometry": {
        "type": "Point",
        "coordinates": [
          -82.5274499,
          35.5487899
        ]
      }
    },
    {
      "type": "Feature",
      "properties": {
        "title": "Shiloh Rd at Caribou Rd",
        "tag": "759727",
        "stopId": "621"
      },
      "geometry": {
        "type": "Point",
        "coordinates": [
          -82.52557,
          35.54838
        ]
      }
    },
    {
      "type": "Feature",
      "properties": {
        "title": "Caribou Rd at Taft Ave",
        "tag": "759728",
        "stopId": "622"
      },
      "geometry": {
        "type": "Point",
        "coordinates": [
          -82.5255299,
          35.5459199
        ]
      }
    },
    {
      "type": "Feature",
      "properties": {
        "title": "Caribou Rd at Forest St",
        "tag": "759729",
        "stopId": "623"
      },
      "geometry": {
        "type": "Point",
        "coordinates": [
          -82.5277799,
          35.54339
        ]
      }
    },
    {
      "type": "Feature",
      "properties": {
        "title": "Caribou Rd at Dawnwood Cir",
        "tag": "759730",
        "stopId": "624"
      },
      "geometry": {
        "type": "Point",
        "coordinates": [
          -82.5274799,
          35.54148
        ]
      }
    },
    {
      "type": "Feature",
      "properties": {
        "title": "Caribou Rd at Forestdale Rd",
        "tag": "759731",
        "stopId": "625"
      },
      "geometry": {
        "type": "Point",
        "coordinates": [
          -82.5267899,
          35.5385699
        ]
      }
    },
    {
      "type": "Feature",
      "properties": {
        "title": "Caribou Rd at Hendersonville Rd",
        "tag": "759732",
        "stopId": "626"
      },
      "geometry": {
        "type": "Point",
        "coordinates": [
          -82.5289,
          35.5365199
        ]
      }
    },
    {
      "type": "Feature",
      "properties": {
        "title": "Hendersonville Rd at Caribou Rd",
        "tag": "759733",
        "stopId": "627"
      },
      "geometry": {
        "type": "Point",
        "coordinates": [
          -82.5290299,
          35.5362199
        ]
      }
    },
    {
      "type": "Feature",
      "properties": {
        "title": "Rock Hill Rd at Hendersonville Rd",
        "tag": "759734",
        "stopId": "628"
      },
      "geometry": {
        "type": "Point",
        "coordinates": [
          -82.5276,
          35.5337699
        ]
      }
    },
    {
      "type": "Feature",
      "properties": {
        "title": "Rock Hill Rd at Rock Hill Pl",
        "tag": "759735",
        "stopId": "629"
      },
      "geometry": {
        "type": "Point",
        "coordinates": [
          -82.5241799,
          35.53448
        ]
      }
    },
    {
      "type": "Feature",
      "properties": {
        "title": "Rock Hill Rd at Edgewood Rd S",
        "tag": "759736",
        "stopId": "630"
      },
      "geometry": {
        "type": "Point",
        "coordinates": [
          -82.52042,
          35.5352199
        ]
      }
    },
    {
      "type": "Feature",
      "properties": {
        "title": "Sweeten Creek Rd at Rock Hill Rd",
        "tag": "759737",
        "stopId": "631"
      },
      "geometry": {
        "type": "Point",
        "coordinates": [
          -82.51934,
          35.5356899
        ]
      }
    },
    {
      "type": "Feature",
      "properties": {
        "title": "Sweeten Creek Rd at Busbee View Rd",
        "tag": "759738",
        "stopId": "632"
      },
      "geometry": {
        "type": "Point",
        "coordinates": [
          -82.5206899,
          35.5410299
        ]
      }
    },
    {
      "type": "Feature",
      "properties": {
        "title": "Sweeten Creek Rd at W Chapel Rd",
        "tag": "759739",
        "stopId": "633"
      },
      "geometry": {
        "type": "Point",
        "coordinates": [
          -82.52139,
          35.5438499
        ]
      }
    },
    {
      "type": "Feature",
      "properties": {
        "title": "Sweeten Creek Rd at Sweeten Creek Industrial Park",
        "tag": "759740",
        "stopId": "634"
      },
      "geometry": {
        "type": "Point",
        "coordinates": [
          -82.52125,
          35.54779
        ]
      }
    },
    {
      "type": "Feature",
      "properties": {
        "title": "Medical Park Dr at Medical Park",
        "tag": "759741",
        "stopId": "635"
      },
      "geometry": {
        "type": "Point",
        "coordinates": [
          -82.52207,
          35.5530899
        ]
      }
    },
    {
      "type": "Feature",
      "properties": {
        "title": "Medical Park Dr at Sweeten Creek Rd",
        "tag": "759742",
        "stopId": "636"
      },
      "geometry": {
        "type": "Point",
        "coordinates": [
          -82.5202,
          35.5519499
        ]
      }
    },
    {
      "type": "Feature",
      "properties": {
        "title": "W Chapel Rd at Robinson Ave",
        "tag": "759743",
        "stopId": "637"
      },
      "geometry": {
        "type": "Point",
        "coordinates": [
          -82.52261,
          35.5486499
        ]
      }
    },
    {
      "type": "Feature",
      "properties": {
        "title": "Shiloh Rd at Caribou Rd",
        "tag": "759744",
        "stopId": "638"
      },
      "geometry": {
        "type": "Point",
        "coordinates": [
          -82.5257,
          35.5484699
        ]
      }
    },
    {
      "type": "Feature",
      "properties": {
        "title": "Shiloh Rd at Kent St",
        "tag": "759745",
        "stopId": "639"
      },
      "geometry": {
        "type": "Point",
        "coordinates": [
          -82.52749,
          35.5488999
        ]
      }
    },
    {
      "type": "Feature",
      "properties": {
        "title": "Shiloh Rd at Brooklyn Rd",
        "tag": "759746",
        "stopId": "640"
      },
      "geometry": {
        "type": "Point",
        "coordinates": [
          -82.52944,
          35.5486799
        ]
      }
    },
    {
      "type": "Feature",
      "properties": {
        "title": "White Ave at W Chapel Rd",
        "tag": "759747",
        "stopId": "641"
      },
      "geometry": {
        "type": "Point",
        "coordinates": [
          -82.53033,
          35.55101
        ]
      }
    },
    {
      "type": "Feature",
      "properties": {
        "title": "London Rd at W Chapel Rd",
        "tag": "759748",
        "stopId": "642"
      },
      "geometry": {
        "type": "Point",
        "coordinates": [
          -82.53236,
          35.5513799
        ]
      }
    },
    {
      "type": "Feature",
      "properties": {
        "title": "London Rd at Bostic Pl",
        "tag": "759749",
        "stopId": "643"
      },
      "geometry": {
        "type": "Point",
        "coordinates": [
          -82.5322899,
          35.5536699
        ]
      }
    },
    {
      "type": "Feature",
      "properties": {
        "title": "London Rd at Wyatt St",
        "tag": "759750",
        "stopId": "644"
      },
      "geometry": {
        "type": "Point",
        "coordinates": [
          -82.53249,
          35.55611
        ]
      }
    },
    {
      "type": "Feature",
      "properties": {
        "title": "London Rd at Brooklyn Rd",
        "tag": "759751",
        "stopId": "645"
      },
      "geometry": {
        "type": "Point",
        "coordinates": [
          -82.53356,
          35.55885
        ]
      }
    },
    {
      "type": "Feature",
      "properties": {
        "title": "London Rd at Belvedere Rd",
        "tag": "759752",
        "stopId": "646"
      },
      "geometry": {
        "type": "Point",
        "coordinates": [
          -82.5344199,
          35.5610199
        ]
      }
    },
    {
      "type": "Feature",
      "properties": {
        "title": "London Rd at Shady Oak Dr",
        "tag": "759753",
        "stopId": "647"
      },
      "geometry": {
        "type": "Point",
        "coordinates": [
          -82.53712,
          35.5634599
        ]
      }
    },
    {
      "type": "Feature",
      "properties": {
        "title": "London Rd at Sweeten Creek Rd",
        "tag": "759754",
        "stopId": "648"
      },
      "geometry": {
        "type": "Point",
        "coordinates": [
          -82.53835,
          35.5655799
        ]
      }
    },
    {
      "type": "Feature",
      "properties": {
        "title": "Brook St at Reed St",
        "tag": "759755",
        "stopId": "649"
      },
      "geometry": {
        "type": "Point",
        "coordinates": [
          -82.5405,
          35.56656
        ]
      }
    },
    {
      "type": "Feature",
      "properties": {
        "title": "Lodge St at Biltmore Ave",
        "tag": "759756",
        "stopId": "650"
      },
      "geometry": {
        "type": "Point",
        "coordinates": [
          -82.543,
          35.5674999
        ]
      }
    },
    {
      "type": "Feature",
      "properties": {
        "title": "Biltmore Ave at Bryson St",
        "tag": "759757",
        "stopId": "651"
      },
      "geometry": {
        "type": "Point",
        "coordinates": [
          -82.54462,
          35.5698699
        ]
      }
    },
    {
      "type": "Feature",
      "properties": {
        "title": "Biltmore Ave at Unadilla Rd",
        "tag": "759758",
        "stopId": "652"
      },
      "geometry": {
        "type": "Point",
        "coordinates": [
          -82.5471999,
          35.5762899
        ]
      }
    },
    {
      "type": "Feature",
      "properties": {
        "title": "Biltmore Ave at Hospital Dr",
        "tag": "759759",
        "stopId": "653"
      },
      "geometry": {
        "type": "Point",
        "coordinates": [
          -82.55014,
          35.5797099
        ]
      }
    },
    {
      "type": "Feature",
      "properties": {
        "title": "Biltmore Ave at Choctaw St",
        "tag": "759760",
        "stopId": "654"
      },
      "geometry": {
        "type": "Point",
        "coordinates": [
          -82.5511499,
          35.5824499
        ]
      }
    },
    {
      "type": "Feature",
      "properties": {
        "title": "Biltmore Ave at McCormick Pl",
        "tag": "759761",
        "stopId": "655"
      },
      "geometry": {
        "type": "Point",
        "coordinates": [
          -82.55163,
          35.5869999
        ]
      }
    },
    {
      "type": "Feature",
      "properties": {
        "title": "Biltmore Ave at S Charlotte St",
        "tag": "759762",
        "stopId": "656"
      },
      "geometry": {
        "type": "Point",
        "coordinates": [
          -82.55159,
          35.5888
        ]
      }
    },
    {
      "type": "Feature",
      "properties": {
        "title": "Hilliard Ave at Lexington Ave",
        "tag": "759763",
        "stopId": "657"
      },
      "geometry": {
        "type": "Point",
        "coordinates": [
          -82.55202,
          35.5912899
        ]
      }
    },
    {
      "type": "Feature",
      "properties": {
        "title": "Coxe Ave at Hilliard Ave",
        "tag": "759764",
        "stopId": "658"
      },
      "geometry": {
        "type": "Point",
        "coordinates": [
          -82.5551499,
          35.5911699
        ]
      }
    },
    {
      "type": "Feature",
      "properties": {
        "title": "Forest Hill Dr at Sherwood Rd",
        "tag": "759765",
        "stopId": "659"
      },
      "geometry": {
        "type": "Point",
        "coordinates": [
          -82.54753,
          35.5780599
        ]
      }
    },
    {
      "type": "Feature",
      "properties": {
        "title": "Forest Hill Dr at Thurland Ave",
        "tag": "759766",
        "stopId": "660"
      },
      "geometry": {
        "type": "Point",
        "coordinates": [
          -82.54542,
          35.5775299
        ]
      }
    },
    {
      "type": "Feature",
      "properties": {
        "title": "Warwick Dr at Forest Hill Dr",
        "tag": "759767",
        "stopId": "661"
      },
      "geometry": {
        "type": "Point",
        "coordinates": [
          -82.54288,
          35.5765599
        ]
      }
    },
    {
      "type": "Feature",
      "properties": {
        "title": "Kenilworth Rd at Warwick Dr",
        "tag": "759768",
        "stopId": "662"
      },
      "geometry": {
        "type": "Point",
        "coordinates": [
          -82.53846,
          35.57698
        ]
      }
    },
    {
      "type": "Feature",
      "properties": {
        "title": "Kenilworth Rd at Harvest House Recreation Center",
        "tag": "759769",
        "stopId": "663"
      },
      "geometry": {
        "type": "Point",
        "coordinates": [
          -82.53782,
          35.57923
        ]
      }
    },
    {
      "type": "Feature",
      "properties": {
        "title": "Kenilworth Rd at Normandy Rd",
        "tag": "759770",
        "stopId": "664"
      },
      "geometry": {
        "type": "Point",
        "coordinates": [
          -82.53555,
          35.5816699
        ]
      }
    },
    {
      "type": "Feature",
      "properties": {
        "title": "Kenilworth Rd at Chateau Pl",
        "tag": "759771",
        "stopId": "665"
      },
      "geometry": {
        "type": "Point",
        "coordinates": [
          -82.53549,
          35.58426
        ]
      }
    },
    {
      "type": "Feature",
      "properties": {
        "title": "Kenilworth Rd at Kirkman Rd",
        "tag": "759772",
        "stopId": "666"
      },
      "geometry": {
        "type": "Point",
        "coordinates": [
          -82.53618,
          35.5866099
        ]
      }
    },
    {
      "type": "Feature",
      "properties": {
        "title": "Kenilworth Rd at Springdale Rd",
        "tag": "759773",
        "stopId": "667"
      },
      "geometry": {
        "type": "Point",
        "coordinates": [
          -82.53382,
          35.5874
        ]
      }
    },
    {
      "type": "Feature",
      "properties": {
        "title": "Kenilworth Rd at Aurora Dr",
        "tag": "759774",
        "stopId": "668"
      },
      "geometry": {
        "type": "Point",
        "coordinates": [
          -82.5315963,
          35.5878118
        ]
      }
    },
    {
      "type": "Feature",
      "properties": {
        "title": "Piney Mountain Dr at Chunns Cove Rd",
        "tag": "759775",
        "stopId": "669"
      },
      "geometry": {
        "type": "Point",
        "coordinates": [
          -82.5314099,
          35.5992699
        ]
      }
    },
    {
      "type": "Feature",
      "properties": {
        "title": "Centre Park Dr at Exit",
        "tag": "759776",
        "stopId": "670"
      },
      "geometry": {
        "type": "Point",
        "coordinates": [
          -82.5285599,
          35.5994099
        ]
      }
    },
    {
      "type": "Feature",
      "properties": {
        "title": "Piney Mountain Dr at Chunns Cove Rd",
        "tag": "759777",
        "stopId": "671"
      },
      "geometry": {
        "type": "Point",
        "coordinates": [
          -82.53148,
          35.5993999
        ]
      }
    },
    {
      "type": "Feature",
      "properties": {
        "title": "Kenilworth Rd at Aurora Dr",
        "tag": "759778",
        "stopId": "672"
      },
      "geometry": {
        "type": "Point",
        "coordinates": [
          -82.53169,
          35.5878299
        ]
      }
    },
    {
      "type": "Feature",
      "properties": {
        "title": "Kenilworth Rd at Springdale Rd",
        "tag": "759779",
        "stopId": "673"
      },
      "geometry": {
        "type": "Point",
        "coordinates": [
          -82.5348399,
          35.5875599
        ]
      }
    },
    {
      "type": "Feature",
      "properties": {
        "title": "Kenilworth Rd at Kirkman Rd",
        "tag": "759780",
        "stopId": "674"
      },
      "geometry": {
        "type": "Point",
        "coordinates": [
          -82.53627,
          35.5866499
        ]
      }
    },
    {
      "type": "Feature",
      "properties": {
        "title": "Kenilworth Rd at Digges Rd",
        "tag": "759781",
        "stopId": "675"
      },
      "geometry": {
        "type": "Point",
        "coordinates": [
          -82.5355999,
          35.5839799
        ]
      }
    },
    {
      "type": "Feature",
      "properties": {
        "title": "Kenilworth Rd at Normandy Rd",
        "tag": "759782",
        "stopId": "676"
      },
      "geometry": {
        "type": "Point",
        "coordinates": [
          -82.53562,
          35.5818099
        ]
      }
    },
    {
      "type": "Feature",
      "properties": {
        "title": "Kenilworth Rd at Harvest House Recreation Center",
        "tag": "759783",
        "stopId": "677"
      },
      "geometry": {
        "type": "Point",
        "coordinates": [
          -82.53797,
          35.5792299
        ]
      }
    },
    {
      "type": "Feature",
      "properties": {
        "title": "Kenilworth Rd at Warwick Rd",
        "tag": "759784",
        "stopId": "678"
      },
      "geometry": {
        "type": "Point",
        "coordinates": [
          -82.5386,
          35.5769299
        ]
      }
    },
    {
      "type": "Feature",
      "properties": {
        "title": "Warwick Rd at McClain St",
        "tag": "759785",
        "stopId": "679"
      },
      "geometry": {
        "type": "Point",
        "coordinates": [
          -82.5405599,
          35.5770399
        ]
      }
    },
    {
      "type": "Feature",
      "properties": {
        "title": "Warwick Rd at Forest Hill Dr",
        "tag": "759786",
        "stopId": "680"
      },
      "geometry": {
        "type": "Point",
        "coordinates": [
          -82.54301,
          35.5765799
        ]
      }
    },
    {
      "type": "Feature",
      "properties": {
        "title": "Forest Hill Dr at Thurland Rd",
        "tag": "759787",
        "stopId": "681"
      },
      "geometry": {
        "type": "Point",
        "coordinates": [
          -82.54522,
          35.5774999
        ]
      }
    },
    {
      "type": "Feature",
      "properties": {
        "title": "Forest Hill Dr at Sherwood Rd",
        "tag": "759788",
        "stopId": "682"
      },
      "geometry": {
        "type": "Point",
        "coordinates": [
          -82.5477199,
          35.5780699
        ]
      }
    },
    {
      "type": "Feature",
      "properties": {
        "title": "Asheland Ave at Hilliard Ave",
        "tag": "759789",
        "stopId": "683"
      },
      "geometry": {
        "type": "Point",
        "coordinates": [
          -82.5565699,
          35.5908399
        ]
      }
    },
    {
      "type": "Feature",
      "properties": {
        "title": "Asheland Ave at Morgan Ave",
        "tag": "759790",
        "stopId": "684"
      },
      "geometry": {
        "type": "Point",
        "coordinates": [
          -82.5565599,
          35.58897
        ]
      }
    },
    {
      "type": "Feature",
      "properties": {
        "title": "Southside Ave",
        "tag": "759791",
        "stopId": "685"
      },
      "geometry": {
        "type": "Point",
        "coordinates": [
          -82.5561799,
          35.5848899
        ]
      }
    },
    {
      "type": "Feature",
      "properties": {
        "title": "McDowell St at Choctaw St",
        "tag": "759792",
        "stopId": "686"
      },
      "geometry": {
        "type": "Point",
        "coordinates": [
          -82.5543699,
          35.5817899
        ]
      }
    },
    {
      "type": "Feature",
      "properties": {
        "title": "McDowell St at Hospital Dr",
        "tag": "759793",
        "stopId": "687"
      },
      "geometry": {
        "type": "Point",
        "coordinates": [
          -82.55246,
          35.5786799
        ]
      }
    },
    {
      "type": "Feature",
      "properties": {
        "title": "All Souls Crescent at Angle St",
        "tag": "759794",
        "stopId": "688"
      },
      "geometry": {
        "type": "Point",
        "coordinates": [
          -82.54394,
          35.5659799
        ]
      }
    },
    {
      "type": "Feature",
      "properties": {
        "title": "McDowell St at Doctors Dr",
        "tag": "759795",
        "stopId": "689"
      },
      "geometry": {
        "type": "Point",
        "coordinates": [
          -82.5506899,
          35.5740999
        ]
      }
    },
    {
      "type": "Feature",
      "properties": {
        "title": "McDowell St at Asheville High School",
        "tag": "759796",
        "stopId": "690"
      },
      "geometry": {
        "type": "Point",
        "coordinates": [
          -82.55059,
          35.5723699
        ]
      }
    },
    {
      "type": "Feature",
      "properties": {
        "title": "McDowell St at Short McDowell St",
        "tag": "759797",
        "stopId": "691"
      },
      "geometry": {
        "type": "Point",
        "coordinates": [
          -82.5499799,
          35.5696099
        ]
      }
    },
    {
      "type": "Feature",
      "properties": {
        "title": "McDowell St at Lodge St",
        "tag": "759798",
        "stopId": "692"
      },