{
  "data": {
    "moorcoll_d": {
      "lon": "-118.8365384",
      "title": "Moorpark College",
      "stopId": "02029",
      "tag": "moorcoll_d",
      "lat": "34.3020111"
    },
    "collcamp_i": {
      "lon": "-118.84218",
      "title": "Collins At Campus Canyon",
      "shortTitle": "Collins @ Campus Canyon",
      "stopId": "02030",
      "tag": "collcamp_i",
      "lat": "34.30027"
    },
    "campmarq_i": {
      "lon": "-118.84625",
      "title": "Campus Park At Marquette",
      "shortTitle": "Campus Park @ Marquette",
      "stopId": "02031",
      "tag": "campmarq_i",
      "lat": "34.29613"
    },
    "camppenn_i": {
      "lon": "-118.8499258",
      "title": "Campus Park At Penn",
      "shortTitle": "Campus Park @ Penn",
      "stopId": "02032",
      "tag": "camppenn_i",
      "lat": "34.29615"
    },
    "vpp_i": {
      "lon": "-118.85697",
      "title": "Varsity Park Plaza",
      "stopId": "02033",
      "tag": "vpp_i",
      "lat": "34.29584"
    },
    "kavlcond_i": {
      "lon": "-118.85758",
      "title": "Kavlico across from Condor Dr.",
      "stopId": "02034",
      "tag": "kavlcond_i",
      "lat": "34.29088"
    },
    "highspri_i": {
      "lon": "-118.8752699",
      "title": "High St. At Spring Rd",
      "shortTitle": "High @ Spring",
      "stopId": "02035",
      "tag": "highspri_i",
      "lat": "34.28548"
    },
    "highmetr_i": {
      "lon": "-118.8768867",
      "title": "High St. across from Metrolink",
      "shortTitle": "High across from Metrolink",
      "stopId": "02036",
      "tag": "highmetr_i",
      "lat": "34.28546"
    },
    "civicent_d": {
      "lon": "-118.883141",
      "title": "Civic Center",
      "stopId": "02001",
      "tag": "civicent_d",
      "lat": "34.2871237"
    },
    "towncent": {
      "lon": "-118.88216",
      "title": "Moorpark Avenue @ Moorpark Town Center",
      "shortTitle": "Moorpark @ Moorpark Town Center",
      "tag": "towncent",
      "lat": "34.28025"
    },
    "parkcres": {
      "lon": "-118.88516",
      "title": "Park Crest & Park",
      "tag": "parkcres",
      "lat": "34.277493"
    },
    "bellplaz": {
      "lon": "-118.8898796",
      "title": "Los Angeles: West of Mission Bell Plaza",
      "tag": "bellplaz",
      "lat": "34.2790369"
    },
    "goldman": {
      "lon": "-118.894227",
      "title": "Los Angeles: West of Goldman",
      "tag": "goldman",
      "lat": "34.279027"
    },
    "tiercour_o": {
      "lon": "-118.9009497",
      "title": "Tierra Rejada At Courtney",
      "shortTitle": "Tierra Rejada @ Courtney",
      "stopId": "02005",
      "tag": "tiercour_o",
      "lat": "34.277063"
    },
    "tierharv_o": {
      "lon": "-118.9009699",
      "title": "Tierra Rejada across from Harvester",
      "stopId": "02006",
      "tag": "tierharv_o",
      "lat": "34.27464"
    },
    "tiercoun_o": {
      "lon": "-118.90039",
      "title": "Tierra Rejada At Countrywood",
      "shortTitle": "Tierra Rejada @ Countrywood",
      "stopId": "02007",
      "tag": "tiercoun_o",
      "lat": "34.2705"
    },
    "tierwaln": {
      "lon": "-118.887074",
      "title": "Tierra Rejada & Walnut Creek",
      "tag": "tierwaln",
      "lat": "34.26377"
    },
    "tierphea_o": {
      "lon": "-118.8805521",
      "title": "Tierra Rejada At Pheasant Run",
      "shortTitle": "Tierra Rejada @ Pheasant Run",
      "stopId": "02013",
      "tag": "tierphea_o",
      "lat": "34.2633199"
    },
    "php_o": {
      "lon": "-118.87861",
      "title": "Peach Hill Park",
      "stopId": "02014",
      "tag": "php_o",
      "lat": "34.26684"
    },
    "peacbell_o": {
      "lon": "-118.87702",
      "title": "Peach Hill Rd. across from Bella Vista",
      "shortTitle": "Peach Hill across from Bella Vista",
      "stopId": "02015",
      "tag": "peacbell_o",
      "lat": "34.27165"
    },
    "peacroll_o": {
      "lon": "-118.87309",
      "title": "Peach Hill At Rolling Knoll",
      "shortTitle": "Peach Hill @ Rolling Knoll",
      "stopId": "02016",
      "tag": "peacroll_o",
      "lat": "34.27165"
    },
    "peacmill": {
      "lon": "-118.864278",
      "title": "Peach Hill & Mill Valley",
      "tag": "peacmill",
      "lat": "34.269328"
    },
    "millpark": {
      "lon": "-118.862999",
      "title": "Miller @ Miller Park",
      "tag": "millpark",
      "lat": "34.2724688"
    },
    "patrdriv": {
      "lon": "-118.868286",
      "title": "Miller & Patriot",
      "tag": "patrdriv",
      "lat": "34.277906"
    },
    "spriwood_o": {
      "lon": "-118.87464",
      "title": "Spring Rd. At Woodcreek Apartments",
      "shortTitle": "Spring @ Woodcreek Apartments",
      "stopId": "02021",
      "tag": "spriwood_o",
      "lat": "34.28141"
    },
    "2ndmill": {
      "lon": "-118.8787009",
      "title": "Second & Millard",
      "tag": "2ndmill",
      "lat": "34.2828559"
    },
    "highmetr": {
      "lon": "-118.877467",
      "title": "High St. across from Metrolink/Amtrak Station",
      "shortTitle": "High across from Metrolink/Amtrak Station",
      "tag": "highmetr",
      "lat": "34.285385"
    },
    "prinspri_o": {
      "lon": "-118.8744936",
      "title": "Princeton At Spring Rd.",
      "shortTitle": "Princeton @ Spring",
      "stopId": "02023",
      "tag": "prinspri_o",
      "lat": "34.2854397"
    },
    "princond": {
      "lon": "-118.857946",
      "title": "Princeton & Condor",
      "tag": "princond",
      "lat": "34.288477"
    },
    "varsplaz": {
      "lon": "-118.857094",
      "title": "Princeton across from Varsity Park Plaza",
      "tag": "varsplaz",
      "lat": "34.295234"
    },
    "camppenn": {
      "lon": "-118.8492274",
      "title": "Campus Park & Penn",
      "tag": "camppenn",
      "lat": "34.295999"
    },
    "campmarq": {
      "lon": "-118.846175",
      "title": "Campus Park & Marquette",
      "tag": "campmarq",
      "lat": "34.296007"
    },
    "collcamp_o": {
      "lon": "-118.84155",
      "title": "Collins At Campus Park",
      "shortTitle": "Collins @ Campus Park",
      "stopId": "02027",
      "tag": "collcamp_o",
      "lat": "34.2964997"
    },
    "collcany_i": {
      "lon": "-118.8415599",
      "title": "Collins At Campus Canyon",
      "shortTitle": "Collins @ Campus Canyon",
      "stopId": "02043",
      "tag": "collcany_i",
      "lat": "34.3011"
    },
    "vpp": {
      "lon": "-118.85697",
      "title": "Princeton & Campus Park:  Varsity Park Plaza",
      "tag": "vpp",
      "lat": "34.29584"
    },
    "highspri": {
      "lon": "-118.87527",
      "title": "High & Spring",
      "tag": "highspri",
      "lat": "34.28548"
    },
    "2ndbard": {
      "lon": "-118.8789774",
      "title": "Second & Bard",
      "tag": "2ndbard",
      "lat": "34.282873"
    },
    "millpatr": {
      "lon": "-118.868148",
      "title": "Miller & Patriot",
      "tag": "millpatr",
      "lat": "34.277141"
    },
    "millsout_i": {
      "lon": "-118.8674002",
      "title": "Miller Parkway At Southfork",
      "shortTitle": "Miller Parkway @ Southfork",
      "stopId": "02044",
      "tag": "millsout_i",
      "lat": "34.2759103"
    },
    "millmill_i": {
      "lon": "-118.8631899",
      "title": "Miller Parkway across from Miller Park",
      "stopId": "02045",
      "tag": "millmill_i",
      "lat": "34.27182"
    },
    "peacmesa_i": {
      "lon": "-118.86498",
      "title": "Peach Hill Rd. At Mesa Verde School",
      "shortTitle": "Peach Hill @ Mesa Verde School",
      "stopId": "02046",
      "tag": "peacmesa_i",
      "lat": "34.2694199"
    },
    "peacbell": {
      "lon": "-118.877486",
      "title": "Peach Hill & Bella Vista",
      "tag": "peacbell",
      "lat": "34.271706"
    },
    "peacchri": {
      "lon": "-118.878697",
      "title": "Peach Hill & Christian Barrett",
      "tag": "peacchri",
      "lat": "34.266085"
    },
    "peactier_i": {
      "lon": "-118.87904",
      "title": "Peach Hill At Tierra Rejada",
      "shortTitle": "Peach Hill @ Tierra Rejada",
      "stopId": "02052",
      "tag": "peactier_i",
      "lat": "34.26355"
    },
    "mounwaln_i": {
      "lon": "-118.8911956",
      "title": "Mountain Trail At Walnut Creek",
      "shortTitle": "Mountain Trail @ Walnut Creek",
      "stopId": "02055",
      "tag": "mounwaln_i",
      "lat": "34.2706488"
    },
    "tierharv_i": {
      "lon": "-118.90073",
      "title": "Tierra Rejada At Harvester",
      "shortTitle": "Tierra Rejada @ Harvester",
      "stopId": "02060",
      "tag": "tierharv_i",
      "lat": "34.2749057"
    },
    "tiercour_i": {
      "lon": "-118.90073",
      "title": "Tierra Rejada At Courtney",
      "shortTitle": "Tierra Rejada @ Courtney",
      "stopId": "02061",
      "tag": "tiercour_i",
      "lat": "34.2765931"
    },
    "laavmaur_i": {
      "lon": "-118.89609",
      "title": "L.A. Ave. At Maureen",
      "shortTitle": "L.A. @ Maureen",
      "stopId": "02062",
      "tag": "laavmaur_i",
      "lat": "34.27887"
    },
    "laavleta_i": {
      "lon": "-118.8892109",
      "title": "L.A. Ave. At Leta Yancy",
      "shortTitle": "L.A. @ Leta Yancy",
      "stopId": "02063",
      "tag": "laavleta_i",
      "lat": "34.2788999"
    },
    "laavpark_i": {
      "lon": "-118.8858903",
      "title": "L.A. Ave. At Park Lane",
      "shortTitle": "L.A. @ Park Lane",
      "stopId": "02064",
      "tag": "laavpark_i",
      "lat": "34.27883"
    },
    "parkvint_i": {
      "lon": "-118.8855299",
      "title": "Park Ln. At Vintage Crest Apartments",
      "shortTitle": "Park Ln. @ Vintage Crest Apartments",
      "stopId": "02065",
      "tag": "parkvint_i",
      "lat": "34.2775207"
    },
    "parkcres_i": {
      "lon": "-118.88326",
      "title": "Park Crest Lane",
      "stopId": "02066",
      "tag": "parkcres_i",
      "lat": "34.2773799"
    },
    "highmoor_o": {
      "lon": "-118.87747",
      "title": "High St. At Moorpark Metrolink",
      "shortTitle": "High @ Moorpark Metrolink",
      "stopId": "02038",
      "tag": "highmoor_o",
      "lat": "34.28537"
    },
    "highspri_o": {
      "lon": "-118.8744905",
      "title": "High St. At Spring Rd.",
      "shortTitle": "High @ Spring",
      "stopId": "02023",
      "tag": "highspri_o",
      "lat": "34.2854399"
    },
    "virgpark_o": {
      "lon": "-118.85792",
      "title": "Princeton & Condor",
      "stopId": "02039",
      "tag": "virgpark_o",
      "lat": "34.2884799"
    },
    "prinvars_o": {
      "lon": "-118.85705",
      "title": "Princeton across from Varsity Park Plaza",
      "stopId": "02040",
      "tag": "prinvars_o",
      "lat": "34.2952199"
    },
    "camppenn_o": {
      "lon": "-118.84923",
      "title": "Campus Park At Penn",
      "shortTitle": "Campus Park @ Penn",
      "stopId": "02041",
      "tag": "camppenn_o",
      "lat": "34.2959699"
    },
    "campmarq_o": {
      "lon": "-118.84618",
      "title": "Campus Park At Marquette",
      "shortTitle": "Campus Park @ Marquette",
      "stopId": "02042",
      "tag": "campmarq_o",
      "lat": "34.2959799"
    },
    "villamobi": {
      "lon": "-118.83521",
      "title": "Villa del Arroyo Mobile Home Park",
      "tag": "villamobi",
      "lat": "34.29008"
    },
    "collpark_o": {
      "lon": "-118.84155",
      "title": "Collins At Campus Park",
      "shortTitle": "Collins @ Campus Park",
      "stopId": "02027",
      "tag": "collpark_o",
      "lat": "34.2965"
    },
    "moormark_o": {
      "lon": "-118.864948",
      "title": "Moorpark Marketplace",
      "stopId": "02019",
      "tag": "moormark_o",
      "lat": "34.278704"
    },
    "patrdriv_o": {
      "lon": "-118.8652499",
      "title": "Patriot Drive",
      "stopId": "02020",
      "tag": "patrdriv_o",
      "lat": "34.27766"
    },
    "spripoli_o": {
      "lon": "-118.87463",
      "title": "Spring Rd. At Police Services Center",
      "shortTitle": "Spring @ Police Services Center",
      "stopId": "02081",
      "tag": "spripoli_o",
      "lat": "34.2833164"
    },
    "highmetr_o": {
      "lon": "-118.8768867",
      "title": "High St. across from Metrolink",
      "shortTitle": "High across from Metrolink",
      "stopId": "02082",
      "tag": "highmetr_o",
      "lat": "34.28546"
    },
    "moorpoin_o": {
      "lon": "-118.8821699",
      "title": "Moorpark Ave. At Poindexter",
      "shortTitle": "Moorpark @ Poindexter",
      "stopId": "02002",
      "tag": "moorpoin_o",
      "lat": "34.28373"
    },
    "parklane": {
      "lon": "-118.8854163",
      "title": "Park Lane and L.A. Ave NE corner (flagstop)",
      "shortTitle": "Park Lane & L.A. NE corner (flagstop)",
      "stopId": "02088",
      "tag": "parklane",
      "lat": "34.2793627"
    },
    "mbp_o": {
      "lon": "-118.8873899",
      "title": "Mission Bell Plaza",
      "stopId": "02004",
      "tag": "mbp_o",
      "lat": "34.28057"
    },
    "parkvint_o": {
      "lon": "-118.8855299",
      "title": "Park Ln. At Vintage Crest Apartments",
      "shortTitle": "Park Ln. @ Vintage Crest Apartments",
      "stopId": "02078",
      "tag": "parkvint_o",
      "lat": "34.2775207"
    },
    "parkcres_o": {
      "lon": "-118.88326",
      "title": "Park Crest Lane",
      "stopId": "02079",
      "tag": "parkcres_o",
      "lat": "34.2773799"
    },
    "laavmoor_i": {
      "lon": "-118.8808513",
      "title": "L.A. Ave. At Moorpark Ave.",
      "shortTitle": "L.A. @ Moorpark",
      "stopId": "02067",
      "tag": "laavmoor_i",
      "lat": "34.2788299"
    },
    "spriwood_i": {
      "lon": "-118.87464",
      "title": "Spring Rd. At Woodcreek Apartments",
      "shortTitle": "Spring @ Woodcreek Apartments",
      "stopId": "02021",
      "tag": "spriwood_i",
      "lat": "34.28141"
    },
    "spripoli_i": {
      "lon": "-118.87463",
      "title": "Spring Rd. At Police Services Center",
      "shortTitle": "Spring @ Police Services Center",
      "stopId": "02022",
      "tag": "spripoli_i",
      "lat": "34.2833164"
    },
    "moorpoin_i": {
      "lon": "-118.8821699",
      "title": "Moorpark Ave. At Poindexter",
      "shortTitle": "Moorpark @ Poindexter",
      "stopId": "02083",
      "tag": "moorpoin_i",
      "lat": "34.28373"
    },
    "moormark_i": {
      "lon": "-118.864948",
      "title": "Moorpark Marketplace",
      "stopId": "02084",
      "tag": "moormark_i",
      "lat": "34.278704"
    },
    "partdriv_i": {
      "lon": "-118.8652483",
      "title": "Patriot Drive",
      "stopId": "02085",
      "tag": "partdriv_i",
      "lat": "34.2776604"
    },
    "villamobi_o": {
      "lon": "-118.8352093",
      "title": "Villa del Arroyo Mobile Home Park",
      "stopId": "02026",
      "tag": "villamobi_o",
      "lat": "34.2900807"
    }
  },
  "copyright": "All data copyright Moorpark Transit 2018."
}