{
  "type": "FeatureCollection",
  "features": [
    {
      "type": "Feature",
      "properties": {
        "title": "Gracie Allen/Cedars Sinai",
        "tag": "SE5",
        "stopId": "313"
      },
      "geometry": {
        "type": "Point",
        "coordinates": [
          -118.38058,
          34.0752299
        ]
      }
    },
    {
      "type": "Feature",
      "properties": {
        "title": "San Vicente/Beverly",
        "tag": "SE6",
        "stopId": "101"
      },
      "geometry": {
        "type": "Point",
        "coordinates": [
          -118.37946,
          34.07684
        ]
      }
    },
    {
      "type": "Feature",
      "properties": {
        "title": "San Vicente/Melrose",
        "tag": "SE7",
        "stopId": "102"
      },
      "geometry": {
        "type": "Point",
        "coordinates": [
          -118.3832,
          34.0815899
        ]
      }
    },
    {
      "type": "Feature",
      "properties": {
        "title": "820 San Vicente",
        "tag": "SE8",
        "stopId": "307"
      },
      "geometry": {
        "type": "Point",
        "coordinates": [
          -118.3845299,
          34.0855599
        ]
      }
    },
    {
      "type": "Feature",
      "properties": {
        "title": "San Vicente/Cynthia",
        "tag": "SE9",
        "stopId": "308"
      },
      "geometry": {
        "type": "Point",
        "coordinates": [
          -118.38543,
          34.08706
        ]
      }
    },
    {
      "type": "Feature",
      "properties": {
        "title": "San Vicente at Sunset",
        "tag": "SE10",
        "stopId": "309"
      },
      "geometry": {
        "type": "Point",
        "coordinates": [
          -118.3855599,
          34.09054
        ]
      }
    },
    {
      "type": "Feature",
      "properties": {
        "title": "Holloway/Palm",
        "tag": "SE11",
        "stopId": "310"
      },
      "geometry": {
        "type": "Point",
        "coordinates": [
          -118.3830599,
          34.0906199
        ]
      }
    },
    {
      "type": "Feature",
      "properties": {
        "title": "959 Palm",
        "tag": "SE12",
        "stopId": "311"
      },
      "geometry": {
        "type": "Point",
        "coordinates": [
          -118.3829,
          34.0891399
        ]
      }
    },
    {
      "type": "Feature",
      "properties": {
        "title": "Santa Monica/San Vicente",
        "tag": "SE47",
        "stopId": "405"
      },
      "geometry": {
        "type": "Point",
        "coordinates": [
          -118.38427,
          34.0848499
        ]
      }
    },
    {
      "type": "Feature",
      "properties": {
        "title": "Pavillions",
        "tag": "SE1",
        "stopId": "312"
      },
      "geometry": {
        "type": "Point",
        "coordinates": [
          -118.38641,
          34.0833699
        ]
      }
    },
    {
      "type": "Feature",
      "properties": {
        "title": "Santa Monica/San Vicente",
        "tag": "SE14",
        "stopId": "110"
      },
      "geometry": {
        "type": "Point",
        "coordinates": [
          -118.38375,
          34.0850299
        ]
      }
    },
    {
      "type": "Feature",
      "properties": {
        "title": "838 N.W. Knoll",
        "tag": "SE15",
        "stopId": "305"
      },
      "geometry": {
        "type": "Point",
        "coordinates": [
          -118.37755,
          34.0859999
        ]
      }
    },
    {
      "type": "Feature",
      "properties": {
        "title": "Rugby/Westbourne",
        "tag": "SE16",
        "stopId": "306"
      },
      "geometry": {
        "type": "Point",
        "coordinates": [
          -118.3793199,
          34.0868899
        ]
      }
    },
    {
      "type": "Feature",
      "properties": {
        "title": "Santa Monica/Westbourne",
        "tag": "SE17",
        "stopId": "113"
      },
      "geometry": {
        "type": "Point",
        "coordinates": [
          -118.3795699,
          34.08767
        ]
      }
    },
    {
      "type": "Feature",
      "properties": {
        "title": "Santa Monica/La Cienega",
        "tag": "SE18",
        "stopId": "114"
      },
      "geometry": {
        "type": "Point",
        "coordinates": [
          -118.3758999,
          34.08962
        ]
      }
    },
    {
      "type": "Feature",
      "properties": {
        "title": "Santa Monica/Croft",
        "tag": "SE19",
        "stopId": "115"
      },
      "geometry": {
        "type": "Point",
        "coordinates": [
          -118.37451,
          34.0903399
        ]
      }
    },
    {
      "type": "Feature",
      "properties": {
        "title": "Santa Monica/Kings Rd",
        "tag": "SE20",
        "stopId": "116"
      },
      "geometry": {
        "type": "Point",
        "coordinates": [
          -118.3720099,
          34.09068
        ]
      }
    },
    {
      "type": "Feature",
      "properties": {
        "title": "Kings/Romaine",
        "tag": "SE21",
        "stopId": "117"
      },
      "geometry": {
        "type": "Point",
        "coordinates": [
          -118.3717799,
          34.0891099
        ]
      }
    },
    {
      "type": "Feature",
      "properties": {
        "title": "801 N. Kings Rd.",
        "tag": "SE22",
        "stopId": "118"
      },
      "geometry": {
        "type": "Point",
        "coordinates": [
          -118.37176,
          34.0855699
        ]
      }
    },
    {
      "type": "Feature",
      "properties": {
        "title": "Sweetzer/Willoughby",
        "tag": "SE48",
        "stopId": "406"
      },
      "geometry": {
        "type": "Point",
        "coordinates": [
          -118.3703299,
          34.08742
        ]
      }
    },
    {
      "type": "Feature",
      "properties": {
        "title": "Santa Monica/Sweetzer",
        "tag": "SE24",
        "stopId": "119"
      },
      "geometry": {
        "type": "Point",
        "coordinates": [
          -118.37029,
          34.0906399
        ]
      }
    },
    {
      "type": "Feature",
      "properties": {
        "title": "Santa Monica/La Jolla",
        "tag": "SE25",
        "stopId": "120"
      },
      "geometry": {
        "type": "Point",
        "coordinates": [
          -118.3678799,
          34.09075
        ]
      }
    },
    {
      "type": "Feature",
      "properties": {
        "title": "Crescent Heights/Norton",
        "tag": "SE26",
        "stopId": "121"
      },
      "geometry": {
        "type": "Point",
        "coordinates": [
          -118.36592,
          34.09167
        ]
      }
    },
    {
      "type": "Feature",
      "properties": {
        "title": "Crescent Heights/Fountain",
        "tag": "SE27",
        "stopId": "122"
      },
      "geometry": {
        "type": "Point",
        "coordinates": [
          -118.3659599,
          34.0941299
        ]
      }
    },
    {
      "type": "Feature",
      "properties": {
        "title": "Fountain/Laurel",
        "tag": "SE28",
        "stopId": "123"
      },
      "geometry": {
        "type": "Point",
        "coordinates": [
          -118.3642299,
          34.09442
        ]
      }
    },
    {
      "type": "Feature",
      "properties": {
        "title": "Fairfax/Fountain",
        "tag": "SE29",
        "stopId": "124"
      },
      "geometry": {
        "type": "Point",
        "coordinates": [
          -118.36154,
          34.09434
        ]
      }
    },
    {
      "type": "Feature",
      "properties": {
        "title": "Fairfax/Norton",
        "tag": "SE30",
        "stopId": "125"
      },
      "geometry": {
        "type": "Point",
        "coordinates": [
          -118.36147,
          34.09188
        ]
      }
    },
    {
      "type": "Feature",
      "properties": {
        "title": "Santa Monica/Fairfax",
        "tag": "SE31",
        "stopId": "126"
      },
      "geometry": {
        "type": "Point",
        "coordinates": [
          -118.36089,
          34.0907499
        ]
      }
    },
    {
      "type": "Feature",
      "properties": {
        "title": "Santa Monica/Spaulding",
        "tag": "SE32",
        "stopId": "127"
      },
      "geometry": {
        "type": "Point",
        "coordinates": [
          -118.35777,
          34.0907899
        ]
      }
    },
    {
      "type": "Feature",
      "properties": {
        "title": "Santa Monica/Sierra Bonita",
        "tag": "SE33",
        "stopId": "301"
      },
      "geometry": {
        "type": "Point",
        "coordinates": [
          -118.35437,
          34.0907699
        ]
      }
    },
    {
      "type": "Feature",
      "properties": {
        "title": "Willoughby/Gardner",
        "tag": "SE34",
        "stopId": "302"
      },
      "geometry": {
        "type": "Point",
        "coordinates": [
          -118.3536199,
          34.08712
        ]
      }
    },
    {
      "type": "Feature",
      "properties": {
        "title": "Curson/Romaine",
        "tag": "SE35",
        "stopId": "303"
      },
      "geometry": {
        "type": "Point",
        "coordinates": [
          -118.35534,
          34.08901
        ]
      }
    },
    {
      "type": "Feature",
      "properties": {
        "title": "Curson/Santa Monica",
        "tag": "SE36",
        "stopId": "304"
      },
      "geometry": {
        "type": "Point",
        "coordinates": [
          -118.35535,
          34.09072
        ]
      }
    },
    {
      "type": "Feature",
      "properties": {
        "title": "Curson/Norton",
        "tag": "SE37",
        "stopId": "132"
      },
      "geometry": {
        "type": "Point",
        "coordinates": [
          -118.3550099,
          34.0916
        ]
      }
    },
    {
      "type": "Feature",
      "properties": {
        "title": "Curson/Lexington",
        "tag": "SE38",
        "stopId": "133"
      },
      "geometry": {
        "type": "Point",
        "coordinates": [
          -118.3549784,
          34.0924511
        ]
      }
    },
    {
      "type": "Feature",
      "properties": {
        "title": "Gardner/Fountain",
        "tag": "SE39",
        "stopId": "134"
      },
      "geometry": {
        "type": "Point",
        "coordinates": [
          -118.3528399,
          34.09434
        ]
      }
    },
    {
      "type": "Feature",
      "properties": {
        "title": "Fountain/Vista",
        "tag": "SE40",
        "stopId": "135"
      },
      "geometry": {
        "type": "Point",
        "coordinates": [
          -118.35178,
          34.09436
        ]
      }
    },
    {
      "type": "Feature",
      "properties": {
        "title": "Plummer Park/Fuller",
        "tag": "SE41",
        "stopId": "136"
      },
      "geometry": {
        "type": "Point",
        "coordinates": [
          -118.3501,
          34.0928299
        ]
      }
    },
    {
      "type": "Feature",
      "properties": {
        "title": "Santa Monica/Fuller",
        "tag": "SE42",
        "stopId": "137"
      },
      "geometry": {
        "type": "Point",
        "coordinates": [
          -118.3497399,
          34.0907399
        ]
      }
    },
    {
      "type": "Feature",
      "properties": {
        "title": "Formosa/Santa Monica",
        "tag": "SE43",
        "stopId": "138"
      },
      "geometry": {
        "type": "Point",
        "coordinates": [
          -118.34626,
          34.09107
        ]
      }
    },
    {
      "type": "Feature",
      "properties": {
        "title": "La Brea/Fountain",
        "tag": "SE44_ar",
        "stopId": "300"
      },
      "geometry": {
        "type": "Point",
        "coordinates": [
          -118.3441,
          34.0941699
        ]
      }
    },
    {
      "type": "Feature",
      "properties": {
        "title": "La Brea/Fountain",
        "tag": "SE44",
        "stopId": "300"
      },
      "geometry": {
        "type": "Point",
        "coordinates": [
          -118.3441,
          34.0941699
        ]
      }
    },
    {
      "type": "Feature",
      "properties": {
        "title": "La Brea/Santa Monica",
        "tag": "SW2",
        "stopId": "200"
      },
      "geometry": {
        "type": "Point",
        "coordinates": [
          -118.3440999,
          34.09092
        ]
      }
    },
    {
      "type": "Feature",
      "properties": {
        "title": "Santa Monica/Formosa",
        "tag": "SW3",
        "stopId": "201"
      },
      "geometry": {
        "type": "Point",
        "coordinates": [
          -118.3465099,
          34.0907499
        ]
      }
    },
    {
      "type": "Feature",
      "properties": {
        "title": "Santa Monica/Fuller",
        "tag": "SW4",
        "stopId": "202"
      },
      "geometry": {
        "type": "Point",
        "coordinates": [
          -118.3504199,
          34.0907699
        ]
      }
    },
    {
      "type": "Feature",
      "properties": {
        "title": "Vista/Lexington (Plummer Park)",
        "tag": "SW5",
        "stopId": "203"
      },
      "geometry": {
        "type": "Point",
        "coordinates": [
          -118.35183,
          34.0925399
        ]
      }
    },
    {
      "type": "Feature",
      "properties": {
        "title": "Gardner/Fountain",
        "tag": "SW6",
        "stopId": "204"
      },
      "geometry": {
        "type": "Point",
        "coordinates": [
          -118.35283,
          34.09437
        ]
      }
    },
    {
      "type": "Feature",
      "properties": {
        "title": "Gardner/Lexington",
        "tag": "SW7",
        "stopId": "205"
      },
      "geometry": {
        "type": "Point",
        "coordinates": [
          -118.35282,
          34.09291
        ]
      }
    },
    {
      "type": "Feature",
      "properties": {
        "title": "Lexington/Curson",
        "tag": "SW8",
        "stopId": "206"
      },
      "geometry": {
        "type": "Point",
        "coordinates": [
          -118.3546199,
          34.09257
        ]
      }
    },
    {
      "type": "Feature",
      "properties": {
        "title": "Curson/Norton",
        "tag": "SW9",
        "stopId": "207"
      },
      "geometry": {
        "type": "Point",
        "coordinates": [
          -118.35497,
          34.0916299
        ]
      }
    },
    {
      "type": "Feature",
      "properties": {
        "title": "Santa Monica/Stanley",
        "tag": "SW14",
        "stopId": "208"
      },
      "geometry": {
        "type": "Point",
        "coordinates": [
          -118.3563499,
          34.09079
        ]
      }
    },
    {
      "type": "Feature",
      "properties": {
        "title": "Santa Monica/Genessee",
        "tag": "SW15",
        "stopId": "209"
      },
      "geometry": {
        "type": "Point",
        "coordinates": [
          -118.3579,
          34.09082
        ]
      }
    },
    {
      "type": "Feature",
      "properties": {
        "title": "Santa Monica/Ogden",
        "tag": "SW16",
        "stopId": "210"
      },
      "geometry": {
        "type": "Point",
        "coordinates": [
          -118.3590199,
          34.09082
        ]
      }
    },
    {
      "type": "Feature",
      "properties": {
        "title": "Santa Monica/Fairfax",
        "tag": "SW17",
        "stopId": "211"
      },
      "geometry": {
        "type": "Point",
        "coordinates": [
          -118.36127,
          34.0908699
        ]
      }
    },
    {
      "type": "Feature",
      "properties": {
        "title": "1222 N. Fairfax",
        "tag": "SW18",
        "stopId": "212"
      },
      "geometry": {
        "type": "Point",
        "coordinates": [
          -118.3615599,
          34.09222
        ]
      }
    },
    {
      "type": "Feature",
      "properties": {
        "title": "Fountain/Hayworth",
        "tag": "SW19",
        "stopId": "213"
      },
      "geometry": {
        "type": "Point",
        "coordinates": [
          -118.3627499,
          34.09445
        ]
      }
    },
    {
      "type": "Feature",
      "properties": {
        "title": "Crescent Heights/Fountain",
        "tag": "SW20",
        "stopId": "214"
      },
      "geometry": {
        "type": "Point",
        "coordinates": [
          -118.36593,
          34.0942199
        ]
      }
    },
    {
      "type": "Feature",
      "properties": {
        "title": "Crescent Heights/Santa Monica",
        "tag": "SW21",
        "stopId": "215"
      },
      "geometry": {
        "type": "Point",
        "coordinates": [
          -118.36601,
          34.0912599
        ]
      }
    },
    {
      "type": "Feature",
      "properties": {
        "title": "Santa Monica/La Jolla",
        "tag": "SW47",
        "stopId": "400"
      },
      "geometry": {
        "type": "Point",
        "coordinates": [
          -118.36785,
          34.0907399
        ]
      }
    },
    {
      "type": "Feature",
      "properties": {
        "title": "Sweetzer/Santa Monica",
        "tag": "SW48",
        "stopId": "401"
      },
      "geometry": {
        "type": "Point",
        "coordinates": [
          -118.3703099,
          34.0905199
        ]
      }
    },
    {
      "type": "Feature",
      "properties": {
        "title": "Sweetzer/Willoughby",
        "tag": "SW24",
        "stopId": "216"
      },
      "geometry": {
        "type": "Point",
        "coordinates": [
          -118.37026,
          34.08741
        ]
      }
    },
    {
      "type": "Feature",
      "properties": {
        "title": "800 N.Kings Rd.",
        "tag": "SW25",
        "stopId": "217"
      },
      "geometry": {
        "type": "Point",
        "coordinates": [
          -118.3717,
          34.0855099
        ]
      }
    },
    {
      "type": "Feature",
      "properties": {
        "title": "Kings Rd./Romaine",
        "tag": "SW26",
        "stopId": "218"
      },
      "geometry": {
        "type": "Point",
        "coordinates": [
          -118.37173,
          34.0891399
        ]
      }
    },
    {
      "type": "Feature",
      "properties": {
        "title": "Kings Rd./Santa Monica Blvd. (Gelson's)",
        "tag": "SW27",
        "stopId": "219"
      },
      "geometry": {
        "type": "Point",
        "coordinates": [
          -118.3717599,
          34.0906499
        ]
      }
    },
    {
      "type": "Feature",
      "properties": {
        "title": "Santa Monica/Kings Rd",
        "tag": "SW28",
        "stopId": "220"
      },
      "geometry": {
        "type": "Point",
        "coordinates": [
          -118.3729499,
          34.09067
        ]
      }
    },
    {
      "type": "Feature",
      "properties": {
        "title": "Santa Monica/La Cienega",
        "tag": "SW29",
        "stopId": "221"
      },
      "geometry": {
        "type": "Point",
        "coordinates": [
          -118.3759399,
          34.08976
        ]
      }
    },
    {
      "type": "Feature",
      "properties": {
        "title": "Santa Monica/West Knoll",
        "tag": "SW30",
        "stopId": "222"
      },
      "geometry": {
        "type": "Point",
        "coordinates": [
          -118.37801,
          34.0887899
        ]
      }
    },
    {
      "type": "Feature",
      "properties": {
        "title": "Santa Monica/Hancock",
        "tag": "SW33",
        "stopId": "223"
      },
      "geometry": {
        "type": "Point",
        "coordinates": [
          -118.38137,
          34.0867999
        ]
      }
    },
    {
      "type": "Feature",
      "properties": {
        "title": "Santa Monica/San Vicente",
        "tag": "SW45",
        "stopId": "224"
      },
      "geometry": {
        "type": "Point",
        "coordinates": [
          -118.38438,
          34.0847499
        ]
      }
    },
    {
      "type": "Feature",
      "properties": {
        "title": "San Vicente/Cynthia",
        "tag": "SE13",
        "stopId": "109"
      },
      "geometry": {
        "type": "Point",
        "coordinates": [
          -118.3855599,
          34.08709
        ]
      }
    },
    {
      "type": "Feature",
      "properties": {
        "title": "San Vicente/Santa Monica Blvd. (West Hollywood Park)",
        "tag": "SE2",
        "stopId": "225"
      },
      "geometry": {
        "type": "Point",
        "coordinates": [
          -118.38392,
          34.08445
        ]
      }
    },
    {
      "type": "Feature",
      "properties": {
        "title": "Library",
        "tag": "SE3",
        "stopId": "226"
      },
      "geometry": {
        "type": "Point",
        "coordinates": [
          -118.38331,
          34.0815399
        ]
      }
    },
    {
      "type": "Feature",
      "properties": {
        "title": "San Vicente/Beverly",
        "tag": "SE4",
        "stopId": "227"
      },
      "geometry": {
        "type": "Point",
        "coordinates": [
          -118.3796499,
          34.0769499
        ]
      }
    },
    {
      "type": "Feature",
      "properties": {
        "title": "Gracie Allen/Cedars Sinai",
        "tag": "SE5_ar",
        "stopId": "313"
      },
      "geometry": {
        "type": "Point",
        "coordinates": [
          -118.38058,
          34.0752299
        ]
      }
    },
    {
      "type": "Feature",
      "properties": {
        "title": "San Vicente (Eastbound)",
        "tag": "PU19",
        "stopId": "518"
      },
      "geometry": {
        "type": "Point",
        "coordinates": [
          -118.38359,
          34.0850899
        ]
      }
    },
    {
      "type": "Feature",
      "properties": {
        "title": "Westbourne (Eastbound)",
        "tag": "PU21",
        "stopId": "520"
      },
      "geometry": {
        "type": "Point",
        "coordinates": [
          -118.37947,
          34.0877099
        ]
      }
    },
    {
      "type": "Feature",
      "properties": {
        "title": "La Cienega (Eastbound)",
        "tag": "PU22",
        "stopId": "521"
      },
      "geometry": {
        "type": "Point",
        "coordinates": [
          -118.37627,
          34.0893699
        ]
      }
    },
    {
      "type": "Feature",
      "properties": {
        "title": "Sweetzer (Eastbound)",
        "tag": "PU24",
        "stopId": "523"
      },
      "geometry": {
        "type": "Point",
        "coordinates": [
          -118.37041,
          34.0906699
        ]
      }
    },
    {
      "type": "Feature",
      "properties": {
        "title": "Crescent Heights (Eastbound)",
        "tag": "PU26",
        "stopId": "525"
      },
      "geometry": {
        "type": "Point",
        "coordinates": [
          -118.36572,
          34.0907399
        ]
      }
    },
    {
      "type": "Feature",
      "properties": {
        "title": "Fairfax (Eastbound)",
        "tag": "PU27",
        "stopId": "526"
      },
      "geometry": {
        "type": "Point",
        "coordinates": [
          -118.36189,
          34.0907699
        ]
      }
    },
    {
      "type": "Feature",
      "properties": {
        "title": "Sierra Bonita (Eastbound)",
        "tag": "PU29",
        "stopId": "528"
      },
      "geometry": {
        "type": "Point",
        "coordinates": [
          -118.35444,
          34.0907399
        ]
      }
    },
    {
      "type": "Feature",
      "properties": {
        "title": "La Brea (Eastbound)",
        "tag": "HH7",
        "stopId": "602"
      },
      "geometry": {
        "type": "Point",
        "coordinates": [
          -118.3444,
          34.0906299
        ]
      }
    },
    {
      "type": "Feature",
      "properties": {
        "title": "Highland/Hollywood",
        "tag": "HH4_ar",
        "stopId": "603"
      },
      "geometry": {
        "type": "Point",
        "coordinates": [
          -118.33875,
          34.1013199
        ]
      }
    },
    {
      "type": "Feature",
      "properties": {
        "title": "Highland/Hollywood",
        "tag": "HH4",
        "stopId": "603"
      },
      "geometry": {
        "type": "Point",
        "coordinates": [
          -118.33875,
          34.1013199
        ]
      }
    },
    {
      "type": "Feature",
      "properties": {
        "title": "La Brea (Westbound)",
        "tag": "PU1",
        "stopId": "500"
      },
      "geometry": {
        "type": "Point",
        "coordinates": [
          -118.34457,
          34.0907899
        ]
      }
    },
    {
      "type": "Feature",
      "properties": {
        "title": "Gardner (Westbound)",
        "tag": "PU4",
        "stopId": "503"
      },
      "geometry": {
        "type": "Point",
        "coordinates": [
          -118.35326,
          34.0908499
        ]
      }
    },
    {
      "type": "Feature",
      "properties": {
        "title": "Crescent Heights (Westbound)",
        "tag": "PU8",
        "stopId": "507"
      },
      "geometry": {
        "type": "Point",
        "coordinates": [
          -118.36575,
          34.0908299
        ]
      }
    },
    {
      "type": "Feature",
      "properties": {
        "title": "Sweetzer (Westbound)",
        "tag": "PU10",
        "stopId": "509"
      },
      "geometry": {
        "type": "Point",
        "coordinates": [
          -118.37051,
          34.0907699
        ]
      }
    },
    {
      "type": "Feature",
      "properties": {
        "title": "La Cienega (Westbound)",
        "tag": "PU12",
        "stopId": "511"
      },
      "geometry": {
        "type": "Point",
        "coordinates": [
          -118.37601,
          34.0898099
        ]
      }
    },
    {
      "type": "Feature",
      "properties": {
        "title": "Westbourne (Westbound)",
        "tag": "PU14",
        "stopId": "513"
      },
      "geometry": {
        "type": "Point",
        "coordinates": [
          -118.37999,
          34.0876299
        ]
      }
    },
    {
      "type": "Feature",
      "properties": {
        "title": "Library",
        "tag": "SE3_ar",
        "stopId": "226"
      },
      "geometry": {
        "type": "Point",
        "coordinates": [
          -118.38331,
          34.0815399
        ]
      }
    },
    {
      "type": "Feature",
      "properties": {
        "title": "La Brea (Westbound)",
        "tag": "PU1_ar",
        "stopId": "500"
      },
      "geometry": {
        "type": "Point",
        "coordinates": [
          -118.34457,
          34.0907899
        ]
      }
    },
    {
      "type": "Feature",
      "properties": {
        "title": "Formosa (Westbound)",
        "tag": "PU2",
        "stopId": "501"
      },
      "geometry": {
        "type": "Point",
        "coordinates": [
          -118.34645,
          34.0908099
        ]
      }
    },
    {
      "type": "Feature",
      "properties": {
        "title": "Greenacre (Westbound)",
        "tag": "PU3",
        "stopId": "502"
      },
      "geometry": {
        "type": "Point",
        "coordinates": [
          -118.3493499,
          34.09078
        ]
      }
    },
    {
      "type": "Feature",
      "properties": {
        "title": "Curson (Westbound)",
        "tag": "PU5",
        "stopId": "504"
      },
      "geometry": {
        "type": "Point",
        "coordinates": [
          -118.35594,
          34.09085
        ]
      }
    },
    {
      "type": "Feature",
      "properties": {
        "title": "Genesee (Westbound)",
        "tag": "PU6",
        "stopId": "505"
      },
      "geometry": {
        "type": "Point",
        "coordinates": [
          -118.35835,
          34.0908699
        ]
      }
    },
    {
      "type": "Feature",
      "properties": {
        "title": "Fairfax (Westbound)",
        "tag": "PU7",
        "stopId": "506"
      },
      "geometry": {
        "type": "Point",
        "coordinates": [
          -118.3617999,
          34.0909299
        ]
      }
    },
    {
      "type": "Feature",
      "properties": {
        "title": "La Jolla (Westbound)",
        "tag": "PU9",
        "stopId": "508"
      },
      "geometry": {
        "type": "Point",
        "coordinates": [
          -118.3678799,
          34.0908199
        ]
      }
    },
    {
      "type": "Feature",
      "properties": {
        "title": "Kings (Westbound)",
        "tag": "PU11",
        "stopId": "510"
      },
      "geometry": {
        "type": "Point",
        "coordinates": [
          -118.3729399,
          34.09075
        ]
      }
    },
    {
      "type": "Feature",
      "properties": {
        "title": "Ramada (Westbound)",
        "tag": "PU13",
        "stopId": "512"
      },
      "geometry": {
        "type": "Point",
        "coordinates": [
          -118.3779599,
          34.08874
        ]
      }
    },
    {
      "type": "Feature",
      "properties": {
        "title": "Hancock (Westbound)",
        "tag": "PU15",
        "stopId": "514"
      },
      "geometry": {
        "type": "Point",
        "coordinates": [
          -118.3813899,
          34.08684
        ]
      }
    },
    {
      "type": "Feature",
      "properties": {
        "title": "San Vicente (Westbound)",
        "tag": "PU16",
        "stopId": "515"
      },
      "geometry": {
        "type": "Point",
        "coordinates": [
          -118.3844,
          34.0847999
        ]
      }
    },
    {
      "type": "Feature",
      "properties": {
        "title": "Ramage (Westbound)",
        "tag": "PU17_ar",
        "stopId": "516"
      },
      "geometry": {
        "type": "Point",
        "coordinates": [
          -118.38662,
          34.0832799
        ]
      }
    },
    {
      "type": "Feature",
      "properties": {
        "title": "Robertson/La Peer (Eastbound)",
        "tag": "PU18",
        "stopId": "517"
      },
      "geometry": {
        "type": "Point",
        "coordinates": [
          -118.38608,
          34.0833899
        ]
      }
    },
    {
      "type": "Feature",
      "properties": {
        "title": "Hancock (Eastbound)",
        "tag": "PU20",
        "stopId": "519"
      },
      "geometry": {
        "type": "Point",
        "coordinates": [
          -118.3809299,
          34.0869
        ]
      }
    },
    {
      "type": "Feature",
      "properties": {
        "title": "Orlando (Eastbound)",
        "tag": "PU23",
        "stopId": "522"
      },
      "geometry": {
        "type": "Point",
        "coordinates": [
          -118.3732599,
          34.09059
        ]
      }
    },
    {
      "type": "Feature",
      "properties": {
        "title": "La Jolla (Eastbound)",
        "tag": "PU25",
        "stopId": "524"
      },
      "geometry": {
        "type": "Point",
        "coordinates": [
          -118.3679299,
          34.0907
        ]
      }
    },
    {
      "type": "Feature",
      "properties": {
        "title": "Spaulding (Eastbound)",
        "tag": "PU28",
        "stopId": "527"
      },
      "geometry": {
        "type": "Point",
        "coordinates": [
          -118.3576599,
          34.0907499
        ]
      }
    },
    {
      "type": "Feature",
      "properties": {
        "title": "Vista (Eastbound)",
        "tag": "PU30",
        "stopId": "529"
      },
      "geometry": {
        "type": "Point",
        "coordinates": [
          -118.35245,
          34.09073
        ]
      }
    },
    {
      "type": "Feature",
      "properties": {
        "title": "Formosa (Eastbound)",
        "tag": "PU31_ar",
        "stopId": "530"
      },
      "geometry": {
        "type": "Point",
        "coordinates": [
          -118.34636,
          34.0906799
        ]
      }
    },
    {
      "type": "Feature",
      "properties": {
        "title": "San Vicente/Santa Monica Blvd.",
        "tag": "SUN14",
        "stopId": "813"
      },
      "geometry": {
        "type": "Point",
        "coordinates": [
          -118.38417,
          34.0852699
        ]
      }
    },
    {
      "type": "Feature",
      "properties": {
        "title": "San Vicente/Cynthia",
        "tag": "SUN15",
        "stopId": "814"
      },
      "geometry": {
        "type": "Point",
        "coordinates": [
          -118.38532,
          34.0870999
        ]
      }
    },
    {
      "type": "Feature",
      "properties": {
        "title": "San Vicente/Sunset",
        "tag": "SUN16",
        "stopId": "815"
      },
      "geometry": {
        "type": "Point",
        "coordinates": [
          -118.38542,
          34.09045
        ]
      }
    },
    {
      "type": "Feature",
      "properties": {
        "title": "Sunset/Horn",
        "tag": "SUN17",
        "stopId": "816"
      },
      "geometry": {
        "type": "Point",
        "coordinates": [
          -118.3829199,
          34.09082
        ]
      }
    },
    {
      "type": "Feature",
      "properties": {
        "title": "Sunset/Sunset Plaza",
        "tag": "SUN18",
        "stopId": "817"
      },
      "geometry": {
        "type": "Point",
        "coordinates": [
          -118.37965,
          34.0921799
        ]
      }
    },
    {
      "type": "Feature",
      "properties": {
        "title": "Sunset/Alta Loma",
        "tag": "SUN19",
        "stopId": "818"
      },
      "geometry": {
        "type": "Point",
        "coordinates": [
          -118.3779599,
          34.09318
        ]
      }
    },
    {
      "type": "Feature",
      "properties": {
        "title": "Sunset/La Cienega",
        "tag": "SUN20",
        "stopId": "819"
      },
      "geometry": {
        "type": "Point",
        "coordinates": [
          -118.3764799,
          34.09415
        ]
      }
    },
    {
      "type": "Feature",
      "properties": {
        "title": "Sunset/Kings Rd.",
        "tag": "SUN21",
        "stopId": "820"
      },
      "geometry": {
        "type": "Point",
        "coordinates": [
          -118.3727899,
          34.09509
        ]
      }
    },
    {
      "type": "Feature",
      "properties": {
        "title": "Sunset/Sweetzer",
        "tag": "SUN22",
        "stopId": "821"
      },
      "geometry": {
        "type": "Point",
        "coordinates": [
          -118.3704,
          34.09637
        ]
      }
    },
    {
      "type": "Feature",
      "properties": {
        "title": "Crescent Heights/Sunset",
        "tag": "SUN23",
        "stopId": "822"
      },
      "geometry": {
        "type": "Point",
        "coordinates": [
          -118.3660399,
          34.09704
        ]
      }
    },
    {
      "type": "Feature",
      "properties": {
        "title": "Fairfax/Santa Monica Blvd.",
        "tag": "SUN25_ar",
        "stopId": "824"
      },
      "geometry": {
        "type": "Point",
        "coordinates": [
          -118.36132,
          34.0911099
        ]
      }
    },
    {
      "type": "Feature",
      "properties": {
        "title": "Fairfax/Fountain",
        "tag": "SUN1",
        "stopId": "800"
      },
      "geometry": {
        "type": "Point",
        "coordinates": [
          -118.36138,
          34.0947499
        ]
      }
    },
    {
      "type": "Feature",
      "properties": {
        "title": "Sunset/Fairfax",
        "tag": "SUN2",
        "stopId": "801"
      },
      "geometry": {
        "type": "Point",
        "coordinates": [
          -118.3618699,
          34.0981799
        ]
      }
    },
    {
      "type": "Feature",
      "properties": {
        "title": "Sunset/Crescent Heights",
        "tag": "SUN3",
        "stopId": "802"
      },
      "geometry": {
        "type": "Point",
        "coordinates": [
          -118.36548,
          34.0981399
        ]
      }
    },
    {
      "type": "Feature",
      "properties": {
        "title": "Sunset/Harper",
        "tag": "SUN4",
        "stopId": "803"
      },
      "geometry": {
        "type": "Point",
        "coordinates": [
          -118.36897,
          34.0973599
        ]
      }
    },
    {
      "type": "Feature",
      "properties": {
        "title": "Sunset/Sweetzer",
        "tag": "SUN5",
        "stopId": "804"
      },
      "geometry": {
        "type": "Point",
        "coordinates": [
          -118.3708299,
          34.09648
        ]
      }
    },
    {
      "type": "Feature",
      "properties": {
        "title": "Sunset/Kings Rd.",
        "tag": "SUN6",
        "stopId": "805"
      },
      "geometry": {
        "type": "Point",
        "coordinates": [
          -118.3725899,
          34.0954199
        ]
      }
    },
    {
      "type": "Feature",
      "properties": {
        "title": "Sunset/Miller",
        "tag": "SUN7",
        "stopId": "806"
      },
      "geometry": {
        "type": "Point",
        "coordinates": [
          -118.3768399,
          34.09424
        ]
      }
    },
    {
      "type": "Feature",
      "properties": {
        "title": "Sunset/Sunset Plaza",
        "tag": "SUN8",
        "stopId": "807"
      },
      "geometry": {
        "type": "Point",
        "coordinates": [
          -118.3795199,
          34.09254
        ]
      }
    },
    {
      "type": "Feature",
      "properties": {
        "title": "Sunset/Horn",
        "tag": "SUN9",
        "stopId": "808"
      },
      "geometry": {
        "type": "Point",
        "coordinates": [
          -118.3832199,
          34.09092
        ]
      }
    },
    {
      "type": "Feature",
      "properties": {
        "title": "Sunset/Clark",
        "tag": "SUN10",
        "stopId": "809"
      },
      "geometry": {
        "type": "Point",
        "coordinates": [
          -118.3853699,
          34.0907699
        ]
      }
    },
    {
      "type": "Feature",
      "properties": {
        "title": "Sunset/Hammond",
        "tag": "SUN11",
        "stopId": "810"
      },
      "geometry": {
        "type": "Point",
        "coordinates": [
          -118.3874599,
          34.09076
        ]
      }
    },
    {
      "type": "Feature",
      "properties": {
        "title": "Melrose/Robertson",
        "tag": "SUN12",
        "stopId": "811"
      },
      "geometry": {
        "type": "Point",
        "coordinates": [
          -118.3856099,
          34.08077
        ]
      }
    },
    {
      "type": "Feature",
      "properties": {
        "title": "San Vicente/Melrose",
        "tag": "SE7_ar",
        "stopId": "102"
      },
      "geometry": {
        "type": "Point",
        "coordinates": [
          -118.3832,
          34.0815899
        ]
      }
    }
  ],
  "copyright": "All data copyright City of West Hollywood 2018."
}