{
  "type": "FeatureCollection",
  "features": [
    {
      "type": "Feature",
      "properties": {
        "title": "Gracie Allen/Cedars Sinai",
        "tag": "S62",
        "stopId": "313"
      },
      "geometry": {
        "type": "Point",
        "coordinates": [
          -118.38058,
          34.0752299
        ]
      }
    },
    {
      "type": "Feature",
      "properties": {
        "title": "San Vicente/Beverly",
        "tag": "S1",
        "stopId": "101"
      },
      "geometry": {
        "type": "Point",
        "coordinates": [
          -118.37945,
          34.07694
        ]
      }
    },
    {
      "type": "Feature",
      "properties": {
        "title": "San Vicente/Melrose",
        "tag": "S2",
        "stopId": "102"
      },
      "geometry": {
        "type": "Point",
        "coordinates": [
          -118.3833199,
          34.0818699
        ]
      }
    },
    {
      "type": "Feature",
      "properties": {
        "title": "820 San Vicente",
        "tag": "S56",
        "stopId": "307"
      },
      "geometry": {
        "type": "Point",
        "coordinates": [
          -118.38417,
          34.0852699
        ]
      }
    },
    {
      "type": "Feature",
      "properties": {
        "title": "San Vicente/Cynthia",
        "tag": "S3",
        "stopId": "109"
      },
      "geometry": {
        "type": "Point",
        "coordinates": [
          -118.38532,
          34.0870899
        ]
      }
    },
    {
      "type": "Feature",
      "properties": {
        "title": "San Vicente at Sunset",
        "tag": "S58",
        "stopId": "309"
      },
      "geometry": {
        "type": "Point",
        "coordinates": [
          -118.38542,
          34.09045
        ]
      }
    },
    {
      "type": "Feature",
      "properties": {
        "title": "Holloway/Palm",
        "tag": "S59",
        "stopId": "310"
      },
      "geometry": {
        "type": "Point",
        "coordinates": [
          -118.38306,
          34.09061
        ]
      }
    },
    {
      "type": "Feature",
      "properties": {
        "title": "959 Palm",
        "tag": "S60",
        "stopId": "311"
      },
      "geometry": {
        "type": "Point",
        "coordinates": [
          -118.383,
          34.0891199
        ]
      }
    },
    {
      "type": "Feature",
      "properties": {
        "title": "Santa Monica/San Vicente",
        "tag": "S46",
        "stopId": "224"
      },
      "geometry": {
        "type": "Point",
        "coordinates": [
          -118.3844,
          34.0849599
        ]
      }
    },
    {
      "type": "Feature",
      "properties": {
        "title": "Pavillions",
        "tag": "S61",
        "stopId": "312"
      },
      "geometry": {
        "type": "Point",
        "coordinates": [
          -118.38662,
          34.0832799
        ]
      }
    },
    {
      "type": "Feature",
      "properties": {
        "title": "Santa Monica/San Vicente",
        "tag": "S66",
        "stopId": "407"
      },
      "geometry": {
        "type": "Point",
        "coordinates": [
          -118.3836299,
          34.08491
        ]
      }
    },
    {
      "type": "Feature",
      "properties": {
        "title": "838 N.W. Knoll",
        "tag": "S54",
        "stopId": "305"
      },
      "geometry": {
        "type": "Point",
        "coordinates": [
          -118.37755,
          34.0859999
        ]
      }
    },
    {
      "type": "Feature",
      "properties": {
        "title": "Rugby/Westbourne",
        "tag": "S55",
        "stopId": "306"
      },
      "geometry": {
        "type": "Point",
        "coordinates": [
          -118.3793099,
          34.0868899
        ]
      }
    },
    {
      "type": "Feature",
      "properties": {
        "title": "Santa Monica/Westbourne",
        "tag": "S67",
        "stopId": "408"
      },
      "geometry": {
        "type": "Point",
        "coordinates": [
          -118.3794499,
          34.08754
        ]
      }
    },
    {
      "type": "Feature",
      "properties": {
        "title": "Santa Monica/La Cienega",
        "tag": "S68",
        "stopId": "409"
      },
      "geometry": {
        "type": "Point",
        "coordinates": [
          -118.37608,
          34.0893299
        ]
      }
    },
    {
      "type": "Feature",
      "properties": {
        "title": "Santa Monica/Croft",
        "tag": "S4",
        "stopId": "115"
      },
      "geometry": {
        "type": "Point",
        "coordinates": [
          -118.37449,
          34.0902899
        ]
      }
    },
    {
      "type": "Feature",
      "properties": {
        "title": "Santa Monica/Kings Rd",
        "tag": "S5",
        "stopId": "116"
      },
      "geometry": {
        "type": "Point",
        "coordinates": [
          -118.37202,
          34.09061
        ]
      }
    },
    {
      "type": "Feature",
      "properties": {
        "title": "Kings/Romaine",
        "tag": "S6",
        "stopId": "117"
      },
      "geometry": {
        "type": "Point",
        "coordinates": [
          -118.3718499,
          34.08909
        ]
      }
    },
    {
      "type": "Feature",
      "properties": {
        "title": "801 N. Kings Rd.",
        "tag": "S7",
        "stopId": "118"
      },
      "geometry": {
        "type": "Point",
        "coordinates": [
          -118.37193,
          34.0855999
        ]
      }
    },
    {
      "type": "Feature",
      "properties": {
        "title": "Sweetzer/Willoughby",
        "tag": "S65",
        "stopId": "406"
      },
      "geometry": {
        "type": "Point",
        "coordinates": [
          -118.37015,
          34.0874399
        ]
      }
    },
    {
      "type": "Feature",
      "properties": {
        "title": "Sweetzer/Santa Monica",
        "tag": "S8",
        "stopId": "119"
      },
      "geometry": {
        "type": "Point",
        "coordinates": [
          -118.3701799,
          34.0905699
        ]
      }
    },
    {
      "type": "Feature",
      "properties": {
        "title": "Santa Monica/La Jolla",
        "tag": "S9",
        "stopId": "120"
      },
      "geometry": {
        "type": "Point",
        "coordinates": [
          -118.3677899,
          34.09063
        ]
      }
    },
    {
      "type": "Feature",
      "properties": {
        "title": "Crescent Heights/Norton",
        "tag": "S10",
        "stopId": "121"
      },
      "geometry": {
        "type": "Point",
        "coordinates": [
          -118.36584,
          34.09165
        ]
      }
    },
    {
      "type": "Feature",
      "properties": {
        "title": "Crescent Heights/Fountain",
        "tag": "S11",
        "stopId": "122"
      },
      "geometry": {
        "type": "Point",
        "coordinates": [
          -118.36581,
          34.09428
        ]
      }
    },
    {
      "type": "Feature",
      "properties": {
        "title": "Fountain/Laurel",
        "tag": "S12",
        "stopId": "123"
      },
      "geometry": {
        "type": "Point",
        "coordinates": [
          -118.3642299,
          34.09437
        ]
      }
    },
    {
      "type": "Feature",
      "properties": {
        "title": "Fairfax/Fountain",
        "tag": "S13",
        "stopId": "124"
      },
      "geometry": {
        "type": "Point",
        "coordinates": [
          -118.3616999,
          34.0941999
        ]
      }
    },
    {
      "type": "Feature",
      "properties": {
        "title": "Fairfax/Norton",
        "tag": "S14",
        "stopId": "125"
      },
      "geometry": {
        "type": "Point",
        "coordinates": [
          -118.3616199,
          34.09191
        ]
      }
    },
    {
      "type": "Feature",
      "properties": {
        "title": "Santa Monica/Fairfax",
        "tag": "S15",
        "stopId": "126"
      },
      "geometry": {
        "type": "Point",
        "coordinates": [
          -118.36089,
          34.0907499
        ]
      }
    },
    {
      "type": "Feature",
      "properties": {
        "title": "Santa Monica/Spaulding",
        "tag": "S16",
        "stopId": "127"
      },
      "geometry": {
        "type": "Point",
        "coordinates": [
          -118.3575799,
          34.0906899
        ]
      }
    },
    {
      "type": "Feature",
      "properties": {
        "title": "Santa Monica/Sierra Bonita",
        "tag": "S69",
        "stopId": "410"
      },
      "geometry": {
        "type": "Point",
        "coordinates": [
          -118.35443,
          34.0906599
        ]
      }
    },
    {
      "type": "Feature",
      "properties": {
        "title": "Willoughby/Gardner",
        "tag": "S51",
        "stopId": "302"
      },
      "geometry": {
        "type": "Point",
        "coordinates": [
          -118.35361,
          34.08706
        ]
      }
    },
    {
      "type": "Feature",
      "properties": {
        "title": "Curson/Romaine",
        "tag": "S52",
        "stopId": "303"
      },
      "geometry": {
        "type": "Point",
        "coordinates": [
          -118.35526,
          34.089
        ]
      }
    },
    {
      "type": "Feature",
      "properties": {
        "title": "Curson/Santa Monica",
        "tag": "S53",
        "stopId": "304"
      },
      "geometry": {
        "type": "Point",
        "coordinates": [
          -118.35526,
          34.09071
        ]
      }
    },
    {
      "type": "Feature",
      "properties": {
        "title": "Curson/Norton",
        "tag": "S17",
        "stopId": "132"
      },
      "geometry": {
        "type": "Point",
        "coordinates": [
          -118.3549,
          34.09162
        ]
      }
    },
    {
      "type": "Feature",
      "properties": {
        "title": "Curson/Lexington",
        "tag": "S18",
        "stopId": "133"
      },
      "geometry": {
        "type": "Point",
        "coordinates": [
          -118.3548899,
          34.09246
        ]
      }
    },
    {
      "type": "Feature",
      "properties": {
        "title": "Gardner/Fountain",
        "tag": "S19",
        "stopId": "134"
      },
      "geometry": {
        "type": "Point",
        "coordinates": [
          -118.35277,
          34.09429
        ]
      }
    },
    {
      "type": "Feature",
      "properties": {
        "title": "Fountain/Vista",
        "tag": "S20",
        "stopId": "135"
      },
      "geometry": {
        "type": "Point",
        "coordinates": [
          -118.35193,
          34.09431
        ]
      }
    },
    {
      "type": "Feature",
      "properties": {
        "title": "Plummer Park/Fuller",
        "tag": "S21",
        "stopId": "136"
      },
      "geometry": {
        "type": "Point",
        "coordinates": [
          -118.35019,
          34.0928199
        ]
      }
    },
    {
      "type": "Feature",
      "properties": {
        "title": "Santa Monica/Fuller",
        "tag": "S22",
        "stopId": "137"
      },
      "geometry": {
        "type": "Point",
        "coordinates": [
          -118.3495399,
          34.09065
        ]
      }
    },
    {
      "type": "Feature",
      "properties": {
        "title": "Formosa/Santa Monica",
        "tag": "S23",
        "stopId": "138"
      },
      "geometry": {
        "type": "Point",
        "coordinates": [
          -118.34616,
          34.09108
        ]
      }
    },
    {
      "type": "Feature",
      "properties": {
        "title": "La Brea/Fountain",
        "tag": "S50_ar",
        "stopId": "300"
      },
      "geometry": {
        "type": "Point",
        "coordinates": [
          -118.3442,
          34.0941499
        ]
      }
    },
    {
      "type": "Feature",
      "properties": {
        "title": "La Brea/Fountain",
        "tag": "S50",
        "stopId": "300"
      },
      "geometry": {
        "type": "Point",
        "coordinates": [
          -118.3442,
          34.0941499
        ]
      }
    },
    {
      "type": "Feature",
      "properties": {
        "title": "Santa Monica/La Brea",
        "tag": "S79",
        "stopId": "602"
      },
      "geometry": {
        "type": "Point",
        "coordinates": [
          -118.3445699,
          34.0908499
        ]
      }
    },
    {
      "type": "Feature",
      "properties": {
        "title": "Santa Monica/Formosa",
        "tag": "S24",
        "stopId": "201"
      },
      "geometry": {
        "type": "Point",
        "coordinates": [
          -118.3465599,
          34.0908599
        ]
      }
    },
    {
      "type": "Feature",
      "properties": {
        "title": "Santa Monica/Fuller",
        "tag": "S25",
        "stopId": "202"
      },
      "geometry": {
        "type": "Point",
        "coordinates": [
          -118.3503999,
          34.0908899
        ]
      }
    },
    {
      "type": "Feature",
      "properties": {
        "title": "Vista/Lexington",
        "tag": "S26",
        "stopId": "203"
      },
      "geometry": {
        "type": "Point",
        "coordinates": [
          -118.35176,
          34.0925299
        ]
      }
    },
    {
      "type": "Feature",
      "properties": {
        "title": "Gardner/Fountain",
        "tag": "S27",
        "stopId": "204"
      },
      "geometry": {
        "type": "Point",
        "coordinates": [
          -118.3529299,
          34.0942899
        ]
      }
    },
    {
      "type": "Feature",
      "properties": {
        "title": "Gardner/Lexington",
        "tag": "S28",
        "stopId": "205"
      },
      "geometry": {
        "type": "Point",
        "coordinates": [
          -118.3529399,
          34.09291
        ]
      }
    },
    {
      "type": "Feature",
      "properties": {
        "title": "Lexington/Curson",
        "tag": "S29",
        "stopId": "206"
      },
      "geometry": {
        "type": "Point",
        "coordinates": [
          -118.3548399,
          34.09265
        ]
      }
    },
    {
      "type": "Feature",
      "properties": {
        "title": "Curson/Norton",
        "tag": "S30",
        "stopId": "207"
      },
      "geometry": {
        "type": "Point",
        "coordinates": [
          -118.3551499,
          34.0915899
        ]
      }
    },
    {
      "type": "Feature",
      "properties": {
        "title": "Santa Monica/Spaulding",
        "tag": "S31",
        "stopId": "208"
      },
      "geometry": {
        "type": "Point",
        "coordinates": [
          -118.3571099,
          34.0909299
        ]
      }
    },
    {
      "type": "Feature",
      "properties": {
        "title": "Santa Monica/Genessee",
        "tag": "S32",
        "stopId": "209"
      },
      "geometry": {
        "type": "Point",
        "coordinates": [
          -118.3583599,
          34.0909499
        ]
      }
    },
    {
      "type": "Feature",
      "properties": {
        "title": "Santa Monica/Ogden",
        "tag": "S33",
        "stopId": "210"
      },
      "geometry": {
        "type": "Point",
        "coordinates": [
          -118.3590399,
          34.09093
        ]
      }
    },
    {
      "type": "Feature",
      "properties": {
        "title": "Santa Monica/Fairfax",
        "tag": "S34",
        "stopId": "211"
      },
      "geometry": {
        "type": "Point",
        "coordinates": [
          -118.36133,
          34.0909199
        ]
      }
    },
    {
      "type": "Feature",
      "properties": {
        "title": "1222 N. Fairfax",
        "tag": "S35",
        "stopId": "212"
      },
      "geometry": {
        "type": "Point",
        "coordinates": [
          -118.36131,
          34.09226
        ]
      }
    },
    {
      "type": "Feature",
      "properties": {
        "title": "Fountain/Hayworth",
        "tag": "S36",
        "stopId": "213"
      },
      "geometry": {
        "type": "Point",
        "coordinates": [
          -118.36274,
          34.0945299
        ]
      }
    },
    {
      "type": "Feature",
      "properties": {
        "title": "Crescent Heights/Fountain",
        "tag": "S37",
        "stopId": "214"
      },
      "geometry": {
        "type": "Point",
        "coordinates": [
          -118.3660399,
          34.0941399
        ]
      }
    },
    {
      "type": "Feature",
      "properties": {
        "title": "Crescent Heights/Santa Monica",
        "tag": "S38",
        "stopId": "215"
      },
      "geometry": {
        "type": "Point",
        "coordinates": [
          -118.3661799,
          34.09135
        ]
      }
    },
    {
      "type": "Feature",
      "properties": {
        "title": "Santa Monica/La Jolla",
        "tag": "S63",
        "stopId": "400"
      },
      "geometry": {
        "type": "Point",
        "coordinates": [
          -118.36787,
          34.0908799
        ]
      }
    },
    {
      "type": "Feature",
      "properties": {
        "title": "Sweetzer/Santa Monica",
        "tag": "S64",
        "stopId": "401"
      },
      "geometry": {
        "type": "Point",
        "coordinates": [
          -118.3703899,
          34.09049
        ]
      }
    },
    {
      "type": "Feature",
      "properties": {
        "title": "Sweetzer/Willoughby",
        "tag": "S39",
        "stopId": "216"
      },
      "geometry": {
        "type": "Point",
        "coordinates": [
          -118.3703999,
          34.08742
        ]
      }
    },
    {
      "type": "Feature",
      "properties": {
        "title": "800 N. Kings Road",
        "tag": "S40",
        "stopId": "217"
      },
      "geometry": {
        "type": "Point",
        "coordinates": [
          -118.37162,
          34.0855999
        ]
      }
    },
    {
      "type": "Feature",
      "properties": {
        "title": "Kings Rd./Romaine",
        "tag": "S41",
        "stopId": "218"
      },
      "geometry": {
        "type": "Point",
        "coordinates": [
          -118.37169,
          34.0891199
        ]
      }
    },
    {
      "type": "Feature",
      "properties": {
        "title": "Kings Rd./Santa Monica Blvd.",
        "tag": "S42",
        "stopId": "219"
      },
      "geometry": {
        "type": "Point",
        "coordinates": [
          -118.37168,
          34.09054
        ]
      }
    },
    {
      "type": "Feature",
      "properties": {
        "title": "Santa Monica/Kings Rd",
        "tag": "S43",
        "stopId": "220"
      },
      "geometry": {
        "type": "Point",
        "coordinates": [
          -118.3720499,
          34.0907799
        ]
      }
    },
    {
      "type": "Feature",
      "properties": {
        "title": "Santa Monica/La Cienega",
        "tag": "S70",
        "stopId": "411"
      },
      "geometry": {
        "type": "Point",
        "coordinates": [
          -118.3760399,
          34.08988
        ]
      }
    },
    {
      "type": "Feature",
      "properties": {
        "title": "Santa Monica/West Knoll",
        "tag": "S44",
        "stopId": "222"
      },
      "geometry": {
        "type": "Point",
        "coordinates": [
          -118.3779999,
          34.08878
        ]
      }
    },
    {
      "type": "Feature",
      "properties": {
        "title": "Santa Monica/Hancock",
        "tag": "S45",
        "stopId": "223"
      },
      "geometry": {
        "type": "Point",
        "coordinates": [
          -118.3818399,
          34.0867
        ]
      }
    },
    {
      "type": "Feature",
      "properties": {
        "title": "San Vicente/Cynthia",
        "tag": "S57",
        "stopId": "308"
      },
      "geometry": {
        "type": "Point",
        "coordinates": [
          -118.3855499,
          34.0870699
        ]
      }
    },
    {
      "type": "Feature",
      "properties": {
        "title": "San Vicente/Santa Monica",
        "tag": "S47",
        "stopId": "225"
      },
      "geometry": {
        "type": "Point",
        "coordinates": [
          -118.3839199,
          34.0844499
        ]
      }
    },
    {
      "type": "Feature",
      "properties": {
        "title": "Library",
        "tag": "S48",
        "stopId": "226"
      },
      "geometry": {
        "type": "Point",
        "coordinates": [
          -118.38365,
          34.0820499
        ]
      }
    },
    {
      "type": "Feature",
      "properties": {
        "title": "San Vicente/Beverly",
        "tag": "S49",
        "stopId": "227"
      },
      "geometry": {
        "type": "Point",
        "coordinates": [
          -118.37968,
          34.07686
        ]
      }
    },
    {
      "type": "Feature",
      "properties": {
        "title": "Gracie Allen/Cedars Sinai",
        "tag": "S62_ar",
        "stopId": "313"
      },
      "geometry": {
        "type": "Point",
        "coordinates": [
          -118.38058,
          34.0752299
        ]
      }
    },
    {
      "type": "Feature",
      "properties": {
        "title": "Santa Monica/Sweetzer",
        "tag": "S76",
        "stopId": "523"
      },
      "geometry": {
        "type": "Point",
        "coordinates": [
          -118.37044,
          34.0905899
        ]
      }
    },
    {
      "type": "Feature",
      "properties": {
        "title": "Santa Monica/Crescent Heights",
        "tag": "S77",
        "stopId": "525"
      },
      "geometry": {
        "type": "Point",
        "coordinates": [
          -118.36559,
          34.0906499
        ]
      }
    },
    {
      "type": "Feature",
      "properties": {
        "title": "Santa Monica/Fairfax",
        "tag": "S78",
        "stopId": "526"
      },
      "geometry": {
        "type": "Point",
        "coordinates": [
          -118.36171,
          34.0906999
        ]
      }
    },
    {
      "type": "Feature",
      "properties": {
        "title": "Santa Monica/La Brea",
        "tag": "S86",
        "stopId": "609"
      },
      "geometry": {
        "type": "Point",
        "coordinates": [
          -118.3443,
          34.0905899
        ]
      }
    },
    {
      "type": "Feature",
      "properties": {
        "title": "La Brea/Fountain",
        "tag": "S71",
        "stopId": "412"
      },
      "geometry": {
        "type": "Point",
        "coordinates": [
          -118.34393,
          34.0941499
        ]
      }
    },
    {
      "type": "Feature",
      "properties": {
        "title": "Hollywood/Highland",
        "tag": "S80_ar",
        "stopId": "603"
      },
      "geometry": {
        "type": "Point",
        "coordinates": [
          -118.33882,
          34.1011699
        ]
      }
    },
    {
      "type": "Feature",
      "properties": {
        "title": "Hollywood/Highland",
        "tag": "S80",
        "stopId": "603"
      },
      "geometry": {
        "type": "Point",
        "coordinates": [
          -118.33882,
          34.1011699
        ]
      }
    },
    {
      "type": "Feature",
      "properties": {
        "title": "Santa Monica/Gardner",
        "tag": "S72",
        "stopId": "503"
      },
      "geometry": {
        "type": "Point",
        "coordinates": [
          -118.35357,
          34.0909099
        ]
      }
    },
    {
      "type": "Feature",
      "properties": {
        "title": "Santa Monica/Crescent Heights",
        "tag": "S73",
        "stopId": "507"
      },
      "geometry": {
        "type": "Point",
        "coordinates": [
          -118.36575,
          34.0909099
        ]
      }
    },
    {
      "type": "Feature",
      "properties": {
        "title": "Santa Monica/Sweetzer",
        "tag": "S74",
        "stopId": "509"
      },
      "geometry": {
        "type": "Point",
        "coordinates": [
          -118.37062,
          34.0908499
        ]
      }
    },
    {
      "type": "Feature",
      "properties": {
        "title": "Santa Monica/Westbourne",
        "tag": "S75",
        "stopId": "513"
      },
      "geometry": {
        "type": "Point",
        "coordinates": [
          -118.38005,
          34.0877299
        ]
      }
    },
    {
      "type": "Feature",
      "properties": {
        "title": "Library",
        "tag": "S48_ar",
        "stopId": "226"
      },
      "geometry": {
        "type": "Point",
        "coordinates": [
          -118.38365,
          34.0820499
        ]
      }
    },
    {
      "type": "Feature",
      "properties": {
        "title": "Santa Monica/Fairfax",
        "tag": "S34_ar",
        "stopId": "211"
      },
      "geometry": {
        "type": "Point",
        "coordinates": [
          -118.36133,
          34.0909199
        ]
      }
    },
    {
      "type": "Feature",
      "properties": {
        "title": "Santa Monica/La Peer",
        "tag": "S81",
        "stopId": "604"
      },
      "geometry": {
        "type": "Point",
        "coordinates": [
          -118.38651,
          34.0831199
        ]
      }
    },
    {
      "type": "Feature",
      "properties": {
        "title": "Santa Monica/Hancock",
        "tag": "S82",
        "stopId": "605"
      },
      "geometry": {
        "type": "Point",
        "coordinates": [
          -118.38107,
          34.08666
        ]
      }
    },
    {
      "type": "Feature",
      "properties": {
        "title": "Santa Monica/Orlando",
        "tag": "S83",
        "stopId": "606"
      },
      "geometry": {
        "type": "Point",
        "coordinates": [
          -118.37326,
          34.09059
        ]
      }
    },
    {
      "type": "Feature",
      "properties": {
        "title": "Santa Monica/Vista",
        "tag": "S84",
        "stopId": "607"
      },
      "geometry": {
        "type": "Point",
        "coordinates": [
          -118.35214,
          34.09064
        ]
      }
    },
    {
      "type": "Feature",
      "properties": {
        "title": "Santa Monica/Formosa",
        "tag": "S85",
        "stopId": "608"
      },
      "geometry": {
        "type": "Point",
        "coordinates": [
          -118.3464,
          34.09061
        ]
      }
    },
    {
      "type": "Feature",
      "properties": {
        "title": "Santa Monica/La Brea",
        "tag": "S86_ar",
        "stopId": "609"
      },
      "geometry": {
        "type": "Point",
        "coordinates": [
          -118.3443,
          34.0905899
        ]
      }
    },
    {
      "type": "Feature",
      "properties": {
        "title": "Santa Monica/Greenacre",
        "tag": "S87",
        "stopId": "610"
      },
      "geometry": {
        "type": "Point",
        "coordinates": [
          -118.3493499,
          34.09078
        ]
      }
    },
    {
      "type": "Feature",
      "properties": {
        "title": "Pavillions",
        "tag": "S61_ar",
        "stopId": "312"
      },
      "geometry": {
        "type": "Point",
        "coordinates": [
          -118.38662,
          34.0832799
        ]
      }
    },
    {
      "type": "Feature",
      "properties": {
        "title": "Sunset/Horn",
        "tag": "SUN17",
        "stopId": "816"
      },
      "geometry": {
        "type": "Point",
        "coordinates": [
          -118.38292,
          34.09082
        ]
      }
    },
    {
      "type": "Feature",
      "properties": {
        "title": "Sunset/Sunset Plaza",
        "tag": "SUN18",
        "stopId": "817"
      },
      "geometry": {
        "type": "Point",
        "coordinates": [
          -118.3796499,
          34.09218
        ]
      }
    },
    {
      "type": "Feature",
      "properties": {
        "title": "Sunset/Alta Loma",
        "tag": "SUN19",
        "stopId": "818"
      },
      "geometry": {
        "type": "Point",
        "coordinates": [
          -118.37796,
          34.0931799
        ]
      }
    },
    {
      "type": "Feature",
      "properties": {
        "title": "Sunset/La Cienega",
        "tag": "SUN20",
        "stopId": "819"
      },
      "geometry": {
        "type": "Point",
        "coordinates": [
          -118.3764799,
          34.09415
        ]
      }
    },
    {
      "type": "Feature",
      "properties": {
        "title": "Sunset/Kings Rd.",
        "tag": "SUN21",
        "stopId": "820"
      },
      "geometry": {
        "type": "Point",
        "coordinates": [
          -118.3727899,
          34.09509
        ]
      }
    },
    {
      "type": "Feature",
      "properties": {
        "title": "Sunset/Sweetzer",
        "tag": "SUN22",
        "stopId": "821"
      },
      "geometry": {
        "type": "Point",
        "coordinates": [
          -118.3704,
          34.09637
        ]
      }
    },
    {
      "type": "Feature",
      "properties": {
        "title": "Crescent Heights/Sunset",
        "tag": "SUN23",
        "stopId": "822"
      },
      "geometry": {
        "type": "Point",
        "coordinates": [
          -118.3660399,
          34.0970399
        ]
      }
    },
    {
      "type": "Feature",
      "properties": {
        "title": "Santa Monica/Crescent Heights",
        "tag": "S77_ar",
        "stopId": "525"
      },
      "geometry": {
        "type": "Point",
        "coordinates": [
          -118.36559,
          34.0906499
        ]
      }
    },
    {
      "type": "Feature",
      "properties": {
        "title": "Fairfax/Santa Monica Blvd.",
        "tag": "SUN25",
        "stopId": "824"
      },
      "geometry": {
        "type": "Point",
        "coordinates": [
          -118.36132,
          34.0911099
        ]
      }
    },
    {
      "type": "Feature",
      "properties": {
        "title": "Fairfax/Fountain",
        "tag": "SUN1",
        "stopId": "800"
      },
      "geometry": {
        "type": "Point",
        "coordinates": [
          -118.36138,
          34.09475
        ]
      }
    },
    {
      "type": "Feature",
      "properties": {
        "title": "Sunset/Fairfax",
        "tag": "SUN2",
        "stopId": "801"
      },
      "geometry": {
        "type": "Point",
        "coordinates": [
          -118.36187,
          34.0981799
        ]
      }
    },
    {
      "type": "Feature",
      "properties": {
        "title": "Sunset/Crescent Heights",
        "tag": "SUN3",
        "stopId": "802"
      },
      "geometry": {
        "type": "Point",
        "coordinates": [
          -118.3654799,
          34.0981399
        ]
      }
    },
    {
      "type": "Feature",
      "properties": {
        "title": "Sunset/Harper",
        "tag": "SUN4",
        "stopId": "803"
      },
      "geometry": {
        "type": "Point",
        "coordinates": [
          -118.3689699,
          34.09736
        ]
      }
    },
    {
      "type": "Feature",
      "properties": {
        "title": "Sunset/Sweetzer",
        "tag": "SUN5",
        "stopId": "804"
      },
      "geometry": {
        "type": "Point",
        "coordinates": [
          -118.3708299,
          34.09648
        ]
      }
    },
    {
      "type": "Feature",
      "properties": {
        "title": "Sunset/Kings Rd.",
        "tag": "SUN6",
        "stopId": "805"
      },
      "geometry": {
        "type": "Point",
        "coordinates": [
          -118.37259,
          34.0954199
        ]
      }
    },
    {
      "type": "Feature",
      "properties": {
        "title": "Sunset/Miller",
        "tag": "SUN7",
        "stopId": "806"
      },
      "geometry": {
        "type": "Point",
        "coordinates": [
          -118.3768399,
          34.09424
        ]
      }
    },
    {
      "type": "Feature",
      "properties": {
        "title": "Sunset/Sunset Plaza",
        "tag": "SUN8",
        "stopId": "807"
      },
      "geometry": {
        "type": "Point",
        "coordinates": [
          -118.3795199,
          34.09254
        ]
      }
    },
    {
      "type": "Feature",
      "properties": {
        "title": "Sunset/Horn",
        "tag": "SUN9",
        "stopId": "808"
      },
      "geometry": {
        "type": "Point",
        "coordinates": [
          -118.38322,
          34.0909199
        ]
      }
    },
    {
      "type": "Feature",
      "properties": {
        "title": "Sunset/Clark",
        "tag": "SUN10",
        "stopId": "809"
      },
      "geometry": {
        "type": "Point",
        "coordinates": [
          -118.3853699,
          34.0907699
        ]
      }
    },
    {
      "type": "Feature",
      "properties": {
        "title": "Sunset/Hammond",
        "tag": "SUN11",
        "stopId": "810"
      },
      "geometry": {
        "type": "Point",
        "coordinates": [
          -118.3874599,
          34.0907599
        ]
      }
    },
    {
      "type": "Feature",
      "properties": {
        "title": "Santa Monica/La Peer",
        "tag": "S81_ar",
        "stopId": "604"
      },
      "geometry": {
        "type": "Point",
        "coordinates": [
          -118.38651,
          34.0831199
        ]
      }
    }
  ],
  "copyright": "All data copyright City of West Hollywood 2020."
}