{
  "data": {
    "S62": {
      "routes": {},
      "lon": "-118.38058",
      "title": "Gracie Allen/Cedars Sinai",
      "stopId": "313",
      "tag": "S62",
      "lat": "34.0752299"
    },
    "S1": {
      "routes": {},
      "lon": "-118.37945",
      "title": "San Vicente/Beverly",
      "stopId": "101",
      "tag": "S1",
      "lat": "34.07694"
    },
    "S2": {
      "routes": {},
      "lon": "-118.38332",
      "title": "San Vicente/Melrose",
      "stopId": "102",
      "tag": "S2",
      "lat": "34.0818699"
    },
    "S56": {
      "routes": {},
      "lon": "-118.3841699",
      "title": "820 San Vicente",
      "stopId": "307",
      "tag": "S56",
      "lat": "34.0852699"
    },
    "S3": {
      "routes": {},
      "lon": "-118.38532",
      "title": "San Vicente/Cynthia",
      "stopId": "109",
      "tag": "S3",
      "lat": "34.0870899"
    },
    "S58": {
      "routes": {},
      "lon": "-118.38542",
      "title": "San Vicente at Sunset",
      "stopId": "309",
      "tag": "S58",
      "lat": "34.09045"
    },
    "S59": {
      "routes": {},
      "lon": "-118.38306",
      "title": "Holloway/Palm",
      "stopId": "310",
      "tag": "S59",
      "lat": "34.09061"
    },
    "S60": {
      "routes": {},
      "lon": "-118.383",
      "title": "959 Palm",
      "stopId": "311",
      "tag": "S60",
      "lat": "34.0891199"
    },
    "S46": {
      "routes": {},
      "lon": "-118.3844",
      "title": "Santa Monica/San Vicente",
      "stopId": "224",
      "tag": "S46",
      "lat": "34.0849599"
    },
    "S61": {
      "routes": {},
      "lon": "-118.38662",
      "title": "Pavillions",
      "stopId": "312",
      "tag": "S61",
      "lat": "34.0832799"
    },
    "S66": {
      "routes": {},
      "lon": "-118.3836299",
      "title": "Santa Monica/San Vicente",
      "stopId": "407",
      "tag": "S66",
      "lat": "34.08491"
    },
    "S54": {
      "routes": {},
      "lon": "-118.37755",
      "title": "838 N.W. Knoll",
      "stopId": "305",
      "tag": "S54",
      "lat": "34.0859999"
    },
    "S55": {
      "routes": {},
      "lon": "-118.3793099",
      "title": "Rugby/Westbourne",
      "stopId": "306",
      "tag": "S55",
      "lat": "34.0868899"
    },
    "S67": {
      "routes": {},
      "lon": "-118.3794499",
      "title": "Santa Monica/Westbourne",
      "stopId": "408",
      "tag": "S67",
      "lat": "34.08754"
    },
    "S68": {
      "routes": {},
      "lon": "-118.37608",
      "title": "Santa Monica/La Cienega",
      "stopId": "409",
      "tag": "S68",
      "lat": "34.0893299"
    },
    "S4": {
      "routes": {},
      "lon": "-118.37449",
      "title": "Santa Monica/Croft",
      "stopId": "115",
      "tag": "S4",
      "lat": "34.0902899"
    },
    "S5": {
      "routes": {},
      "lon": "-118.37202",
      "title": "Santa Monica/Kings Rd",
      "stopId": "116",
      "tag": "S5",
      "lat": "34.09061"
    },
    "S6": {
      "routes": {},
      "lon": "-118.3718499",
      "title": "Kings/Romaine",
      "stopId": "117",
      "tag": "S6",
      "lat": "34.08909"
    },
    "S7": {
      "routes": {},
      "lon": "-118.37193",
      "title": "801 N. Kings Rd.",
      "stopId": "118",
      "tag": "S7",
      "lat": "34.0855999"
    },
    "S65": {
      "routes": {},
      "lon": "-118.37015",
      "title": "Sweetzer/Willoughby",
      "stopId": "406",
      "tag": "S65",
      "lat": "34.0874399"
    },
    "S8": {
      "routes": {},
      "lon": "-118.3701799",
      "title": "Sweetzer/Santa Monica",
      "stopId": "119",
      "tag": "S8",
      "lat": "34.0905699"
    },
    "S9": {
      "routes": {},
      "lon": "-118.3677899",
      "title": "Santa Monica/La Jolla",
      "stopId": "120",
      "tag": "S9",
      "lat": "34.09063"
    },
    "S10": {
      "routes": {},
      "lon": "-118.36584",
      "title": "Crescent Heights/Norton",
      "stopId": "121",
      "tag": "S10",
      "lat": "34.09165"
    },
    "S11": {
      "routes": {},
      "lon": "-118.36581",
      "title": "Crescent Heights/Fountain",
      "stopId": "122",
      "tag": "S11",
      "lat": "34.09428"
    },
    "S12": {
      "routes": {},
      "lon": "-118.3642299",
      "title": "Fountain/Laurel",
      "stopId": "123",
      "tag": "S12",
      "lat": "34.09437"
    },
    "S13": {
      "routes": {},
      "lon": "-118.3616999",
      "title": "Fairfax/Fountain",
      "stopId": "124",
      "tag": "S13",
      "lat": "34.0941999"
    },
    "S14": {
      "routes": {},
      "lon": "-118.3616199",
      "title": "Fairfax/Norton",
      "stopId": "125",
      "tag": "S14",
      "lat": "34.09191"
    },
    "S15": {
      "routes": {},
      "lon": "-118.36089",
      "title": "Santa Monica/Fairfax",
      "stopId": "126",
      "tag": "S15",
      "lat": "34.0907499"
    },
    "S16": {
      "routes": {},
      "lon": "-118.3575799",
      "title": "Santa Monica/Spaulding",
      "stopId": "127",
      "tag": "S16",
      "lat": "34.0906899"
    },
    "S69": {
      "routes": {},
      "lon": "-118.35443",
      "title": "Santa Monica/Sierra Bonita",
      "stopId": "410",
      "tag": "S69",
      "lat": "34.0906599"
    },
    "S51": {
      "routes": {},
      "lon": "-118.35361",
      "title": "Willoughby/Gardner",
      "stopId": "302",
      "tag": "S51",
      "lat": "34.08706"
    },
    "S52": {
      "routes": {},
      "lon": "-118.35526",
      "title": "Curson/Romaine",
      "stopId": "303",
      "tag": "S52",
      "lat": "34.089"
    },
    "S53": {
      "routes": {},
      "lon": "-118.35526",
      "title": "Curson/Santa Monica",
      "stopId": "304",
      "tag": "S53",
      "lat": "34.09071"
    },
    "S17": {
      "routes": {},
      "lon": "-118.3549",
      "title": "Curson/Norton",
      "stopId": "132",
      "tag": "S17",
      "lat": "34.09162"
    },
    "S18": {
      "routes": {},
      "lon": "-118.3548899",
      "title": "Curson/Lexington",
      "stopId": "133",
      "tag": "S18",
      "lat": "34.09246"
    },
    "S19": {
      "routes": {},
      "lon": "-118.35277",
      "title": "Gardner/Fountain",
      "stopId": "134",
      "tag": "S19",
      "lat": "34.09429"
    },
    "S20": {
      "routes": {},
      "lon": "-118.35193",
      "title": "Fountain/Vista",
      "stopId": "135",
      "tag": "S20",
      "lat": "34.09431"
    },
    "S21": {
      "routes": {},
      "lon": "-118.35019",
      "title": "Plummer Park/Fuller",
      "stopId": "136",
      "tag": "S21",
      "lat": "34.0928199"
    },
    "S22": {
      "routes": {},
      "lon": "-118.3495399",
      "title": "Santa Monica/Fuller",
      "stopId": "137",
      "tag": "S22",
      "lat": "34.09065"
    },
    "S23": {
      "routes": {},
      "lon": "-118.34616",
      "title": "Formosa/Santa Monica",
      "stopId": "138",
      "tag": "S23",
      "lat": "34.09108"
    },
    "S50_ar": {
      "routes": {},
      "lon": "-118.3442",
      "title": "La Brea/Fountain",
      "stopId": "300",
      "tag": "S50_ar",
      "lat": "34.0941499"
    },
    "S50": {
      "routes": {},
      "lon": "-118.3442",
      "title": "La Brea/Fountain",
      "stopId": "300",
      "tag": "S50",
      "lat": "34.0941499"
    },
    "S79": {
      "routes": {},
      "lon": "-118.34438",
      "title": "Santa Monica/La Brea",
      "stopId": "602",
      "tag": "S79",
      "lat": "34.0908099"
    },
    "S24": {
      "routes": {},
      "lon": "-118.34666",
      "title": "Santa Monica/Formosa",
      "stopId": "201",
      "tag": "S24",
      "lat": "34.09081"
    },
    "S25": {
      "routes": {},
      "lon": "-118.3503999",
      "title": "Santa Monica/Fuller",
      "stopId": "202",
      "tag": "S25",
      "lat": "34.0908899"
    },
    "S26": {
      "routes": {},
      "lon": "-118.35176",
      "title": "Vista/Lexington",
      "stopId": "203",
      "tag": "S26",
      "lat": "34.0925299"
    },
    "S27": {
      "routes": {},
      "lon": "-118.3529299",
      "title": "Gardner/Fountain",
      "stopId": "204",
      "tag": "S27",
      "lat": "34.0942899"
    },
    "S28": {
      "routes": {},
      "lon": "-118.3529399",
      "title": "Gardner/Lexington",
      "stopId": "205",
      "tag": "S28",
      "lat": "34.09291"
    },
    "S29": {
      "routes": {},
      "lon": "-118.3548399",
      "title": "Lexington/Curson",
      "stopId": "206",
      "tag": "S29",
      "lat": "34.09265"
    },
    "S30": {
      "routes": {},
      "lon": "-118.3551499",
      "title": "Curson/Norton",
      "stopId": "207",
      "tag": "S30",
      "lat": "34.0915899"
    },
    "S31": {
      "routes": {},
      "lon": "-118.3571099",
      "title": "Santa Monica/Spaulding",
      "stopId": "208",
      "tag": "S31",
      "lat": "34.0909299"
    },
    "S32": {
      "routes": {},
      "lon": "-118.3583599",
      "title": "Santa Monica/Genessee",
      "stopId": "209",
      "tag": "S32",
      "lat": "34.0909499"
    },
    "S33": {
      "routes": {},
      "lon": "-118.3590399",
      "title": "Santa Monica/Ogden",
      "stopId": "210",
      "tag": "S33",
      "lat": "34.09093"
    },
    "S34": {
      "routes": {},
      "lon": "-118.36133",
      "title": "Santa Monica/Fairfax",
      "stopId": "211",
      "tag": "S34",
      "lat": "34.0909199"
    },
    "S35": {
      "routes": {},
      "lon": "-118.36131",
      "title": "1222 N. Fairfax",
      "stopId": "212",
      "tag": "S35",
      "lat": "34.09226"
    },
    "S36": {
      "routes": {},
      "lon": "-118.36274",
      "title": "Fountain/Hayworth",
      "stopId": "213",
      "tag": "S36",
      "lat": "34.0945299"
    },
    "S37": {
      "routes": {},
      "lon": "-118.3660399",
      "title": "Crescent Heights/Fountain",
      "stopId": "214",
      "tag": "S37",
      "lat": "34.0941399"
    },
    "S38": {
      "routes": {},
      "lon": "-118.3661799",
      "title": "Crescent Heights/Santa Monica",
      "stopId": "215",
      "tag": "S38",
      "lat": "34.09135"
    },
    "S63": {
      "routes": {},
      "lon": "-118.36787",
      "title": "Santa Monica/La Jolla",
      "stopId": "400",
      "tag": "S63",
      "lat": "34.0908799"
    },
    "S64": {
      "routes": {},
      "lon": "-118.3703899",
      "title": "Sweetzer/Santa Monica",
      "stopId": "401",
      "tag": "S64",
      "lat": "34.09049"
    },
    "S39": {
      "routes": {},
      "lon": "-118.3703999",
      "title": "Sweetzer/Willoughby",
      "stopId": "216",
      "tag": "S39",
      "lat": "34.08742"
    },
    "S40": {
      "routes": {},
      "lon": "-118.37162",
      "title": "800 N. Kings Road",
      "stopId": "217",
      "tag": "S40",
      "lat": "34.0855999"
    },
    "S41": {
      "routes": {},
      "lon": "-118.37169",
      "title": "Kings Rd./Romaine",
      "stopId": "218",
      "tag": "S41",
      "lat": "34.0891199"
    },
    "S42": {
      "routes": {},
      "lon": "-118.37168",
      "title": "Kings Rd./Santa Monica Blvd.",
      "stopId": "219",
      "tag": "S42",
      "lat": "34.09054"
    },
    "S43": {
      "routes": {},
      "lon": "-118.3720499",
      "title": "Santa Monica/Kings Rd",
      "stopId": "220",
      "tag": "S43",
      "lat": "34.0907799"
    },
    "S70": {
      "routes": {},
      "lon": "-118.3760399",
      "title": "Santa Monica/La Cienega",
      "stopId": "411",
      "tag": "S70",
      "lat": "34.08988"
    },
    "S44": {
      "routes": {},
      "lon": "-118.3779999",
      "title": "Santa Monica/West Knoll",
      "stopId": "222",
      "tag": "S44",
      "lat": "34.08878"
    },
    "S45": {
      "routes": {},
      "lon": "-118.3818399",
      "title": "Santa Monica/Hancock",
      "stopId": "223",
      "tag": "S45",
      "lat": "34.0867"
    },
    "S57": {
      "routes": {},
      "lon": "-118.3855499",
      "title": "San Vicente/Cynthia",
      "stopId": "308",
      "tag": "S57",
      "lat": "34.0870699"
    },
    "S47": {
      "routes": {},
      "lon": "-118.38392",
      "title": "San Vicente/Santa Monica",
      "stopId": "225",
      "tag": "S47",
      "lat": "34.08445"
    },
    "S48": {
      "routes": {},
      "lon": "-118.38365",
      "title": "Library",
      "stopId": "226",
      "tag": "S48",
      "lat": "34.0820499"
    },
    "S49": {
      "routes": {},
      "lon": "-118.37968",
      "title": "San Vicente/Beverly",
      "stopId": "227",
      "tag": "S49",
      "lat": "34.07686"
    },
    "S62_ar": {
      "routes": {},
      "lon": "-118.38058",
      "title": "Gracie Allen/Cedars Sinai",
      "stopId": "313",
      "tag": "S62_ar",
      "lat": "34.0752299"
    },
    "S76": {
      "routes": {},
      "lon": "-118.37044",
      "title": "Santa Monica/Sweetzer",
      "stopId": "523",
      "tag": "S76",
      "lat": "34.0905899"
    },
    "S77": {
      "routes": {},
      "lon": "-118.36559",
      "title": "Santa Monica/Crescent Heights",
      "stopId": "525",
      "tag": "S77",
      "lat": "34.0906499"
    },
    "S78": {
      "routes": {},
      "lon": "-118.36171",
      "title": "Santa Monica/Fairfax",
      "stopId": "526",
      "tag": "S78",
      "lat": "34.0906999"
    },
    "S86": {
      "routes": {},
      "lon": "-118.3443",
      "title": "Santa Monica/La Brea",
      "stopId": "609",
      "tag": "S86",
      "lat": "34.0905899"
    },
    "S71": {
      "routes": {},
      "lon": "-118.34393",
      "title": "La Brea/Fountain",
      "stopId": "412",
      "tag": "S71",
      "lat": "34.0941499"
    },
    "S80_ar": {
      "routes": {},
      "lon": "-118.33882",
      "title": "Hollywood/Highland",
      "stopId": "603",
      "tag": "S80_ar",
      "lat": "34.1011699"
    },
    "S76_ar": {
      "routes": {},
      "lon": "-118.37044",
      "title": "Santa Monica/Sweetzer",
      "stopId": "523",
      "tag": "S76_ar",
      "lat": "34.0905899"
    },
    "S80": {
      "routes": {},
      "lon": "-118.33882",
      "title": "Hollywood/Highland",
      "stopId": "603",
      "tag": "S80",
      "lat": "34.1011699"
    },
    "S72": {
      "routes": {},
      "lon": "-118.35357",
      "title": "Santa Monica/Gardner",
      "stopId": "503",
      "tag": "S72",
      "lat": "34.0909099"
    },
    "S73": {
      "routes": {},
      "lon": "-118.36575",
      "title": "Santa Monica/Crescent Heights",
      "stopId": "507",
      "tag": "S73",
      "lat": "34.0909099"
    },
    "S74": {
      "routes": {},
      "lon": "-118.37062",
      "title": "Santa Monica/Sweetzer",
      "stopId": "509",
      "tag": "S74",
      "lat": "34.0908499"
    },
    "S75": {
      "routes": {},
      "lon": "-118.38005",
      "title": "Santa Monica/Westbourne",
      "stopId": "513",
      "tag": "S75",
      "lat": "34.0877299"
    },
    "S48_ar": {
      "routes": {},
      "lon": "-118.38365",
      "title": "Library",
      "stopId": "226",
      "tag": "S48_ar",
      "lat": "34.0820499"
    },
    "S72_ar": {
      "routes": {},
      "lon": "-118.35357",
      "title": "Santa Monica/Gardner",
      "stopId": "503",
      "tag": "S72_ar",
      "lat": "34.0909099"
    },
    "S81": {
      "routes": {},
      "lon": "-118.38651",
      "title": "Santa Monica/La Peer",
      "stopId": "604",
      "tag": "S81",
      "lat": "34.0831199"
    },
    "S82": {
      "routes": {},
      "lon": "-118.38107",
      "title": "Santa Monica/Hancock",
      "stopId": "605",
      "tag": "S82",
      "lat": "34.08666"
    },
    "S83": {
      "routes": {},
      "lon": "-118.37326",
      "title": "Santa Monica/Orlando",
      "stopId": "606",
      "tag": "S83",
      "lat": "34.09059"
    },
    "S84": {
      "routes": {},
      "lon": "-118.35214",
      "title": "Santa Monica/Vista",
      "stopId": "607",
      "tag": "S84",
      "lat": "34.09064"
    },
    "S85": {
      "routes": {},
      "lon": "-118.3464",
      "title": "Santa Monica/Formosa",
      "stopId": "608",
      "tag": "S85",
      "lat": "34.09061"
    },
    "S86_ar": {
      "routes": {},
      "lon": "-118.3443",
      "title": "Santa Monica/La Brea",
      "stopId": "609",
      "tag": "S86_ar",
      "lat": "34.0905899"
    },
    "S87": {
      "routes": {},
      "lon": "-118.3493499",
      "title": "Santa Monica/Greenacre",
      "stopId": "610",
      "tag": "S87",
      "lat": "34.09078"
    },
    "S61_ar": {
      "routes": {},
      "lon": "-118.38662",
      "title": "Pavillions",
      "stopId": "312",
      "tag": "S61_ar",
      "lat": "34.0832799"
    },
    "S77_ar": {
      "routes": {},
      "lon": "-118.36559",
      "title": "Santa Monica/Crescent Heights",
      "stopId": "525",
      "tag": "S77_ar",
      "lat": "34.0906499"
    },
    "SUN17": {
      "routes": {},
      "lon": "-118.3829199",
      "title": "Sunset/Horn",
      "stopId": "816",
      "tag": "SUN17",
      "lat": "34.09082"
    },
    "SUN18": {
      "routes": {},
      "lon": "-118.37965",
      "title": "Sunset/Sunset Plaza",
      "stopId": "817",
      "tag": "SUN18",
      "lat": "34.0921799"
    },
    "SUN19": {
      "routes": {},
      "lon": "-118.3779599",
      "title": "Sunset/Alta Loma",
      "stopId": "818",
      "tag": "SUN19",
      "lat": "34.09318"
    },
    "SUN20": {
      "routes": {},
      "lon": "-118.3764799",
      "title": "Sunset/La Cienega",
      "stopId": "819",
      "tag": "SUN20",
      "lat": "34.09415"
    },
    "SUN21": {
      "routes": {},
      "lon": "-118.3727899",
      "title": "Sunset/Kings Rd.",
      "stopId": "820",
      "tag": "SUN21",
      "lat": "34.09509"
    },
    "SUN22": {
      "routes": {},
      "lon": "-118.3704",
      "title": "Sunset/Sweetzer",
      "stopId": "821",
      "tag": "SUN22",
      "lat": "34.09637"
    },
    "SUN23": {
      "routes": {},
      "lon": "-118.3660399",
      "title": "Crescent Heights/Sunset",
      "stopId": "822",
      "tag": "SUN23",
      "lat": "34.0970399"
    },
    "SUN25_ar": {
      "routes": {},
      "lon": "-118.36132",
      "title": "Fairfax/Santa Monica Blvd.",
      "stopId": "824",
      "tag": "SUN25_ar",
      "lat": "34.0911099"
    },
    "SUN1": {
      "routes": {},
      "lon": "-118.36138",
      "title": "Fairfax/Fountain",
      "stopId": "800",
      "tag": "SUN1",
      "lat": "34.0947499"
    },
    "SUN2": {
      "routes": {},
      "lon": "-118.3618699",
      "title": "Sunset/Fairfax",
      "stopId": "801",
      "tag": "SUN2",
      "lat": "34.0981799"
    },
    "SUN3": {
      "routes": {},
      "lon": "-118.36548",
      "title": "Sunset/Crescent Heights",
      "stopId": "802",
      "tag": "SUN3",
      "lat": "34.0981399"
    },
    "SUN4": {
      "routes": {},
      "lon": "-118.36897",
      "title": "Sunset/Harper",
      "stopId": "803",
      "tag": "SUN4",
      "lat": "34.0973599"
    },
    "SUN5": {
      "routes": {},
      "lon": "-118.3708299",
      "title": "Sunset/Sweetzer",
      "stopId": "804",
      "tag": "SUN5",
      "lat": "34.09648"
    },
    "SUN6": {
      "routes": {},
      "lon": "-118.3725899",
      "title": "Sunset/Kings Rd.",
      "stopId": "805",
      "tag": "SUN6",
      "lat": "34.0954199"
    },
    "SUN7": {
      "routes": {},
      "lon": "-118.3768399",
      "title": "Sunset/Miller",
      "stopId": "806",
      "tag": "SUN7",
      "lat": "34.09424"
    },
    "SUN8": {
      "routes": {},
      "lon": "-118.3795199",
      "title": "Sunset/Sunset Plaza",
      "stopId": "807",
      "tag": "SUN8",
      "lat": "34.09254"
    },
    "SUN9": {
      "routes": {},
      "lon": "-118.3832199",
      "title": "Sunset/Horn",
      "stopId": "808",
      "tag": "SUN9",
      "lat": "34.09092"
    },
    "SUN10": {
      "routes": {},
      "lon": "-118.3853699",
      "title": "Sunset/Clark",
      "stopId": "809",
      "tag": "SUN10",
      "lat": "34.0907699"
    },
    "SUN11": {
      "routes": {},
      "lon": "-118.3874599",
      "title": "Sunset/Hammond",
      "stopId": "810",
      "tag": "SUN11",
      "lat": "34.09076"
    },
    "SUN12": {
      "routes": {},
      "lon": "-118.3856099",
      "title": "Melrose/Robertson",
      "stopId": "811",
      "tag": "SUN12",
      "lat": "34.08077"
    },
    "S2_ar": {
      "routes": {},
      "lon": "-118.38332",
      "title": "San Vicente/Melrose",
      "stopId": "102",
      "tag": "S2_ar",
      "lat": "34.0818699"
    }
  },
  "copyright": "All data copyright City of West Hollywood 2019."
}