{
  "type": "FeatureCollection",
  "features": [
    {
      "type": "Feature",
      "properties": {
        "title": "Danforth Rd At Kennedy Rd",
        "tag": "262",
        "stopId": "0662"
      },
      "geometry": {
        "type": "Point",
        "coordinates": [
          -79.2609399,
          43.71438
        ]
      }
    },
    {
      "type": "Feature",
      "properties": {
        "title": "Davenport Rd At Bedford Rd",
        "tag": "263",
        "stopId": "0929"
      },
      "geometry": {
        "type": "Point",
        "coordinates": [
          -79.39966,
          43.6744499
        ]
      }
    },
    {
      "type": "Feature",
      "properties": {
        "title": "Davenport Rd At Dupont St",
        "tag": "264",
        "stopId": "0940"
      },
      "geometry": {
        "type": "Point",
        "coordinates": [
          -79.40194,
          43.6755099
        ]
      }
    },
    {
      "type": "Feature",
      "properties": {
        "title": "Davisville Ave At Cleveland St",
        "tag": "265",
        "stopId": "1871"
      },
      "geometry": {
        "type": "Point",
        "coordinates": [
          -79.37811,
          43.7020899
        ]
      }
    },
    {
      "type": "Feature",
      "properties": {
        "title": "Disco Rd At Attwell Dr",
        "tag": "266",
        "stopId": "11700"
      },
      "geometry": {
        "type": "Point",
        "coordinates": [
          -79.5948399,
          43.7013599
        ]
      }
    },
    {
      "type": "Feature",
      "properties": {
        "title": "Disco Rd At Attwell Dr",
        "tag": "267",
        "stopId": "3478"
      },
      "geometry": {
        "type": "Point",
        "coordinates": [
          -79.5958099,
          43.70104
        ]
      }
    },
    {
      "type": "Feature",
      "properties": {
        "title": "Disco Rd At Carlingview Dr East Side",
        "tag": "268",
        "stopId": "3479"
      },
      "geometry": {
        "type": "Point",
        "coordinates": [
          -79.60077,
          43.6998099
        ]
      }
    },
    {
      "type": "Feature",
      "properties": {
        "title": "Disco Rd At Carlingview Dr",
        "tag": "269",
        "stopId": "3480"
      },
      "geometry": {
        "type": "Point",
        "coordinates": [
          -79.60118,
          43.6999299
        ]
      }
    },
    {
      "type": "Feature",
      "properties": {
        "title": "Don Mills Rd At Eglinton Ave East",
        "tag": "270",
        "stopId": "14258"
      },
      "geometry": {
        "type": "Point",
        "coordinates": [
          -79.33912,
          43.72067
        ]
      }
    },
    {
      "type": "Feature",
      "properties": {
        "title": "Don Mills Rd At Eglinton Ave East North Side",
        "tag": "271",
        "stopId": "9125"
      },
      "geometry": {
        "type": "Point",
        "coordinates": [
          -79.33893,
          43.7213699
        ]
      }
    },
    {
      "type": "Feature",
      "properties": {
        "title": "Don Mills Rd At Lawrence Ave East South Side",
        "tag": "273",
        "stopId": "14255"
      },
      "geometry": {
        "type": "Point",
        "coordinates": [
          -79.34344,
          43.7366299
        ]
      }
    },
    {
      "type": "Feature",
      "properties": {
        "title": "Don Mills Rd At Leith Hill Rd",
        "tag": "274",
        "stopId": "1950"
      },
      "geometry": {
        "type": "Point",
        "coordinates": [
          -79.3481599,
          43.7772899
        ]
      }
    },
    {
      "type": "Feature",
      "properties": {
        "title": "Don Mills Rd At Overlea Blvd South Side",
        "tag": "275",
        "stopId": "14260"
      },
      "geometry": {
        "type": "Point",
        "coordinates": [
          -79.3343499,
          43.70949
        ]
      }
    },
    {
      "type": "Feature",
      "properties": {
        "title": "Don Mills Rd At Steeles Ave East",
        "tag": "278",
        "stopId": "1974"
      },
      "geometry": {
        "type": "Point",
        "coordinates": [
          -79.3605099,
          43.81104
        ]
      }
    },
    {
      "type": "Feature",
      "properties": {
        "title": "Don Mills Rd At Van Horne Ave",
        "tag": "279",
        "stopId": "1975"
      },
      "geometry": {
        "type": "Point",
        "coordinates": [
          -79.35278,
          43.78725
        ]
      }
    },
    {
      "type": "Feature",
      "properties": {
        "title": "Don Mills Rd At Wynford Dr",
        "tag": "280",
        "stopId": "1977"
      },
      "geometry": {
        "type": "Point",
        "coordinates": [
          -79.3393299,
          43.7228499
        ]
      }
    },
    {
      "type": "Feature",
      "properties": {
        "title": "Doncaster Ave At Main St West Side",
        "tag": "284",
        "stopId": "5006"
      },
      "geometry": {
        "type": "Point",
        "coordinates": [
          -79.3038,
          43.6916599
        ]
      }
    },
    {
      "type": "Feature",
      "properties": {
        "title": "Doncaster Ave At Main St",
        "tag": "285",
        "stopId": "5007"
      },
      "geometry": {
        "type": "Point",
        "coordinates": [
          -79.3035199,
          43.69161
        ]
      }
    },
    {
      "type": "Feature",
      "properties": {
        "title": "Doncaster Ave At Main St",
        "tag": "286",
        "stopId": "5008"
      },
      "geometry": {
        "type": "Point",
        "coordinates": [
          -79.3031,
          43.6918199
        ]
      }
    },
    {
      "type": "Feature",
      "properties": {
        "title": "Drewry Ave At Gardenia Crt",
        "tag": "289",
        "stopId": "9288"
      },
      "geometry": {
        "type": "Point",
        "coordinates": [
          -79.4316799,
          43.78388
        ]
      }
    },
    {
      "type": "Feature",
      "properties": {
        "title": "Drewry Ave At Grantbrook St",
        "tag": "290",
        "stopId": "9275"
      },
      "geometry": {
        "type": "Point",
        "coordinates": [
          -79.4335899,
          43.78361
        ]
      }
    },
    {
      "type": "Feature",
      "properties": {
        "title": "Dufferin St At Yorkdale Rd",
        "tag": "291",
        "stopId": "0979"
      },
      "geometry": {
        "type": "Point",
        "coordinates": [
          -79.45736,
          43.72653
        ]
      }
    },
    {
      "type": "Feature",
      "properties": {
        "title": "Dufferin St At Springhurst Ave",
        "tag": "292",
        "stopId": "9991"
      },
      "geometry": {
        "type": "Point",
        "coordinates": [
          -79.42565,
          43.6348299
        ]
      }
    },
    {
      "type": "Feature",
      "properties": {
        "title": "Dufferin St At Jane Osler Blvd - Yorkdale Shopping Centre",
        "tag": "293",
        "stopId": "0985"
      },
      "geometry": {
        "type": "Point",
        "coordinates": [
          -79.4569899,
          43.7250799
        ]
      }
    },
    {
      "type": "Feature",
      "properties": {
        "title": "Dundas St West At Bloor St West",
        "tag": "295",
        "stopId": "9856"
      },
      "geometry": {
        "type": "Point",
        "coordinates": [
          -79.45257,
          43.65644
        ]
      }
    },
    {
      "type": "Feature",
      "properties": {
        "title": "Dundas St West At Jane St East Side",
        "tag": "296",
        "stopId": "9942"
      },
      "geometry": {
        "type": "Point",
        "coordinates": [
          -79.49043,
          43.6655799
        ]
      }
    },
    {
      "type": "Feature",
      "properties": {
        "title": "Dundas St West At Jane St West Side",
        "tag": "297",
        "stopId": "9943"
      },
      "geometry": {
        "type": "Point",
        "coordinates": [
          -79.49215,
          43.6657799
        ]
      }
    },
    {
      "type": "Feature",
      "properties": {
        "title": "Dundas St West At Runnymede Rd West Side",
        "tag": "298",
        "stopId": "4455"
      },
      "geometry": {
        "type": "Point",
        "coordinates": [
          -79.48292,
          43.6656499
        ]
      }
    },
    {
      "type": "Feature",
      "properties": {
        "title": "Dundas St West At Runnymede Rd",
        "tag": "299",
        "stopId": "5026"
      },
      "geometry": {
        "type": "Point",
        "coordinates": [
          -79.4826299,
          43.66551
        ]
      }
    },
    {
      "type": "Feature",
      "properties": {
        "title": "Duplex Ave At Eglinton Ave West",
        "tag": "303",
        "stopId": "13898"
      },
      "geometry": {
        "type": "Point",
        "coordinates": [
          -79.4001099,
          43.7062299
        ]
      }
    },
    {
      "type": "Feature",
      "properties": {
        "title": "Edna Ave At Dundas St West",
        "tag": "310",
        "stopId": "9855"
      },
      "geometry": {
        "type": "Point",
        "coordinates": [
          -79.45303,
          43.6571299
        ]
      }
    },
    {
      "type": "Feature",
      "properties": {
        "title": "2495 Eglinton Ave East At South Service Rd (East)",
        "tag": "311",
        "stopId": "1031"
      },
      "geometry": {
        "type": "Point",
        "coordinates": [
          -79.2597599,
          43.73404
        ]
      }
    },
    {
      "type": "Feature",
      "properties": {
        "title": "Eglinton Ave East At Bayview Ave East Side",
        "tag": "312",
        "stopId": "2240"
      },
      "geometry": {
        "type": "Point",
        "coordinates": [
          -79.37637,
          43.7111099
        ]
      }
    },
    {
      "type": "Feature",
      "properties": {
        "title": "Eglinton Ave East At Brimley Rd West Side",
        "tag": "317",
        "stopId": "2253"
      },
      "geometry": {
        "type": "Point",
        "coordinates": [
          -79.2488,
          43.7366699
        ]
      }
    },
    {
      "type": "Feature",
      "properties": {
        "title": "Eglinton Ave East At Eglinton Sq",
        "tag": "318",
        "stopId": "10467"
      },
      "geometry": {
        "type": "Point",
        "coordinates": [
          -79.30049,
          43.7251099
        ]
      }
    },
    {
      "type": "Feature",
      "properties": {
        "title": "Eglinton Ave East At Kennedy Station",
        "tag": "320",
        "stopId": "3539"
      },
      "geometry": {
        "type": "Point",
        "coordinates": [
          -79.26712,
          43.7322899
        ]
      }
    },
    {
      "type": "Feature",
      "properties": {
        "title": "Eglinton Ave East At Laird Dr",
        "tag": "321",
        "stopId": "5071"
      },
      "geometry": {
        "type": "Point",
        "coordinates": [
          -79.3653699,
          43.71337
        ]
      }
    },
    {
      "type": "Feature",
      "properties": {
        "title": "Eglinton Ave East At Markham Rd West Side",
        "tag": "322",
        "stopId": "2288"
      },
      "geometry": {
        "type": "Point",
        "coordinates": [
          -79.21963,
          43.7431699
        ]
      }
    },
    {
      "type": "Feature",
      "properties": {
        "title": "Eglinton Ave East At Midland Ave West Side",
        "tag": "323",
        "stopId": "1036"
      },
      "geometry": {
        "type": "Point",
        "coordinates": [
          -79.25891,
          43.7344899
        ]
      }
    },
    {
      "type": "Feature",
      "properties": {
        "title": "Eglinton Ave West At Avenue Rd East Side",
        "tag": "330",
        "stopId": "11488"
      },
      "geometry": {
        "type": "Point",
        "coordinates": [
          -79.40796,
          43.7046399
        ]
      }
    },
    {
      "type": "Feature",
      "properties": {
        "title": "Eglinton Ave West At Everden Rd (Eglinton West Station)",
        "tag": "334",
        "stopId": "9896"
      },
      "geometry": {
        "type": "Point",
        "coordinates": [
          -79.43565,
          43.69876
        ]
      }
    },
    {
      "type": "Feature",
      "properties": {
        "title": "Eglinton Ave West At Glenarden Rd",
        "tag": "336",
        "stopId": "2354"
      },
      "geometry": {
        "type": "Point",
        "coordinates": [
          -79.43255,
          43.6995599
        ]
      }
    },
    {
      "type": "Feature",
      "properties": {
        "title": "Eglinton Ave West At Jane St East Side",
        "tag": "337",
        "stopId": "2366"
      },
      "geometry": {
        "type": "Point",
        "coordinates": [
          -79.49808,
          43.6845199
        ]
      }
    },
    {
      "type": "Feature",
      "properties": {
        "title": "Eglinton Ave West At Marlee Ave",
        "tag": "338",
        "stopId": "2380"
      },
      "geometry": {
        "type": "Point",
        "coordinates": [
          -79.4392,
          43.6981299
        ]
      }
    },
    {
      "type": "Feature",
      "properties": {
        "title": "Eglinton Ave West At Marlee Ave",
        "tag": "339",
        "stopId": "13440"
      },
      "geometry": {
        "type": "Point",
        "coordinates": [
          -79.43896,
          43.6981799
        ]
      }
    },
    {
      "type": "Feature",
      "properties": {
        "title": "Eglinton Ave West At Oakwood Ave",
        "tag": "340",
        "stopId": "2388"
      },
      "geometry": {
        "type": "Point",
        "coordinates": [
          -79.4429499,
          43.6972
        ]
      }
    },
    {
      "type": "Feature",
      "properties": {
        "title": "Eglinton Ave East At Weston Rd",
        "tag": "342",
        "stopId": "9383"
      },
      "geometry": {
        "type": "Point",
        "coordinates": [
          -79.48982,
          43.6867699
        ]
      }
    },
    {
      "type": "Feature",
      "properties": {
        "title": "Eglinton Ave West At Weston Rd",
        "tag": "343",
        "stopId": "2419"
      },
      "geometry": {
        "type": "Point",
        "coordinates": [
          -79.4893699,
          43.68715
        ]
      }
    },
    {
      "type": "Feature",
      "properties": {
        "title": "8th St At Birmingham St",
        "tag": "345",
        "stopId": "11506"
      },
      "geometry": {
        "type": "Point",
        "coordinates": [
          -79.50726,
          43.6028
        ]
      }
    },
    {
      "type": "Feature",
      "properties": {
        "title": "Eighth St At Lake Shore Blvd West North Side",
        "tag": "346",
        "stopId": "3543"
      },
      "geometry": {
        "type": "Point",
        "coordinates": [
          -79.50643,
          43.6007799
        ]
      }
    },
    {
      "type": "Feature",
      "properties": {
        "title": "Ellesmere Rd At Mirrow Ct",
        "tag": "348",
        "stopId": "10904"
      },
      "geometry": {
        "type": "Point",
        "coordinates": [
          -79.18516,
          43.7872899
        ]
      }
    },
    {
      "type": "Feature",
      "properties": {
        "title": "Ellesmere Rd At East Service Rd",
        "tag": "349",
        "stopId": "9622"
      },
      "geometry": {
        "type": "Point",
        "coordinates": [
          -79.2731,
          43.7673799
        ]
      }
    },
    {
      "type": "Feature",
      "properties": {
        "title": "Ellesmere Rd At East Service Rd",
        "tag": "350",
        "stopId": "9619"
      },
      "geometry": {
        "type": "Point",
        "coordinates": [
          -79.2725999,
          43.76774
        ]
      }
    },
    {
      "type": "Feature",
      "properties": {
        "title": "Ellesmere Rd At McCowan Rd East Side",
        "tag": "351",
        "stopId": "9604"
      },
      "geometry": {
        "type": "Point",
        "coordinates": [
          -79.25047,
          43.7722499
        ]
      }
    },
    {
      "type": "Feature",
      "properties": {
        "title": "Ellesmere Rd At Pharmacy Ave",
        "tag": "352",
        "stopId": "6368"
      },
      "geometry": {
        "type": "Point",
        "coordinates": [
          -79.3104399,
          43.75885
        ]
      }
    },
    {
      "type": "Feature",
      "properties": {
        "title": "Ellesmere Rd At Victoria Park Ave",
        "tag": "353",
        "stopId": "6372"
      },
      "geometry": {
        "type": "Point",
        "coordinates": [
          -79.31474,
          43.7581199
        ]
      }
    },
    {
      "type": "Feature",
      "properties": {
        "title": "Ellesmere Rd At West Service Rd East Side",
        "tag": "354",
        "stopId": "9621"
      },
      "geometry": {
        "type": "Point",
        "coordinates": [
          -79.27898,
          43.7661099
        ]
      }
    },
    {
      "type": "Feature",
      "properties": {
        "title": "Ellesmere Rd At West Service Rd",
        "tag": "355",
        "stopId": "9620"
      },
      "geometry": {
        "type": "Point",
        "coordinates": [
          -79.27868,
          43.7664599
        ]
      }
    },
    {
      "type": "Feature",
      "properties": {
        "title": "Erskine Ave At Mt Pleasant Rd West Side",
        "tag": "357",
        "stopId": "11107"
      },
      "geometry": {
        "type": "Point",
        "coordinates": [
          -79.3924999,
          43.7125
        ]
      }
    },
    {
      "type": "Feature",
      "properties": {
        "title": "The Esplanade At Lower Jarvis St East Side",
        "tag": "358",
        "stopId": "6375"
      },
      "geometry": {
        "type": "Point",
        "coordinates": [
          -79.37045,
          43.6482499
        ]
      }
    },
    {
      "type": "Feature",
      "properties": {
        "title": "Evans Ave At Browns Line",
        "tag": "359",
        "stopId": "2435"
      },
      "geometry": {
        "type": "Point",
        "coordinates": [
          -79.5490099,
          43.61079
        ]
      }
    },
    {
      "type": "Feature",
      "properties": {
        "title": "Farnboro Rd At Attwell Dr East Side",
        "tag": "362",
        "stopId": "11202"
      },
      "geometry": {
        "type": "Point",
        "coordinates": [
          -79.58687,
          43.6915499
        ]
      }
    },
    {
      "type": "Feature",
      "properties": {
        "title": "Finch Ave East At Finchdene Sq West Side",
        "tag": "363",
        "stopId": "9910"
      },
      "geometry": {
        "type": "Point",
        "coordinates": [
          -79.2319199,
          43.81551
        ]
      }
    },
    {
      "type": "Feature",
      "properties": {
        "title": "Finch Ave East At Neilson Rd West Side",
        "tag": "364",
        "stopId": "9909"
      },
      "geometry": {
        "type": "Point",
        "coordinates": [
          -79.2285399,
          43.81621
        ]
      }
    },
    {
      "type": "Feature",
      "properties": {
        "title": "Finch Ave East At Yonge St East Side",
        "tag": "365",
        "stopId": "9912"
      },
      "geometry": {
        "type": "Point",
        "coordinates": [
          -79.41478,
          43.7798399
        ]
      }
    },
    {
      "type": "Feature",
      "properties": {
        "title": "Airport Rd At Beverley St",
        "tag": "366",
        "stopId": "4750"
      },
      "geometry": {
        "type": "Point",
        "coordinates": [
          -79.64776,
          43.70758
        ]
      }
    },
    {
      "type": "Feature",
      "properties": {
        "title": "Airport Rd At Bresler Dr West Side",
        "tag": "367",
        "stopId": "4752"
      },
      "geometry": {
        "type": "Point",
        "coordinates": [
          -79.60758,
          43.6859899
        ]
      }
    },
    {
      "type": "Feature",
      "properties": {
        "title": "Airport Rd At Bresler Dr",
        "tag": "368",
        "stopId": "4753"
      },
      "geometry": {
        "type": "Point",
        "coordinates": [
          -79.6063999,
          43.68609
        ]
      }
    },
    {
      "type": "Feature",
      "properties": {
        "title": "Airport Rd At Victory Cres",
        "tag": "369",
        "stopId": "4768"
      },
      "geometry": {
        "type": "Point",
        "coordinates": [
          -79.6472099,
          43.7075899
        ]
      }
    },
    {
      "type": "Feature",
      "properties": {
        "title": "Albion Rd At Elmhurst Dr",
        "tag": "370",
        "stopId": "6222"
      },
      "geometry": {
        "type": "Point",
        "coordinates": [
          -79.55029,
          43.72504
        ]
      }
    },
    {
      "type": "Feature",
      "properties": {
        "title": "Albion Rd At Humberline Dr",
        "tag": "371",
        "stopId": "13427"
      },
      "geometry": {
        "type": "Point",
        "coordinates": [
          -79.62169,
          43.74694
        ]
      }
    },
    {
      "type": "Feature",
      "properties": {
        "title": "Albion Rd At Islington Ave",
        "tag": "372",
        "stopId": "6228"
      },
      "geometry": {
        "type": "Point",
        "coordinates": [
          -79.5650499,
          43.7372899
        ]
      }
    },
    {
      "type": "Feature",
      "properties": {
        "title": "Attwell Dr At Belfield Rd North Side",
        "tag": "375",
        "stopId": "3300"
      },
      "geometry": {
        "type": "Point",
        "coordinates": [
          -79.5932699,
          43.6984399
        ]
      }
    },
    {
      "type": "Feature",
      "properties": {
        "title": "Attwell Dr At Disco Rd",
        "tag": "376",
        "stopId": "3297"
      },
      "geometry": {
        "type": "Point",
        "coordinates": [
          -79.59489,
          43.7010399
        ]
      }
    },
    {
      "type": "Feature",
      "properties": {
        "title": "Attwell Dr At Marmac Dr South Side",
        "tag": "377",
        "stopId": "3299"
      },
      "geometry": {
        "type": "Point",
        "coordinates": [
          -79.58952,
          43.6952399
        ]
      }
    },
    {
      "type": "Feature",
      "properties": {
        "title": "Attwell Dr At McLachlan Dr",
        "tag": "378",
        "stopId": "9304"
      },
      "geometry": {
        "type": "Point",
        "coordinates": [
          -79.5887599,
          43.6936599
        ]
      }
    },
    {
      "type": "Feature",
      "properties": {
        "title": "Aukland Rd At Dundas St West",
        "tag": "379",
        "stopId": "14093"
      },
      "geometry": {
        "type": "Point",
        "coordinates": [
          -79.53923,
          43.63895
        ]
      }
    },
    {
      "type": "Feature",
      "properties": {
        "title": "Avenue Rd At Burnaby Blvd South Side",
        "tag": "380",
        "stopId": "4773"
      },
      "geometry": {
        "type": "Point",
        "coordinates": [
          -79.4088099,
          43.70497
        ]
      }
    },
    {
      "type": "Feature",
      "properties": {
        "title": "Avenue Rd At Old Orchard Grove",
        "tag": "381",
        "stopId": "11238"
      },
      "geometry": {
        "type": "Point",
        "coordinates": [
          -79.4194599,
          43.7318599
        ]
      }
    },
    {
      "type": "Feature",
      "properties": {
        "title": "Avenue Rd At Wilson Ave South Side",
        "tag": "382",
        "stopId": "11936"
      },
      "geometry": {
        "type": "Point",
        "coordinates": [
          -79.42158,
          43.7394199
        ]
      }
    },
    {
      "type": "Feature",
      "properties": {
        "title": "Bathurst St At Elm Ridge Dr",
        "tag": "384",
        "stopId": "0134"
      },
      "geometry": {
        "type": "Point",
        "coordinates": [
          -79.4265399,
          43.7053999
        ]
      }
    },
    {
      "type": "Feature",
      "properties": {
        "title": "Bathurst St At Glencairn Ave",
        "tag": "386",
        "stopId": "0143"
      },
      "geometry": {
        "type": "Point",
        "coordinates": [
          -79.4279799,
          43.7122499
        ]
      }
    },
    {
      "type": "Feature",
      "properties": {
        "title": "Bathurst St At St Clair Ave West",
        "tag": "388",
        "stopId": "0204"
      },
      "geometry": {
        "type": "Point",
        "coordinates": [
          -79.41845,
          43.68328
        ]
      }
    },
    {
      "type": "Feature",
      "properties": {
        "title": "Bathurst St At Steeles Ave West",
        "tag": "390",
        "stopId": "9719"
      },
      "geometry": {
        "type": "Point",
        "coordinates": [
          -79.4454699,
          43.7920599
        ]
      }
    },
    {
      "type": "Feature",
      "properties": {
        "title": "Bayview Ave At Vallyanna Dr",
        "tag": "394",
        "stopId": "9122"
      },
      "geometry": {
        "type": "Point",
        "coordinates": [
          -79.37944,
          43.7242
        ]
      }
    },
    {
      "type": "Feature",
      "properties": {
        "title": "Belfield Rd At Brockport Dr West Side",
        "tag": "395",
        "stopId": "3325"
      },
      "geometry": {
        "type": "Point",
        "coordinates": [
          -79.58884,
          43.6989499
        ]
      }
    },
    {
      "type": "Feature",
      "properties": {
        "title": "Belfield Rd At Brockport Dr",
        "tag": "396",
        "stopId": "3326"
      },
      "geometry": {
        "type": "Point",
        "coordinates": [
          -79.5896099,
          43.69854
        ]
      }
    },
    {
      "type": "Feature",
      "properties": {
        "title": "Berry Rd At Park Lawn Rd",
        "tag": "397",
        "stopId": "11091"
      },
      "geometry": {
        "type": "Point",
        "coordinates": [
          -79.49408,
          43.6359199
        ]
      }
    },
    {
      "type": "Feature",
      "properties": {
        "title": "Birchmount Rd At Finch Ave East",
        "tag": "398",
        "stopId": "1740"
      },
      "geometry": {
        "type": "Point",
        "coordinates": [
          -79.30622,
          43.79915
        ]
      }
    },
    {
      "type": "Feature",
      "properties": {
        "title": "Birchmount Rd At Highview Ave South Side",
        "tag": "399",
        "stopId": "7549"
      },
      "geometry": {
        "type": "Point",
        "coordinates": [
          -79.26523,
          43.69976
        ]
      }
    },
    {
      "type": "Feature",
      "properties": {
        "title": "Birchmount Rd At Highview Ave",
        "tag": "400",
        "stopId": "7550"
      },
      "geometry": {
        "type": "Point",
        "coordinates": [
          -79.26496,
          43.69957
        ]
      }
    },
    {
      "type": "Feature",
      "properties": {
        "title": "Birchmount Rd At Steeles Ave South Side",
        "tag": "401",
        "stopId": "9720"
      },
      "geometry": {
        "type": "Point",
        "coordinates": [
          -79.31682,
          43.8208599
        ]
      }
    },
    {
      "type": "Feature",
      "properties": {
        "title": "Bloor St West At Islington Ave West Side",
        "tag": "403",
        "stopId": "0526"
      },
      "geometry": {
        "type": "Point",
        "coordinates": [
          -79.52431,
          43.6446399
        ]
      }
    },
    {
      "type": "Feature",
      "properties": {
        "title": "Bloor St West At Islington Ave",
        "tag": "404",
        "stopId": "11999"
      },
      "geometry": {
        "type": "Point",
        "coordinates": [
          -79.52317,
          43.6448499
        ]
      }
    },
    {
      "type": "Feature",
      "properties": {
        "title": "Bloor St West At Jane St",
        "tag": "405",
        "stopId": "9952"
      },
      "geometry": {
        "type": "Point",
        "coordinates": [
          -79.48462,
          43.6491199
        ]
      }
    },
    {
      "type": "Feature",
      "properties": {
        "title": "1388 Bloor St West",
        "tag": "406",
        "stopId": "11396"
      },
      "geometry": {
        "type": "Point",
        "coordinates": [
          -79.44629,
          43.6576499
        ]
      }
    },
    {
      "type": "Feature",
      "properties": {
        "title": "Brentcliffe Rd At Vanderhood Ave",
        "tag": "409",
        "stopId": "12258"
      },
      "geometry": {
        "type": "Point",
        "coordinates": [
          -79.35886,
          43.71258
        ]
      }
    },
    {
      "type": "Feature",
      "properties": {
        "title": "Broadview Ave At Erindale Ave",
        "tag": "411",
        "stopId": "11925"
      },
      "geometry": {
        "type": "Point",
        "coordinates": [
          -79.35861,
          43.6773699
        ]
      }
    },
    {
      "type": "Feature",
      "properties": {
        "title": "Church St At Lombard St North Side",
        "tag": "412",
        "stopId": "14314"
      },
      "geometry": {
        "type": "Point",
        "coordinates": [
          -79.3752299,
          43.6521399
        ]
      }
    },
    {
      "type": "Feature",
      "properties": {
        "title": "Church St At Uphill Ave",
        "tag": "413",
        "stopId": "4886"
      },
      "geometry": {
        "type": "Point",
        "coordinates": [
          -79.50836,
          43.7086899
        ]
      }
    },
    {
      "type": "Feature",
      "properties": {
        "title": "Cordova Ave At Dundas St West",
        "tag": "416",
        "stopId": "9534"
      },
      "geometry": {
        "type": "Point",
        "coordinates": [
          -79.52841,
          43.64873
        ]
      }
    },
    {
      "type": "Feature",
      "properties": {
        "title": "Bellamy Rd North At Progress Ave",
        "tag": "417",
        "stopId": "11619"
      },
      "geometry": {
        "type": "Point",
        "coordinates": [
          -79.2440699,
          43.7803599
        ]
      }
    },
    {
      "type": "Feature",
      "properties": {
        "title": "Coxwell Ave At Mortimer Ave (Michael Garron Hospital)",
        "tag": "418",
        "stopId": "4908"
      },
      "geometry": {
        "type": "Point",
        "coordinates": [
          -79.32673,
          43.69075
        ]
      }
    },
    {
      "type": "Feature",
      "properties": {
        "title": "Coxwell Ave At Plains Rd",
        "tag": "419",
        "stopId": "4911"
      },
      "geometry": {
        "type": "Point",
        "coordinates": [
          -79.32891,
          43.69606
        ]
      }
    },
    {
      "type": "Feature",
      "properties": {
        "title": "3450 Danforth Ave",
        "tag": "425",
        "stopId": "1842"
      },
      "geometry": {
        "type": "Point",
        "coordinates": [
          -79.27503,
          43.6941799
        ]
      }
    },
    {
      "type": "Feature",
      "properties": {
        "title": "Danforth Ave At Main St",
        "tag": "426",
        "stopId": "9955"
      },
      "geometry": {
        "type": "Point",
        "coordinates": [
          -79.30169,
          43.6882799
        ]
      }
    },
    {
      "type": "Feature",
      "properties": {
        "title": "Keele St At Keelegate Dr",
        "tag": "427",
        "stopId": "4003"
      },
      "geometry": {
        "type": "Point",
        "coordinates": [
          -79.48338,
          43.73283
        ]
      }
    },
    {
      "type": "Feature",
      "properties": {
        "title": "Keele St At St Clair Ave West",
        "tag": "428",
        "stopId": "11689"
      },
      "geometry": {
        "type": "Point",
        "coordinates": [
          -79.46734,
          43.67222
        ]
      }
    },
    {
      "type": "Feature",
      "properties": {
        "title": "Keele St At St Clair Ave West",
        "tag": "429",
        "stopId": "7899"
      },
      "geometry": {
        "type": "Point",
        "coordinates": [
          -79.4672299,
          43.6720099
        ]
      }
    },
    {
      "type": "Feature",
      "properties": {
        "title": "Keele St At Toro Rd",
        "tag": "430",
        "stopId": "10755"
      },
      "geometry": {
        "type": "Point",
        "coordinates": [
          -79.4901999,
          43.7599499
        ]
      }
    },
    {
      "type": "Feature",
      "properties": {
        "title": "Keele St At Wilson Ave North Side",
        "tag": "431",
        "stopId": "9154"
      },
      "geometry": {
        "type": "Point",
        "coordinates": [
          -79.48197,
          43.7271799
        ]
      }
    },
    {
      "type": "Feature",
      "properties": {
        "title": "Wilson Ave At Keele St North Side",
        "tag": "432",
        "stopId": "14141"
      },
      "geometry": {
        "type": "Point",
        "coordinates": [
          -79.482,
          43.7272899
        ]
      }
    },
    {
      "type": "Feature",
      "properties": {
        "title": "Kennedy Rd At Eglinton Ave East",
        "tag": "433",
        "stopId": "2752"
      },
      "geometry": {
        "type": "Point",
        "coordinates": [
          -79.26767,
          43.73191
        ]
      }
    },
    {
      "type": "Feature",
      "properties": {
        "title": "Kennedy Rd At Progress Ave",
        "tag": "434",
        "stopId": "4113"
      },
      "geometry": {
        "type": "Point",
        "coordinates": [
          -79.28203,
          43.7692699
        ]
      }
    },
    {
      "type": "Feature",
      "properties": {
        "title": "King St West At Shaw St East Side",
        "tag": "435",
        "stopId": "13624"
      },
      "geometry": {
        "type": "Point",
        "coordinates": [
          -79.41453,
          43.6414499
        ]
      }
    },
    {
      "type": "Feature",
      "properties": {
        "title": "King St West At Strachan Ave",
        "tag": "437",
        "stopId": "4187"
      },
      "geometry": {
        "type": "Point",
        "coordinates": [
          -79.4120899,
          43.64194
        ]
      }
    },
    {
      "type": "Feature",
      "properties": {
        "title": "Kipling Ave At Belfield Rd - Etobicoke North Go Station",
        "tag": "440",
        "stopId": "4285"
      },
      "geometry": {
        "type": "Point",
        "coordinates": [
          -79.5631599,
          43.7047299
        ]
      }
    },
    {
      "type": "Feature",
      "properties": {
        "title": "Kipling Ave At Bloor St West North Side",
        "tag": "441",
        "stopId": "4291"
      },
      "geometry": {
        "type": "Point",
        "coordinates": [
          -79.5354299,
          43.6423099
        ]
      }
    },
    {
      "type": "Feature",
      "properties": {
        "title": "Laird Dr At Eglinton Ave East",
        "tag": "443",
        "stopId": "5139"
      },
      "geometry": {
        "type": "Point",
        "coordinates": [
          -79.3644599,
          43.7131199
        ]
      }
    },
    {
      "type": "Feature",
      "properties": {
        "title": "Lansdowne Ave At Davenport Rd South Side",
        "tag": "444",
        "stopId": "5213"
      },
      "geometry": {
        "type": "Point",
        "coordinates": [
          -79.4482599,
          43.6711399
        ]
      }
    },
    {
      "type": "Feature",
      "properties": {
        "title": "Lansdowne Ave At St Clair Ave West",
        "tag": "446",
        "stopId": "11578"
      },
      "geometry": {
        "type": "Point",
        "coordinates": [
          -79.4503999,
          43.6761199
        ]
      }
    },
    {
      "type": "Feature",
      "properties": {
        "title": "Lawrence Ave East At East Ave - Rouge Hill Go Station",
        "tag": "447",
        "stopId": "13068"
      },
      "geometry": {
        "type": "Point",
        "coordinates": [
          -79.13137,
          43.7808299
        ]
      }
    },
    {
      "type": "Feature",
      "properties": {
        "title": "Lawrence Ave East At Orton Park Rd",
        "tag": "448",
        "stopId": "5299"
      },
      "geometry": {
        "type": "Point",
        "coordinates": [
          -79.2057699,
          43.76388
        ]
      }
    },
    {
      "type": "Feature",
      "properties": {
        "title": "Lawrence Ave West At Culford Rd",
        "tag": "449",
        "stopId": "5357"
      },
      "geometry": {
        "type": "Point",
        "coordinates": [
          -79.4875299,
          43.70649
        ]
      }
    },
    {
      "type": "Feature",
      "properties": {
        "title": "Lawrence Ave West At Culford Rd East Side",
        "tag": "450",
        "stopId": "9443"
      },
      "geometry": {
        "type": "Point",
        "coordinates": [
          -79.48691,
          43.7064299
        ]
      }
    },
    {
      "type": "Feature",
      "properties": {
        "title": "Lawrence Ave West At Scarlett Rd East Side",
        "tag": "451",
        "stopId": "6046"
      },
      "geometry": {
        "type": "Point",
        "coordinates": [
          -79.52228,
          43.6983799
        ]
      }
    },
    {
      "type": "Feature",
      "properties": {
        "title": "Lawrence Ave West At Varna Dr West Side",
        "tag": "452",
        "stopId": "5410"
      },
      "geometry": {
        "type": "Point",
        "coordinates": [
          -79.43793,
          43.7175399
        ]
      }
    },
    {
      "type": "Feature",
      "properties": {
        "title": "Lawrence Ave West At Weston Rd",
        "tag": "453",
        "stopId": "5415"
      },
      "geometry": {
        "type": "Point",
        "coordinates": [
          -79.51601,
          43.7002799
        ]
      }
    },
    {
      "type": "Feature",
      "properties": {
        "title": "Leslie St At Eastern Ave",
        "tag": "456",
        "stopId": "11145"
      },
      "geometry": {
        "type": "Point",
        "coordinates": [
          -79.32962,
          43.66164
        ]
      }
    },
    {
      "type": "Feature",
      "properties": {
        "title": "Leslie St At Kirkwood Rd North Side",
        "tag": "457",
        "stopId": "5451"
      },
      "geometry": {
        "type": "Point",
        "coordinates": [
          -79.36075,
          43.75709
        ]
      }
    },
    {
      "type": "Feature",
      "properties": {
        "title": "Leslie St At Lawrence Ave East",
        "tag": "458",
        "stopId": "5455"
      },
      "geometry": {
        "type": "Point",
        "coordinates": [
          -79.35569,
          43.73429
        ]
      }
    },
    {
      "type": "Feature",
      "properties": {
        "title": "Leslie St At Queen St East South Side",
        "tag": "459",
        "stopId": "11377"
      },
      "geometry": {
        "type": "Point",
        "coordinates": [
          -79.3300499,
          43.6626499
        ]
      }
    },
    {
      "type": "Feature",
      "properties": {
        "title": "Lonsdale Rd At Avenue Rd East Side",
        "tag": "461",
        "stopId": "1242"
      },
      "geometry": {
        "type": "Point",
        "coordinates": [
          -79.4022999,
          43.69083
        ]
      }
    },
    {
      "type": "Feature",
      "properties": {
        "title": "Exhibition Loop At Manitoba Dr",
        "tag": "462",
        "stopId": "13366"
      },
      "geometry": {
        "type": "Point",
        "coordinates": [
          -79.41471,
          43.6365099
        ]
      }
    },
    {
      "type": "Feature",
      "properties": {
        "title": "Exhibition Loop",
        "tag": "463",
        "stopId": "12584"
      },
      "geometry": {
        "type": "Point",
        "coordinates": [
          -79.41537,
          43.6363299
        ]
      }
    },
    {
      "type": "Feature",
      "properties": {
        "title": "Toronto Zoo",
        "tag": "465",
        "stopId": "6528"
      },
      "geometry": {
        "type": "Point",
        "coordinates": [
          -79.17995,
          43.8197399
        ]
      }
    },
    {
      "type": "Feature",
      "properties": {
        "title": "Toronto Zoo",
        "tag": "466",
        "stopId": "6527"
      },
      "geometry": {
        "type": "Point",
        "coordinates": [
          -79.17988,
          43.8196099
        ]
      }
    },
    {
      "type": "Feature",
      "properties": {
        "title": "Toronto Zoo",
        "tag": "467",
        "stopId": "6526"
      },
      "geometry": {
        "type": "Point",
        "coordinates": [
          -79.17967,
          43.8192699
        ]
      }
    },
    {
      "type": "Feature",
      "properties": {
        "title": "Rouge Hill Go Station Loop",
        "tag": "468",
        "stopId": "5519"
      },
      "geometry": {
        "type": "Point",
        "coordinates": [
          -79.13047,
          43.7807199
        ]
      }
    },
    {
      "type": "Feature",
      "properties": {
        "title": "Rouge Hill Go Station Loop At Lawrence Ave East",
        "tag": "469",
        "stopId": "10939"
      },
      "geometry": {
        "type": "Point",
        "coordinates": [
          -79.12981,
          43.7808699
        ]
      }
    },
    {
      "type": "Feature",
      "properties": {
        "title": "Rouge Hill Go Station Loop At Lawrence Ave East",
        "tag": "470",
        "stopId": "6530"
      },
      "geometry": {
        "type": "Point",
        "coordinates": [
          -79.13015,
          43.7806799
        ]
      }
    },
    {
      "type": "Feature",
      "properties": {
        "title": "Humber Loop At The Queensway",
        "tag": "471",
        "stopId": "6532"
      },
      "geometry": {
        "type": "Point",
        "coordinates": [
          -79.47887,
          43.6311199
        ]
      }
    },
    {
      "type": "Feature",
      "properties": {
        "title": "Humber Loop At The Queensway",
        "tag": "472",
        "stopId": "6523"
      },
      "geometry": {
        "type": "Point",
        "coordinates": [
          -79.4787299,
          43.6309999
        ]
      }
    },
    {
      "type": "Feature",
      "properties": {
        "title": "Earlscourt Loop At St Clair Ave West",
        "tag": "475",
        "stopId": "7948"
      },
      "geometry": {
        "type": "Point",
        "coordinates": [
          -79.45103,
          43.6759799
        ]
      }
    },
    {
      "type": "Feature",
      "properties": {
        "title": "Long Branch Loop",
        "tag": "477",
        "stopId": "4435"
      },
      "geometry": {
        "type": "Point",
        "coordinates": [
          -79.5437,
          43.5921099
        ]
      }
    },
    {
      "type": "Feature",
      "properties": {
        "title": "Queens Quay Loop At Lower Spadina Ave",
        "tag": "478",
        "stopId": "10927"
      },
      "geometry": {
        "type": "Point",
        "coordinates": [
          -79.39184,
          43.6384199
        ]
      }
    },
    {
      "type": "Feature",
      "properties": {
        "title": "Sunnyside Loop",
        "tag": "481",
        "stopId": "11155"
      },
      "geometry": {
        "type": "Point",
        "coordinates": [
          -79.44835,
          43.6390499
        ]
      }
    },
    {
      "type": "Feature",
      "properties": {
        "title": "Westwood Mall Loop At Morning Star Dr",
        "tag": "485",
        "stopId": "14061"
      },
      "geometry": {
        "type": "Point",
        "coordinates": [
          -79.64071,
          43.7217299
        ]
      }
    },
    {
      "type": "Feature",
      "properties": {
        "title": "Lumsden Ave At Westlake Ave",
        "tag": "486",
        "stopId": "2852"
      },
      "geometry": {
        "type": "Point",
        "coordinates": [
          -79.30785,
          43.6945599
        ]
      }
    },
    {
      "type": "Feature",
      "properties": {
        "title": "Progress Ave At Markham Rd East Side",
        "tag": "487",
        "stopId": "11364"
      },
      "geometry": {
        "type": "Point",
        "coordinates": [
          -79.23326,
          43.7819299
        ]
      }
    },
    {
      "type": "Feature",
      "properties": {
        "title": "Queen St West At Shaw St",
        "tag": "491",
        "stopId": "6051"
      },
      "geometry": {
        "type": "Point",
        "coordinates": [
          -79.4168499,
          43.6445
        ]
      }
    },
    {
      "type": "Feature",
      "properties": {
        "title": "Queen'S Park Cres West At Hoskin Ave",
        "tag": "492",
        "stopId": "8038"
      },
      "geometry": {
        "type": "Point",
        "coordinates": [
          -79.3937499,
          43.6655999
        ]
      }
    },
    {
      "type": "Feature",
      "properties": {
        "title": "Queen'S Park Cres East At St Joseph St North Side",
        "tag": "493",
        "stopId": "1459"
      },
      "geometry": {
        "type": "Point",
        "coordinates": [
          -79.39123,
          43.66527
        ]
      }
    },
    {
      "type": "Feature",
      "properties": {
        "title": "Queen'S Park Cres West At Queen'S Park Cres West",
        "tag": "494",
        "stopId": "1461"
      },
      "geometry": {
        "type": "Point",
        "coordinates": [
          -79.3932399,
          43.66617
        ]
      }
    },
    {
      "type": "Feature",
      "properties": {
        "title": "Queen'S Park Cres West At University Library",
        "tag": "495",
        "stopId": "1463"
      },
      "geometry": {
        "type": "Point",
        "coordinates": [
          -79.39277,
          43.66214
        ]
      }
    },
    {
      "type": "Feature",
      "properties": {
        "title": "The Queensway At Morgan Ave",
        "tag": "496",
        "stopId": "12139"
      },
      "geometry": {
        "type": "Point",
        "coordinates": [
          -79.50178,
          43.6264299
        ]
      }
    },
    {
      "type": "Feature",
      "properties": {
        "title": "The Queensway At Stephen Dr",
        "tag": "497",
        "stopId": "6920"
      },
      "geometry": {
        "type": "Point",
        "coordinates": [
          -79.48402,
          43.6305199
        ]
      }
    },
    {
      "type": "Feature",
      "properties": {
        "title": "The Queensway At Windermere Ave West Side",
        "tag": "498",
        "stopId": "6923"
      },
      "geometry": {
        "type": "Point",
        "coordinates": [
          -79.47047,
          43.6373099
        ]
      }
    },
    {
      "type": "Feature",
      "properties": {
        "title": "Rathburn Rd At Lloyd Manor Rd",
        "tag": "500",
        "stopId": "6011"
      },
      "geometry": {
        "type": "Point",
        "coordinates": [
          -79.54637,
          43.6592
        ]
      }
    },
    {
      "type": "Feature",
      "properties": {
        "title": "Redpath Ave At Broadway Ave",
        "tag": "501",
        "stopId": "10880"
      },
      "geometry": {
        "type": "Point",
        "coordinates": [
          -79.39372,
          43.71048
        ]
      }
    },
    {
      "type": "Feature",
      "properties": {
        "title": "Redpath Ave At Broadway Ave",
        "tag": "502",
        "stopId": "11109"
      },
      "geometry": {
        "type": "Point",
        "coordinates": [
          -79.39397,
          43.71069
        ]
      }
    },
    {
      "type": "Feature",
      "properties": {
        "title": "Redpath Ave At Eglinton Ave East North Side",
        "tag": "503",
        "stopId": "10878"
      },
      "geometry": {
        "type": "Point",
        "coordinates": [
          -79.39287,
          43.7082099
        ]
      }
    },
    {
      "type": "Feature",
      "properties": {
        "title": "Redpath Ave At Eglinton Ave East",
        "tag": "504",
        "stopId": "11123"
      },
      "geometry": {
        "type": "Point",
        "coordinates": [
          -79.39295,
          43.7080999
        ]
      }
    },
    {
      "type": "Feature",
      "properties": {
        "title": "Redpath Ave At Erskine Ave South Side",
        "tag": "505",
        "stopId": "11122"
      },
      "geometry": {
        "type": "Point",
        "coordinates": [
          -79.39433,
          43.7116099
        ]
      }
    },
    {
      "type": "Feature",
      "properties": {
        "title": "Redpath Ave At Erskine Ave",
        "tag": "506",
        "stopId": "10881"
      },
      "geometry": {
        "type": "Point",
        "coordinates": [
          -79.39429,
          43.71192
        ]
      }
    },
    {
      "type": "Feature",
      "properties": {
        "title": "Redpath Ave At Roehampton Ave",
        "tag": "507",
        "stopId": "10879"
      },
      "geometry": {
        "type": "Point",
        "coordinates": [
          -79.3931399,
          43.7089699
        ]
      }
    },
    {
      "type": "Feature",
      "properties": {
        "title": "Redpath Ave At Roehampton Ave",
        "tag": "508",
        "stopId": "11110"
      },
      "geometry": {
        "type": "Point",
        "coordinates": [
          -79.3933899,
          43.7091799
        ]
      }
    },
    {
      "type": "Feature",
      "properties": {
        "title": "Renforth Dr At Eglinton Ave West",
        "tag": "510",
        "stopId": "8069"
      },
      "geometry": {
        "type": "Point",
        "coordinates": [
          -79.5871699,
          43.6660999
        ]
      }
    },
    {
      "type": "Feature",
      "properties": {
        "title": "Michael Power / St Joseph H.s.",
        "tag": "512",
        "stopId": "11628"
      },
      "geometry": {
        "type": "Point",
        "coordinates": [
          -79.58296,
          43.6594799
        ]
      }
    },
    {
      "type": "Feature",
      "properties": {
        "title": "Michael Power / St Joseph H.s.",
        "tag": "513",
        "stopId": "11627"
      },
      "geometry": {
        "type": "Point",
        "coordinates": [
          -79.58287,
          43.6592899
        ]
      }
    },
    {
      "type": "Feature",
      "properties": {
        "title": "Richmond St East At Jarvis St West Side",
        "tag": "514",
        "stopId": "11346"
      },
      "geometry": {
        "type": "Point",
        "coordinates": [
          -79.37411,
          43.6527999
        ]
      }
    },
    {
      "type": "Feature",
      "properties": {
        "title": "Richmond St East At Sherbourne St West Side",
        "tag": "515",
        "stopId": "11319"
      },
      "geometry": {
        "type": "Point",
        "coordinates": [
          -79.36956,
          43.6533399
        ]
      }
    },
    {
      "type": "Feature",
      "properties": {
        "title": "Rogers Rd At Keele St",
        "tag": "520",
        "stopId": "6031"
      },
      "geometry": {
        "type": "Point",
        "coordinates": [
          -79.47132,
          43.6821899
        ]
      }
    },
    {
      "type": "Feature",
      "properties": {
        "title": "Royal York Rd At Dixon Rd",
        "tag": "522",
        "stopId": "6991"
      },
      "geometry": {
        "type": "Point",
        "coordinates": [
          -79.53399,
          43.69962
        ]
      }
    },
    {
      "type": "Feature",
      "properties": {
        "title": "Royal York Rd At Eglinton Ave West South Side",
        "tag": "523",
        "stopId": "12175"
      },
      "geometry": {
        "type": "Point",
        "coordinates": [
          -79.52648,
          43.6816999
        ]
      }
    },
    {
      "type": "Feature",
      "properties": {
        "title": "Sentinel Rd At Finch Ave West",
        "tag": "526",
        "stopId": "8082"
      },
      "geometry": {
        "type": "Point",
        "coordinates": [
          -79.50023,
          43.76119
        ]
      }
    },
    {
      "type": "Feature",
      "properties": {
        "title": "Sentinel Rd At The Pond Rd",
        "tag": "527",
        "stopId": "4498"
      },
      "geometry": {
        "type": "Point",
        "coordinates": [
          -79.5023,
          43.76992
        ]
      }
    },
    {
      "type": "Feature",
      "properties": {
        "title": "Sewells Rd At Brenyon Way East Side",
        "tag": "528",
        "stopId": "10870"
      },
      "geometry": {
        "type": "Point",
        "coordinates": [
          -79.21503,
          43.80795
        ]
      }
    },
    {
      "type": "Feature",
      "properties": {
        "title": "Sewells Rd At Brenyon Way",
        "tag": "529",
        "stopId": "10873"
      },
      "geometry": {
        "type": "Point",
        "coordinates": [
          -79.2155299,
          43.80792
        ]
      }
    },
    {
      "type": "Feature",
      "properties": {
        "title": "Sewells Rd At McLevin Ave",
        "tag": "530",
        "stopId": "10871"
      },
      "geometry": {
        "type": "Point",
        "coordinates": [
          -79.21377,
          43.8103099
        ]
      }
    },
    {
      "type": "Feature",
      "properties": {
        "title": "Sheppard Ave East At Commons Dr",
        "tag": "532",
        "stopId": "7172"
      },
      "geometry": {
        "type": "Point",
        "coordinates": [
          -79.32055,
          43.7757099
        ]
      }
    },
    {
      "type": "Feature",
      "properties": {
        "title": "Sheppard Ave East At Commons Dr",
        "tag": "533",
        "stopId": "11025"
      },
      "geometry": {
        "type": "Point",
        "coordinates": [
          -79.32094,
          43.7756099
        ]
      }
    },
    {
      "type": "Feature",
      "properties": {
        "title": "Sheppard Ave East At Meadowvale Rd",
        "tag": "534",
        "stopId": "11669"
      },
      "geometry": {
        "type": "Point",
        "coordinates": [
          -79.1711,
          43.8081799
        ]
      }
    },
    {
      "type": "Feature",
      "properties": {
        "title": "Sheppard Ave East At Victoria Park Ave East Side",
        "tag": "535",
        "stopId": "13918"
      },
      "geometry": {
        "type": "Point",
        "coordinates": [
          -79.32224,
          43.7752899
        ]
      }
    },
    {
      "type": "Feature",
      "properties": {
        "title": "Sheppard Ave West At Jane St East Side",
        "tag": "536",
        "stopId": "6069"
      },
      "geometry": {
        "type": "Point",
        "coordinates": [
          -79.51258,
          43.7393699
        ]
      }
    },
    {
      "type": "Feature",
      "properties": {
        "title": "Sheppard Ave West At Sentinel Rd",
        "tag": "537",
        "stopId": "6087"
      },
      "geometry": {
        "type": "Point",
        "coordinates": [
          -79.49166,
          43.7437899
        ]
      }
    },
    {
      "type": "Feature",
      "properties": {
        "title": "Sheppard Ave West At William R Allen Rd West Side",
        "tag": "538",
        "stopId": "4598"
      },
      "geometry": {
        "type": "Point",
        "coordinates": [
          -79.4638999,
          43.7502499
        ]
      }
    },
    {
      "type": "Feature",
      "properties": {
        "title": "Sherway Gardens Rd At Sherway Gate (Mall)",
        "tag": "540",
        "stopId": "3117"
      },
      "geometry": {
        "type": "Point",
        "coordinates": [
          -79.55844,
          43.6097299
        ]
      }
    },
    {
      "type": "Feature",
      "properties": {
        "title": "Sherway Gardens Rd At Sherway Gate (Mall) West Side",
        "tag": "541",
        "stopId": "9108"
      },
      "geometry": {
        "type": "Point",
        "coordinates": [
          -79.55823,
          43.6100199
        ]
      }
    },
    {
      "type": "Feature",
      "properties": {
        "title": "Sherway Gardens Rd At Sherway Gate (Mall)",
        "tag": "542",
        "stopId": "9109"
      },
      "geometry": {
        "type": "Point",
        "coordinates": [
          -79.55802,
          43.6097899
        ]
      }
    },
    {
      "type": "Feature",
      "properties": {
        "title": "Sherway Gardens Rd At Sherway Gate Mall)",
        "tag": "543",
        "stopId": "11587"
      },
      "geometry": {
        "type": "Point",
        "coordinates": [
          -79.55777,
          43.6098499
        ]
      }
    },
    {
      "type": "Feature",
      "properties": {
        "title": "Main St At Danforth Ave",
        "tag": "549",
        "stopId": "1262"
      },
      "geometry": {
        "type": "Point",
        "coordinates": [
          -79.30163,
          43.6880399
        ]
      }
    },
    {
      "type": "Feature",
      "properties": {
        "title": "Main St At Danforth Ave",
        "tag": "550",
        "stopId": "11826"
      },
      "geometry": {
        "type": "Point",
        "coordinates": [
          -79.3015299,
          43.6877999
        ]
      }
    },
    {
      "type": "Feature",
      "properties": {
        "title": "Main St At Doncaster Ave",
        "tag": "551",
        "stopId": "2855"
      },
      "geometry": {
        "type": "Point",
        "coordinates": [
          -79.30325,
          43.69156
        ]
      }
    },
    {
      "type": "Feature",
      "properties": {
        "title": "Main St At Gerrard St East",
        "tag": "552",
        "stopId": "1264"
      },
      "geometry": {
        "type": "Point",
        "coordinates": [
          -79.3003099,
          43.68406
        ]
      }
    },
    {
      "type": "Feature",
      "properties": {
        "title": "Main St At Gerrard St East",
        "tag": "553",
        "stopId": "13923"
      },
      "geometry": {
        "type": "Point",
        "coordinates": [
          -79.3002099,
          43.6841799
        ]
      }
    },
    {
      "type": "Feature",
      "properties": {
        "title": "Exhibition Loop",
        "tag": "556",
        "stopId": "11990"
      },
      "geometry": {
        "type": "Point",
        "coordinates": [
          -79.4165299,
          43.63581
        ]
      }
    },
    {
      "type": "Feature",
      "properties": {
        "title": "Exhibition Loop",
        "tag": "557",
        "stopId": "11989"
      },
      "geometry": {
        "type": "Point",
        "coordinates": [
          -79.41641,
          43.6359699
        ]
      }
    },
    {
      "type": "Feature",
      "properties": {
        "title": "Markham Rd At Passmore Ave North Side",
        "tag": "558",
        "stopId": "13900"
      },
      "geometry": {
        "type": "Point",
        "coordinates": [
          -79.25061,
          43.8311399
        ]
      }
    },
    {
      "type": "Feature",
      "properties": {
        "title": "Martin Grove Rd At Finch Ave West North Side",
        "tag": "560",
        "stopId": "11331"
      },
      "geometry": {
        "type": "Point",
        "coordinates": [
          -79.59171,
          43.7372399
        ]
      }
    },
    {
      "type": "Feature",
      "properties": {
        "title": "Martin Grove Rd At John Garland Blvd",
        "tag": "561",
        "stopId": "5620"
      },
      "geometry": {
        "type": "Point",
        "coordinates": [
          -79.58917,
          43.73192
        ]
      }
    },
    {
      "type": "Feature",
      "properties": {
        "title": "Martin Grove Rd At Mercury Rd",
        "tag": "562",
        "stopId": "5627"
      },
      "geometry": {
        "type": "Point",
        "coordinates": [
          -79.58689,
          43.72612
        ]
      }
    },
    {
      "type": "Feature",
      "properties": {
        "title": "Westhumber Blvd At Martin Grove Rd North Side",
        "tag": "563",
        "stopId": "7957"
      },
      "geometry": {
        "type": "Point",
        "coordinates": [
          -79.5867,
          43.7263599
        ]
      }
    },
    {
      "type": "Feature",
      "properties": {
        "title": "2061 McCowan Rd",
        "tag": "564",
        "stopId": "1286"
      },
      "geometry": {
        "type": "Point",
        "coordinates": [
          -79.2610699,
          43.7954399
        ]
      }
    },
    {
      "type": "Feature",
      "properties": {
        "title": "McCowan Rd At Bushby Dr North Side",
        "tag": "565",
        "stopId": "0777"
      },
      "geometry": {
        "type": "Point",
        "coordinates": [
          -79.25217,
          43.7749399
        ]
      }
    },
    {
      "type": "Feature",
      "properties": {
        "title": "McCowan Rd At Elson St",
        "tag": "566",
        "stopId": "9993"
      },
      "geometry": {
        "type": "Point",
        "coordinates": [
          -79.27602,
          43.83497
        ]
      }
    },
    {
      "type": "Feature",
      "properties": {
        "title": "McCowan Rd At Steeles Ave East North Side",
        "tag": "567",
        "stopId": "9807"
      },
      "geometry": {
        "type": "Point",
        "coordinates": [
          -79.2752,
          43.8317699
        ]
      }
    },
    {
      "type": "Feature",
      "properties": {
        "title": "McCowan Ave At Steeles Ave East South Side",
        "tag": "568",
        "stopId": "10577"
      },
      "geometry": {
        "type": "Point",
        "coordinates": [
          -79.27516,
          43.8302899
        ]
      }
    },
    {
      "type": "Feature",
      "properties": {
        "title": "McCowan Rd At Town Centre Crt",
        "tag": "569",
        "stopId": "9616"
      },
      "geometry": {
        "type": "Point",
        "coordinates": [
          -79.2525899,
          43.7747899
        ]
      }
    },
    {
      "type": "Feature",
      "properties": {
        "title": "1020 McNicoll Ave",
        "tag": "570",
        "stopId": "2874"
      },
      "geometry": {
        "type": "Point",
        "coordinates": [
          -79.33571,
          43.8042999
        ]
      }
    },
    {
      "type": "Feature",
      "properties": {
        "title": "McNicoll Ave At Silver Springs Blvd",
        "tag": "571",
        "stopId": "12017"
      },
      "geometry": {
        "type": "Point",
        "coordinates": [
          -79.30645,
          43.8098999
        ]
      }
    },
    {
      "type": "Feature",
      "properties": {
        "title": "McNicoll Ave At Silver Springs Blvd",
        "tag": "572",
        "stopId": "12035"
      },
      "geometry": {
        "type": "Point",
        "coordinates": [
          -79.30622,
          43.8101499
        ]
      }
    },
    {
      "type": "Feature",
      "properties": {
        "title": "McNicoll Ave At Victoria Park Ave",
        "tag": "573",
        "stopId": "9179"
      },
      "geometry": {
        "type": "Point",
        "coordinates": [
          -79.33663,
          43.8039199
        ]
      }
    },
    {
      "type": "Feature",
      "properties": {
        "title": "Meadowvale Rd At Sheppard Ave East",
        "tag": "574",
        "stopId": "6575"
      },
      "geometry": {
        "type": "Point",
        "coordinates": [
          -79.1710499,
          43.8085799
        ]
      }
    },
    {
      "type": "Feature",
      "properties": {
        "title": "Military Trail At Morningside Ave",
        "tag": "576",
        "stopId": "11415"
      },
      "geometry": {
        "type": "Point",
        "coordinates": [
          -79.19326,
          43.7890099
        ]
      }
    },
    {
      "type": "Feature",
      "properties": {
        "title": "Millwood Rd At Overlea Blvd North Side",
        "tag": "577",
        "stopId": "5753"
      },
      "geometry": {
        "type": "Point",
        "coordinates": [
          -79.35325,
          43.7021199
        ]
      }
    },
    {
      "type": "Feature",
      "properties": {
        "title": "Millwood Rd At Overlea Blvd",
        "tag": "578",
        "stopId": "4484"
      },
      "geometry": {
        "type": "Point",
        "coordinates": [
          -79.35243,
          43.7018699
        ]
      }
    },
    {
      "type": "Feature",
      "properties": {
        "title": "Morningside Ave At Casebridge Ct North Side",
        "tag": "579",
        "stopId": "10947"
      },
      "geometry": {
        "type": "Point",
        "coordinates": [
          -79.20273,
          43.8092499
        ]
      }
    },
    {
      "type": "Feature",
      "properties": {
        "title": "Morningside Ave At John Stoner Dr South Side",
        "tag": "580",
        "stopId": "11249"
      },
      "geometry": {
        "type": "Point",
        "coordinates": [
          -79.20599,
          43.8130199
        ]
      }
    },
    {
      "type": "Feature",
      "properties": {
        "title": "Nightstar Rd At Morningside Ave North Side",
        "tag": "581",
        "stopId": "13906"
      },
      "geometry": {
        "type": "Point",
        "coordinates": [
          -79.2304699,
          43.8233999
        ]
      }
    },
    {
      "type": "Feature",
      "properties": {
        "title": "Morningside Ave At Walkway South Of Oasis",
        "tag": "582",
        "stopId": "14104"
      },
      "geometry": {
        "type": "Point",
        "coordinates": [
          -79.23287,
          43.8265499
        ]
      }
    },
    {
      "type": "Feature",
      "properties": {
        "title": "Morning Star Dr At Catalpa Rd",
        "tag": "583",
        "stopId": "5755"
      },
      "geometry": {
        "type": "Point",
        "coordinates": [
          -79.6432,
          43.7197499
        ]
      }
    },
    {
      "type": "Feature",
      "properties": {
        "title": "Morning Star Dr At Catalpa Rd",
        "tag": "584",
        "stopId": "5756"
      },
      "geometry": {
        "type": "Point",
        "coordinates": [
          -79.64303,
          43.7201499
        ]
      }
    },
    {
      "type": "Feature",
      "properties": {
        "title": "Morning Star Dr At Airport Rd East Side",
        "tag": "585",
        "stopId": "5758"
      },
      "geometry": {
        "type": "Point",
        "coordinates": [
          -79.64977,
          43.7099899
        ]
      }
    },
    {
      "type": "Feature",
      "properties": {
        "title": "Morning Star Dr At Lancaster Ave",
        "tag": "586",
        "stopId": "5759"
      },
      "geometry": {
        "type": "Point",
        "coordinates": [
          -79.64742,
          43.7127599
        ]
      }
    },
    {
      "type": "Feature",
      "properties": {
        "title": "Morning Star Dr At Manion Rd",
        "tag": "587",
        "stopId": "5760"
      },
      "geometry": {
        "type": "Point",
        "coordinates": [
          -79.64774,
          43.7125699
        ]
      }
    },
    {
      "type": "Feature",
      "properties": {
        "title": "Morning Star Dr At Reindeer Dr West Side",
        "tag": "588",
        "stopId": "5763"
      },
      "geometry": {
        "type": "Point",
        "coordinates": [
          -79.64696,
          43.7141299
        ]
      }
    },
    {
      "type": "Feature",
      "properties": {
        "title": "Morning Star Dr At Reindeer Dr",
        "tag": "589",
        "stopId": "5764"
      },
      "geometry": {
        "type": "Point",
        "coordinates": [
          -79.6464999,
          43.71464
        ]
      }
    },
    {
      "type": "Feature",
      "properties": {
        "title": "Mortimer Ave At Coxwell Ave West Side (Michael Garron Hospital)",
        "tag": "590",
        "stopId": "5773"
      },
      "geometry": {
        "type": "Point",
        "coordinates": [
          -79.32706,
          43.6905599
        ]
      }
    },
    {
      "type": "Feature",
      "properties": {
        "title": "Mt Pleasant Rd At Elm Ave",
        "tag": "592",
        "stopId": "11453"
      },
      "geometry": {
        "type": "Point",
        "coordinates": [
          -79.38031,
          43.67462
        ]
      }
    },
    {
      "type": "Feature",
      "properties": {
        "title": "Mt Pleasant Rd At Inglewood Dr",
        "tag": "593",
        "stopId": "11705"
      },
      "geometry": {
        "type": "Point",
        "coordinates": [
          -79.38346,
          43.6882299
        ]
      }
    },
    {
      "type": "Feature",
      "properties": {
        "title": "Mt Pleasant Rd At St Clair Ave East South Side",
        "tag": "594",
        "stopId": "10883"
      },
      "geometry": {
        "type": "Point",
        "coordinates": [
          -79.38325,
          43.6899599
        ]
      }
    },
    {
      "type": "Feature",
      "properties": {
        "title": "Neilson Rd At Finch Ave East South Side",
        "tag": "595",
        "stopId": "1380"
      },
      "geometry": {
        "type": "Point",
        "coordinates": [
          -79.2273099,
          43.8154399
        ]
      }
    },
    {
      "type": "Feature",
      "properties": {
        "title": "Neilson Rd At Finch Ave East South Side",
        "tag": "596",
        "stopId": "11667"
      },
      "geometry": {
        "type": "Point",
        "coordinates": [
          -79.22741,
          43.8156399
        ]
      }
    },
    {
      "type": "Feature",
      "properties": {
        "title": "Oakwood Ave At Eglinton Ave South Side",
        "tag": "597",
        "stopId": "5904"
      },
      "geometry": {
        "type": "Point",
        "coordinates": [
          -79.4427199,
          43.6969299
        ]
      }
    },
    {
      "type": "Feature",
      "properties": {
        "title": "Oakwood Ave At Rogers Rd",
        "tag": "598",
        "stopId": "5911"
      },
      "geometry": {
        "type": "Point",
        "coordinates": [
          -79.4385699,
          43.6870299
        ]
      }
    },
    {
      "type": "Feature",
      "properties": {
        "title": "O'Connor Dr At Pape Ave",
        "tag": "599",
        "stopId": "1419"
      },
      "geometry": {
        "type": "Point",
        "coordinates": [
          -79.35044,
          43.6931199
        ]
      }
    },
    {
      "type": "Feature",
      "properties": {
        "title": "Old Weston Rd At St Clair Ave West North Side",
        "tag": "600",
        "stopId": "4509"
      },
      "geometry": {
        "type": "Point",
        "coordinates": [
          -79.46306,
          43.6739499
        ]
      }
    },
    {
      "type": "Feature",
      "properties": {
        "title": "Old Weston Rd At St Clair Ave West",
        "tag": "601",
        "stopId": "11583"
      },
      "geometry": {
        "type": "Point",
        "coordinates": [
          -79.4628499,
          43.6732499
        ]
      }
    },
    {
      "type": "Feature",
      "properties": {
        "title": "Old Weston Rd At St Clair Ave West",
        "tag": "602",
        "stopId": "4508"
      },
      "geometry": {
        "type": "Point",
        "coordinates": [
          -79.46312,
          43.67363
        ]
      }
    },
    {
      "type": "Feature",
      "properties": {
        "title": "Ossington Ave At Bloor St West",
        "tag": "606",
        "stopId": "8008"
      },
      "geometry": {
        "type": "Point",
        "coordinates": [
          -79.4254499,
          43.6618199
        ]
      }
    },
    {
      "type": "Feature",
      "properties": {
        "title": "Ossington Ave At Bloor St West",
        "tag": "607",
        "stopId": "9857"
      },
      "geometry": {
        "type": "Point",
        "coordinates": [
          -79.4257699,
          43.6620599
        ]
      }
    },
    {
      "type": "Feature",
      "properties": {
        "title": "Overlea Blvd At Millwood Rd East Side",
        "tag": "609",
        "stopId": "2979"
      },
      "geometry": {
        "type": "Point",
        "coordinates": [
          -79.35223,
          43.70245
        ]
      }
    },
    {
      "type": "Feature",
      "properties": {
        "title": "Overlea Blvd At Millwood Rd",
        "tag": "610",
        "stopId": "8009"
      },
      "geometry": {
        "type": "Point",
        "coordinates": [
          -79.35273,
          43.7023499
        ]
      }
    },
    {
      "type": "Feature",
      "properties": {
        "title": "Overlea Blvd At Thorncliffe Park Dr (East)",
        "tag": "611",
        "stopId": "8011"
      },
      "geometry": {
        "type": "Point",
        "coordinates": [
          -79.3440299,
          43.70725
        ]
      }
    },
    {
      "type": "Feature",
      "properties": {
        "title": "Pape Ave At Lipton Ave North Side",
        "tag": "612",
        "stopId": "11846"
      },
      "geometry": {
        "type": "Point",
        "coordinates": [
          -79.34514,
          43.6798899
        ]
      }
    },
    {
      "type": "Feature",
      "properties": {
        "title": "Pape Ave At O'Connor Dr North Side",
        "tag": "613",
        "stopId": "4501"
      },
      "geometry": {
        "type": "Point",
        "coordinates": [
          -79.35037,
          43.6936599
        ]
      }
    },
    {
      "type": "Feature",
      "properties": {
        "title": "Parliament St At Carlton St",
        "tag": "614",
        "stopId": "1451"
      },
      "geometry": {
        "type": "Point",
        "coordinates": [
          -79.36772,
          43.66391
        ]
      }
    },
    {
      "type": "Feature",
      "properties": {
        "title": "Parliament St At Gerrard St East",
        "tag": "615",
        "stopId": "1452"
      },
      "geometry": {
        "type": "Point",
        "coordinates": [
          -79.36717,
          43.66205
        ]
      }
    },
    {
      "type": "Feature",
      "properties": {
        "title": "Passmore Ave At Midland Ave West Side",
        "tag": "616",
        "stopId": "13336"
      },
      "geometry": {
        "type": "Point",
        "coordinates": [
          -79.29589,
          43.8205399
        ]
      }
    },
    {
      "type": "Feature",
      "properties": {
        "title": "Peter Kaiser Gate At Steeles Ave West",
        "tag": "617",
        "stopId": "1453"
      },
      "geometry": {
        "type": "Point",
        "coordinates": [
          -79.52663,
          43.77401
        ]
      }
    },
    {
      "type": "Feature",
      "properties": {
        "title": "Pharmacy Ave At Ellesmere Rd",
        "tag": "619",
        "stopId": "6698"
      },
      "geometry": {
        "type": "Point",
        "coordinates": [
          -79.3100399,
          43.7588899
        ]
      }
    },
    {
      "type": "Feature",
      "properties": {
        "title": "Port Union Rd At Adenmore Rd North Side",
        "tag": "620",
        "stopId": "9885"
      },
      "geometry": {
        "type": "Point",
        "coordinates": [
          -79.13747,
          43.78177
        ]
      }
    },
    {
      "type": "Feature",
      "properties": {
        "title": "Finch Ave West At Dufferin St",
        "tag": "623",
        "stopId": "3587"
      },
      "geometry": {
        "type": "Point",
        "coordinates": [
          -79.4673,
          43.7686199
        ]
      }
    },
    {
      "type": "Feature",
      "properties": {
        "title": "Finch Ave West At Jane St",
        "tag": "624",
        "stopId": "13709"
      },
      "geometry": {
        "type": "Point",
        "coordinates": [
          -79.51811,
          43.75707
        ]
      }
    },
    {
      "type": "Feature",
      "properties": {
        "title": "Finch Ave West At Martin Grove Rd West Side",
        "tag": "627",
        "stopId": "11200"
      },
      "geometry": {
        "type": "Point",
        "coordinates": [
          -79.59245,
          43.7367099
        ]
      }
    },
    {
      "type": "Feature",
      "properties": {
        "title": "Finch Ave West At Rumike Rd East Side",
        "tag": "628",
        "stopId": "12456"
      },
      "geometry": {
        "type": "Point",
        "coordinates": [
          -79.55162,
          43.7499699
        ]
      }
    },
    {
      "type": "Feature",
      "properties": {
        "title": "Finch Ave West At Senlac Rd",
        "tag": "629",
        "stopId": "3613"
      },
      "geometry": {
        "type": "Point",
        "coordinates": [
          -79.43034,
          43.7763299
        ]
      }
    },
    {
      "type": "Feature",
      "properties": {
        "title": "Finch Ave West At Sentinel Rd East Side",
        "tag": "630",
        "stopId": "9821"
      },
      "geometry": {
        "type": "Point",
        "coordinates": [
          -79.49923,
          43.7611099
        ]
      }
    },
    {
      "type": "Feature",
      "properties": {
        "title": "Finch Ave West At Wilmington Ave",
        "tag": "631",
        "stopId": "3622"
      },
      "geometry": {
        "type": "Point",
        "coordinates": [
          -79.4608299,
          43.77005
        ]
      }
    },
    {
      "type": "Feature",
      "properties": {
        "title": "Fleet St At Bathurst St",
        "tag": "632",
        "stopId": "10210"
      },
      "geometry": {
        "type": "Point",
        "coordinates": [
          -79.40013,
          43.6364699
        ]
      }
    },
    {
      "type": "Feature",
      "properties": {
        "title": "Freshmeadow Dr At Don Mills Rd",
        "tag": "638",
        "stopId": "2646"
      },
      "geometry": {
        "type": "Point",
        "coordinates": [
          -79.35869,
          43.8092399
        ]
      }
    },
    {
      "type": "Feature",
      "properties": {
        "title": "Freshmeadow Dr At Don Mills Rd",
        "tag": "639",
        "stopId": "9116"
      },
      "geometry": {
        "type": "Point",
        "coordinates": [
          -79.35883,
          43.8091599
        ]
      }
    },
    {
      "type": "Feature",
      "properties": {
        "title": "Front St East At Berkeley St",
        "tag": "640",
        "stopId": "9536"
      },
      "geometry": {
        "type": "Point",
        "coordinates": [
          -79.3637399,
          43.6514
        ]
      }
    },
    {
      "type": "Feature",
      "properties": {
        "title": "Front St West At Bay St East Side (Union Station)",
        "tag": "641",
        "stopId": "9406"
      },
      "geometry": {
        "type": "Point",
        "coordinates": [
          -79.37852,
          43.6459999
        ]
      }
    },
    {
      "type": "Feature",
      "properties": {
        "title": "Glen Rd At South Dr",
        "tag": "642",
        "stopId": "12491"
      },
      "geometry": {
        "type": "Point",
        "coordinates": [
          -79.3751799,
          43.67775
        ]
      }
    },
    {
      "type": "Feature",
      "properties": {
        "title": "Lawson Rd At Kingston Rd (Highway 2a Overpass)",
        "tag": "643",
        "stopId": "7480"
      },
      "geometry": {
        "type": "Point",
        "coordinates": [
          -79.16833,
          43.78413
        ]
      }
    },
    {
      "type": "Feature",
      "properties": {
        "title": "Highland Creek Overpass At Kingston Rd",
        "tag": "644",
        "stopId": "6625"
      },
      "geometry": {
        "type": "Point",
        "coordinates": [
          -79.1684899,
          43.78445
        ]
      }
    },
    {
      "type": "Feature",
      "properties": {
        "title": "Highland Creek Overpass At Kingston Rd",
        "tag": "645",
        "stopId": "11560"
      },
      "geometry": {
        "type": "Point",
        "coordinates": [
          -79.1682799,
          43.7842799
        ]
      }
    },
    {
      "type": "Feature",
      "properties": {
        "title": "Highway 27 At Queens Plate Dr (Woodbine Mall)",
        "tag": "646",
        "stopId": "11504"
      },
      "geometry": {
        "type": "Point",
        "coordinates": [
          -79.5977799,
          43.7224499
        ]
      }
    },
    {
      "type": "Feature",
      "properties": {
        "title": "Humber College Blvd At Carrier Dr",
        "tag": "647",
        "stopId": "11084"
      },
      "geometry": {
        "type": "Point",
        "coordinates": [
          -79.6103099,
          43.7371399
        ]
      }
    },
    {
      "type": "Feature",
      "properties": {
        "title": "Humber College Blvd At Humberline Dr South Side",
        "tag": "648",
        "stopId": "12196"
      },
      "geometry": {
        "type": "Point",
        "coordinates": [
          -79.6088999,
          43.7317899
        ]
      }
    },
    {
      "type": "Feature",
      "properties": {
        "title": "Humber College Blvd At Humberline Dr",
        "tag": "649",
        "stopId": "7861"
      },
      "geometry": {
        "type": "Point",
        "coordinates": [
          -79.6094099,
          43.73228
        ]
      }
    },
    {
      "type": "Feature",
      "properties": {
        "title": "Humberline Dr At Humber College Blvd West Side",
        "tag": "650",
        "stopId": "12064"
      },
      "geometry": {
        "type": "Point",
        "coordinates": [
          -79.6096899,
          43.7319599
        ]
      }
    },
    {
      "type": "Feature",
      "properties": {
        "title": "Humberline Dr At Humber College Blvd",
        "tag": "651",
        "stopId": "11049"
      },
      "geometry": {
        "type": "Point",
        "coordinates": [
          -79.60956,
          43.73186
        ]
      }
    },
    {
      "type": "Feature",
      "properties": {
        "title": "Islington Ave At Bloor St West North Side",
        "tag": "654",
        "stopId": "9901"
      },
      "geometry": {
        "type": "Point",
        "coordinates": [
          -79.52359,
          43.64541
        ]
      }
    },
    {
      "type": "Feature",
      "properties": {
        "title": "Islington Ave At Bloor St West",
        "tag": "655",
        "stopId": "13363"
      },
      "geometry": {
        "type": "Point",
        "coordinates": [
          -79.52319,
          43.6445
        ]
      }
    },
    {
      "type": "Feature",
      "properties": {
        "title": "Islington Ave At Bloor St West",
        "tag": "656",
        "stopId": "9902"
      },
      "geometry": {
        "type": "Point",
        "coordinates": [
          -79.5236899,
          43.6448599
        ]
      }
    },
    {
      "type": "Feature",
      "properties": {
        "title": "Islington Ave At Central Park Roadway South Side",
        "tag": "657",
        "stopId": "3772"
      },
      "geometry": {
        "type": "Point",
        "coordinates": [
          -79.52502,
          43.64808
        ]
      }
    },
    {
      "type": "Feature",
      "properties": {
        "title": "Islington Ave At Finch Ave West",
        "tag": "658",
        "stopId": "3791"
      },
      "geometry": {
        "type": "Point",
        "coordinates": [
          -79.56838,
          43.74584
        ]
      }
    },
    {
      "type": "Feature",
      "properties": {
        "title": "Jane St At Annette St",
        "tag": "660",
        "stopId": "3863"
      },
      "geometry": {
        "type": "Point",
        "coordinates": [
          -79.4879999,
          43.6581699
        ]
      }
    },
    {
      "type": "Feature",
      "properties": {
        "title": "Jane St At Trethewey Dr",
        "tag": "661",
        "stopId": "3878"
      },
      "geometry": {
        "type": "Point",
        "coordinates": [
          -79.50258,
          43.69782
        ]
      }
    },
    {
      "type": "Feature",
      "properties": {
        "title": "Jane St At Finch Ave West South Side",
        "tag": "662",
        "stopId": "3891"
      },
      "geometry": {
        "type": "Point",
        "coordinates": [
          -79.51765,
          43.7563799
        ]
      }
    },
    {
      "type": "Feature",
      "properties": {
        "title": "Jane St At Heathrow Dr",
        "tag": "663",
        "stopId": "3903"
      },
      "geometry": {
        "type": "Point",
        "coordinates": [
          -79.5094399,
          43.7247999
        ]
      }
    },
    {
      "type": "Feature",
      "properties": {
        "title": "Jane St At Hullmar Dr",
        "tag": "664",
        "stopId": "10411"
      },
      "geometry": {
        "type": "Point",
        "coordinates": [
          -79.52114,
          43.7728
        ]
      }
    },
    {
      "type": "Feature",
      "properties": {
        "title": "Jane St At Hullmar Dr",
        "tag": "665",
        "stopId": "3904"
      },
      "geometry": {
        "type": "Point",
        "coordinates": [
          -79.52158,
          43.77336
        ]
      }
    },
    {
      "type": "Feature",
      "properties": {
        "title": "Jane St At Lambton Ave",
        "tag": "666",
        "stopId": "11842"
      },
      "geometry": {
        "type": "Point",
        "coordinates": [
          -79.49752,
          43.68093
        ]
      }
    },
    {
      "type": "Feature",
      "properties": {
        "title": "Jane St At Pritchard Ave",
        "tag": "667",
        "stopId": "3916"
      },
      "geometry": {
        "type": "Point",
        "coordinates": [
          -79.4930099,
          43.6697299
        ]
      }
    },
    {
      "type": "Feature",
      "properties": {
        "title": "Jane St At Wright Ave",
        "tag": "668",
        "stopId": "2740"
      },
      "geometry": {
        "type": "Point",
        "coordinates": [
          -79.5034099,
          43.7010899
        ]
      }
    },
    {
      "type": "Feature",
      "properties": {
        "title": "Jane St At Steeles Ave West",
        "tag": "669",
        "stopId": "10412"
      },
      "geometry": {
        "type": "Point",
        "coordinates": [
          -79.5215,
          43.77529
        ]
      }
    },
    {
      "type": "Feature",
      "properties": {
        "title": "Jarvis St At Carlton St North Side",
        "tag": "670",
        "stopId": "11011"
      },
      "geometry": {
        "type": "Point",
        "coordinates": [
          -79.3767199,
          43.6627199
        ]
      }
    },
    {
      "type": "Feature",
      "properties": {
        "title": "Jarvis St At Carlton St South Side",
        "tag": "671",
        "stopId": "10884"
      },
      "geometry": {
        "type": "Point",
        "coordinates": [
          -79.3766799,
          43.6620899
        ]
      }
    },
    {
      "type": "Feature",
      "properties": {
        "title": "Jarvis St At Dundas St East",
        "tag": "673",
        "stopId": "10885"
      },
      "geometry": {
        "type": "Point",
        "coordinates": [
          -79.37468,
          43.65719
        ]
      }
    },
    {
      "type": "Feature",
      "properties": {
        "title": "Jarvis St At Mt Pleasant Rd",
        "tag": "675",
        "stopId": "11013"
      },
      "geometry": {
        "type": "Point",
        "coordinates": [
          -79.3795599,
          43.6696999
        ]
      }
    },
    {
      "type": "Feature",
      "properties": {
        "title": "Jarvis St At Queen St East",
        "tag": "676",
        "stopId": "11009"
      },
      "geometry": {
        "type": "Point",
        "coordinates": [
          -79.3731,
          43.65361
        ]
      }
    },
    {
      "type": "Feature",
      "properties": {
        "title": "Jarvis St At Queen St East",
        "tag": "677",
        "stopId": "10886"
      },
      "geometry": {
        "type": "Point",
        "coordinates": [
          -79.3733799,
          43.6537999
        ]
      }
    },
    {
      "type": "Feature",
      "properties": {
        "title": "Jarvis St At Wellesley St East South Side",
        "tag": "678",
        "stopId": "10937"
      },
      "geometry": {
        "type": "Point",
        "coordinates": [
          -79.37833,
          43.6659999
        ]
      }
    },
    {
      "type": "Feature",
      "properties": {
        "title": "Jarvis St At Wellesley St East",
        "tag": "679",
        "stopId": "11012"
      },
      "geometry": {
        "type": "Point",
        "coordinates": [
          -79.37819,
          43.66618
        ]
      }
    },
    {
      "type": "Feature",
      "properties": {
        "title": "John Garland Blvd At Finch Ave West South Side",
        "tag": "680",
        "stopId": "12146"
      },
      "geometry": {
        "type": "Point",
        "coordinates": [
          -79.59466,
          43.7353099
        ]
      }
    },
    {
      "type": "Feature",
      "properties": {
        "title": "John Garland Blvd At Finch Ave West",
        "tag": "681",
        "stopId": "11199"
      },
      "geometry": {
        "type": "Point",
        "coordinates": [
          -79.59463,
          43.73558
        ]
      }
    },
    {
      "type": "Feature",
      "properties": {
        "title": "Keele St At Finch Ave West North Side (Finch West Station)",
        "tag": "683",
        "stopId": "9149"
      },
      "geometry": {
        "type": "Point",
        "coordinates": [
          -79.491,
          43.76409
        ]
      }
    },
    {
      "type": "Feature",
      "properties": {
        "title": "Keele St At Finch Ave West",
        "tag": "685",
        "stopId": "11321"
      },
      "geometry": {
        "type": "Point",
        "coordinates": [
          -79.4914,
          43.7639499
        ]
      }
    },
    {
      "type": "Feature",
      "properties": {
        "title": "St Clair Ave West At Keele St",
        "tag": "686",
        "stopId": "7898"
      },
      "geometry": {
        "type": "Point",
        "coordinates": [
          -79.4677499,
          43.67238
        ]
      }
    },
    {
      "type": "Feature",
      "properties": {
        "title": "Crescent Pl At South Dr (West)",
        "tag": "687",
        "stopId": "6338"
      },
      "geometry": {
        "type": "Point",
        "coordinates": [
          -79.3827699,
          43.67832
        ]
      }
    },
    {
      "type": "Feature",
      "properties": {
        "title": "Gerrard St East At Blackburn St",
        "tag": "688",
        "stopId": "1080"
      },
      "geometry": {
        "type": "Point",
        "coordinates": [
          -79.35538,
          43.6646699
        ]
      }
    },
    {
      "type": "Feature",
      "properties": {
        "title": "Lansdowne Ave At Seaforth Ave",
        "tag": "689",
        "stopId": "5221"
      },
      "geometry": {
        "type": "Point",
        "coordinates": [
          -79.43759,
          43.64278
        ]
      }
    },
    {
      "type": "Feature",
      "properties": {
        "title": "Scarlett Rd At Foxwell St",
        "tag": "690",
        "stopId": "13313"
      },
      "geometry": {
        "type": "Point",
        "coordinates": [
          -79.50127,
          43.66911
        ]
      }
    },
    {
      "type": "Feature",
      "properties": {
        "title": "Adelaide St West At Peter St East Side",
        "tag": "691",
        "stopId": "11887"
      },
      "geometry": {
        "type": "Point",
        "coordinates": [
          -79.39233,
          43.6473599
        ]
      }
    },
    {
      "type": "Feature",
      "properties": {
        "title": "Eglinton Ave West At Martin Grove Rd",
        "tag": "692",
        "stopId": "2381"
      },
      "geometry": {
        "type": "Point",
        "coordinates": [
          -79.5629299,
          43.67466
        ]
      }
    },
    {
      "type": "Feature",
      "properties": {
        "title": "Ranee Ave At Yorkdale Station",
        "tag": "693",
        "stopId": "6931"
      },
      "geometry": {
        "type": "Point",
        "coordinates": [
          -79.44606,
          43.7237299
        ]
      }
    },
    {
      "type": "Feature",
      "properties": {
        "title": "Dixon Rd At 950 Dixon Rd",
        "tag": "694",
        "stopId": "4973"
      },
      "geometry": {
        "type": "Point",
        "coordinates": [
          -79.59888,
          43.6867499
        ]
      }
    },
    {
      "type": "Feature",
      "properties": {
        "title": "McCowan Rd At Kenhatch Blvd",
        "tag": "695",
        "stopId": "1301"
      },
      "geometry": {
        "type": "Point",
        "coordinates": [
          -79.26357,
          43.80132
        ]
      }
    },
    {
      "type": "Feature",
      "properties": {
        "title": "Bloor St West At Markland Dr (East) East Side",
        "tag": "696",
        "stopId": "0546"
      },
      "geometry": {
        "type": "Point",
        "coordinates": [
          -79.5702999,
          43.6336
        ]
      }
    },
    {
      "type": "Feature",
      "properties": {
        "title": "St Clair Ave West At Old Weston Rd",
        "tag": "697",
        "stopId": "8179"
      },
      "geometry": {
        "type": "Point",
        "coordinates": [
          -79.46315,
          43.6734399
        ]
      }
    },
    {
      "type": "Feature",
      "properties": {
        "title": "Belfield Rd At Kipling Ave",
        "tag": "699",
        "stopId": "3336"
      },
      "geometry": {
        "type": "Point",
        "coordinates": [
          -79.5637899,
          43.70462
        ]
      }
    },
    {
      "type": "Feature",
      "properties": {
        "title": "Lloyd Manor Rd At Firwood Cres North Side",
        "tag": "701",
        "stopId": "5496"
      },
      "geometry": {
        "type": "Point",
        "coordinates": [
          -79.55093,
          43.66583
        ]
      }
    },
    {
      "type": "Feature",
      "properties": {
        "title": "McCowan Rd Loop At Steeles Ave East",
        "tag": "702",
        "stopId": "9808"
      },
      "geometry": {
        "type": "Point",
        "coordinates": [
          -79.27509,
          43.8324299
        ]
      }
    },
    {
      "type": "Feature",
      "properties": {
        "title": "Maybrook Dr At Newmill Gate",
        "tag": "703",
        "stopId": "10237"
      },
      "geometry": {
        "type": "Point",
        "coordinates": [
          -79.26124,
          43.82546
        ]
      }
    },
    {
      "type": "Feature",
      "properties": {
        "title": "Queen St West At Soho St",
        "tag": "704",
        "stopId": "3087"
      },
      "geometry": {
        "type": "Point",
        "coordinates": [
          -79.3932899,
          43.64947
        ]
      }
    },
    {
      "type": "Feature",
      "properties": {
        "title": "Steeles Ave East At Don Mills Rd",
        "tag": "706",
        "stopId": "8215"
      },
      "geometry": {
        "type": "Point",
        "coordinates": [
          -79.36055,
          43.8113599
        ]
      }
    },
    {
      "type": "Feature",
      "properties": {
        "title": "Bathurst St At St Clair Ave West North Side",
        "tag": "707",
        "stopId": "0202"
      },
      "geometry": {
        "type": "Point",
        "coordinates": [
          -79.41831,
          43.6835399
        ]
      }
    },
    {
      "type": "Feature",
      "properties": {
        "title": "The Bridle Path At Lawrence Ave East South Side",
        "tag": "708",
        "stopId": "1745"
      },
      "geometry": {
        "type": "Point",
        "coordinates": [
          -79.36455,
          43.73307
        ]
      }
    },
    {
      "type": "Feature",
      "properties": {
        "title": "Caledonia Rd At Lawrence Ave West",
        "tag": "709",
        "stopId": "0729"
      },
      "geometry": {
        "type": "Point",
        "coordinates": [
          -79.46644,
          43.71124
        ]
      }
    },
    {
      "type": "Feature",
      "properties": {
        "title": "Midland Ave At Steeles Ave East South Side",
        "tag": "710",
        "stopId": "11251"
      },
      "geometry": {
        "type": "Point",
        "coordinates": [
          -79.29716,
          43.8254299
        ]
      }
    },
    {
      "type": "Feature",
      "properties": {
        "title": "Kingston Rd At McNab Blvd East Side",
        "tag": "711",
        "stopId": "4241"
      },
      "geometry": {
        "type": "Point",
        "coordinates": [
          -79.22786,
          43.7288899
        ]
      }
    },
    {
      "type": "Feature",
      "properties": {
        "title": "Kipling Ave At Jutland Rd",
        "tag": "714",
        "stopId": "4353"
      },
      "geometry": {
        "type": "Point",
        "coordinates": [
          -79.52928,
          43.62706
        ]
      }
    },
    {
      "type": "Feature",
      "properties": {
        "title": "Eglinton Ave East At Markham Rd",
        "tag": "715",
        "stopId": "11282"
      },
      "geometry": {
        "type": "Point",
        "coordinates": [
          -79.21866,
          43.7433799
        ]
      }
    },
    {
      "type": "Feature",
      "properties": {
        "title": "Oakdale Rd At Sheppard Ave West North Side",
        "tag": "717",
        "stopId": "5891"
      },
      "geometry": {
        "type": "Point",
        "coordinates": [
          -79.5245499,
          43.7375599
        ]
      }
    },
    {
      "type": "Feature",
      "properties": {
        "title": "Parkside Dr At High Park Blvd",
        "tag": "718",
        "stopId": "11775"
      },
      "geometry": {
        "type": "Point",
        "coordinates": [
          -79.4560899,
          43.6447499
        ]
      }
    },
    {
      "type": "Feature",
      "properties": {
        "title": "Guildwood Pkwy At Navarre Cres",
        "tag": "719",
        "stopId": "2683"
      },
      "geometry": {
        "type": "Point",
        "coordinates": [
          -79.1902899,
          43.74951
        ]
      }
    },
    {
      "type": "Feature",
      "properties": {
        "title": "Midland Ave At Boarhill Dr",
        "tag": "720",
        "stopId": "5688"
      },
      "geometry": {
        "type": "Point",
        "coordinates": [
          -79.28455,
          43.79994
        ]
      }
    },
    {
      "type": "Feature",
      "properties": {
        "title": "Eglinton Ave East At Wynford Dr West Side",
        "tag": "721",
        "stopId": "2320"
      },
      "geometry": {
        "type": "Point",
        "coordinates": [
          -79.32617,
          43.7243499
        ]
      }
    },
    {
      "type": "Feature",
      "properties": {
        "title": "Princess St At The Esplanade",
        "tag": "722",
        "stopId": "9538"
      },
      "geometry": {
        "type": "Point",
        "coordinates": [
          -79.3662199,
          43.6494099
        ]
      }
    },