{
  "type": "FeatureCollection",
  "features": [
    {
      "type": "Feature",
      "properties": {
        "title": "SE Grand & E Burnside",
        "tag": "2167",
        "stopId": "2167"
      },
      "geometry": {
        "type": "Point",
        "coordinates": [
          -122.66062,
          45.5228099
        ]
      }
    },
    {
      "type": "Feature",
      "properties": {
        "title": "NE Grand & Hoyt",
        "tag": "2169",
        "stopId": "2169"
      },
      "geometry": {
        "type": "Point",
        "coordinates": [
          -122.66059,
          45.5275199
        ]
      }
    },
    {
      "type": "Feature",
      "properties": {
        "title": "SE Grand & Mill",
        "tag": "2171",
        "stopId": "2171"
      },
      "geometry": {
        "type": "Point",
        "coordinates": [
          -122.6607,
          45.5099999
        ]
      }
    },
    {
      "type": "Feature",
      "properties": {
        "title": "NE Grand & Holladay",
        "tag": "2175",
        "stopId": "2175"
      },
      "geometry": {
        "type": "Point",
        "coordinates": [
          -122.66058,
          45.5297299
        ]
      }
    },
    {
      "type": "Feature",
      "properties": {
        "title": "NW 21st & Lovejoy",
        "tag": "3595",
        "stopId": "3595"
      },
      "geometry": {
        "type": "Point",
        "coordinates": [
          -122.69467,
          45.5298399
        ]
      }
    },
    {
      "type": "Feature",
      "properties": {
        "title": "NW 22nd & Lovejoy",
        "tag": "3596",
        "stopId": "3596"
      },
      "geometry": {
        "type": "Point",
        "coordinates": [
          -122.6967,
          45.5297899
        ]
      }
    },
    {
      "type": "Feature",
      "properties": {
        "title": "NE M L King & E Burnside",
        "tag": "5901",
        "stopId": "5901"
      },
      "geometry": {
        "type": "Point",
        "coordinates": [
          -122.66184,
          45.5233699
        ]
      }
    },
    {
      "type": "Feature",
      "properties": {
        "title": "NE M L King & Hoyt",
        "tag": "5912",
        "stopId": "5912"
      },
      "geometry": {
        "type": "Point",
        "coordinates": [
          -122.66181,
          45.5273799
        ]
      }
    },
    {
      "type": "Feature",
      "properties": {
        "title": "SE M L King & Mill",
        "tag": "5933",
        "stopId": "5933"
      },
      "geometry": {
        "type": "Point",
        "coordinates": [
          -122.66197,
          45.5096399
        ]
      }
    },
    {
      "type": "Feature",
      "properties": {
        "title": "Art Museum",
        "tag": "6493",
        "stopId": "6493"
      },
      "geometry": {
        "type": "Point",
        "coordinates": [
          -122.68399,
          45.5163099
        ]
      }
    },
    {
      "type": "Feature",
      "properties": {
        "title": "NW 23rd & Marshall",
        "tag": "8989",
        "stopId": "8989"
      },
      "geometry": {
        "type": "Point",
        "coordinates": [
          -122.69869,
          45.5306199
        ]
      }
    },
    {
      "type": "Feature",
      "properties": {
        "title": "NE Grand & Multnomah",
        "tag": "9343",
        "stopId": "9343"
      },
      "geometry": {
        "type": "Point",
        "coordinates": [
          -122.66055,
          45.5318499
        ]
      }
    },
    {
      "type": "Feature",
      "properties": {
        "title": "SW 11th & Alder",
        "tag": "9600",
        "stopId": "9600"
      },
      "geometry": {
        "type": "Point",
        "coordinates": [
          -122.68282,
          45.5210899
        ]
      }
    },
    {
      "type": "Feature",
      "properties": {
        "title": "SW 11th & Taylor",
        "tag": "9633",
        "stopId": "9633"
      },
      "geometry": {
        "type": "Point",
        "coordinates": [
          -122.68387,
          45.5190599
        ]
      }
    },
    {
      "type": "Feature",
      "properties": {
        "title": "NW 18th & Lovejoy",
        "tag": "10751",
        "stopId": "10751"
      },
      "geometry": {
        "type": "Point",
        "coordinates": [
          -122.68959,
          45.5299299
        ]
      }
    },
    {
      "type": "Feature",
      "properties": {
        "title": "NW 13th & Lovejoy",
        "tag": "10752",
        "stopId": "10752"
      },
      "geometry": {
        "type": "Point",
        "coordinates": [
          -122.68461,
          45.5299999
        ]
      }
    },
    {
      "type": "Feature",
      "properties": {
        "title": "NW 11th & Johnson",
        "tag": "10753",
        "stopId": "10753"
      },
      "geometry": {
        "type": "Point",
        "coordinates": [
          -122.68237,
          45.5287499
        ]
      }
    },
    {
      "type": "Feature",
      "properties": {
        "title": "NW 11th & Glisan",
        "tag": "10754",
        "stopId": "10754"
      },
      "geometry": {
        "type": "Point",
        "coordinates": [
          -122.6823,
          45.5266099
        ]
      }
    },
    {
      "type": "Feature",
      "properties": {
        "title": "NW 11th & Couch",
        "tag": "10756",
        "stopId": "10756"
      },
      "geometry": {
        "type": "Point",
        "coordinates": [
          -122.68222,
          45.5237799
        ]
      }
    },
    {
      "type": "Feature",
      "properties": {
        "title": "SW 11th & Jefferson",
        "tag": "10759",
        "stopId": "10759"
      },
      "geometry": {
        "type": "Point",
        "coordinates": [
          -122.6853,
          45.5163999
        ]
      }
    },
    {
      "type": "Feature",
      "properties": {
        "title": "SW 11th & Clay",
        "tag": "10760",
        "stopId": "10760"
      },
      "geometry": {
        "type": "Point",
        "coordinates": [
          -122.68608,
          45.5150999
        ]
      }
    },
    {
      "type": "Feature",
      "properties": {
        "title": "SW 5th & Market",
        "tag": "10762",
        "stopId": "10762"
      },
      "geometry": {
        "type": "Point",
        "coordinates": [
          -122.68104,
          45.5129199
        ]
      }
    },
    {
      "type": "Feature",
      "properties": {
        "title": "SW 5th & Montgomery",
        "tag": "10763",
        "stopId": "10763"
      },
      "geometry": {
        "type": "Point",
        "coordinates": [
          -122.68131,
          45.5117099
        ]
      }
    },
    {
      "type": "Feature",
      "properties": {
        "title": "PSU Urban Center",
        "tag": "10764",
        "stopId": "10764"
      },
      "geometry": {
        "type": "Point",
        "coordinates": [
          -122.68208,
          45.5122199
        ]
      }
    },
    {
      "type": "Feature",
      "properties": {
        "title": "SW 10th & Clay",
        "tag": "10765",
        "stopId": "10765"
      },
      "geometry": {
        "type": "Point",
        "coordinates": [
          -122.68498,
          45.5145499
        ]
      }
    },
    {
      "type": "Feature",
      "properties": {
        "title": "SW Park & Mill",
        "tag": "10766",
        "stopId": "10766"
      },
      "geometry": {
        "type": "Point",
        "coordinates": [
          -122.68455,
          45.5130499
        ]
      }
    },
    {
      "type": "Feature",
      "properties": {
        "title": "Central Library",
        "tag": "10767",
        "stopId": "10767"
      },
      "geometry": {
        "type": "Point",
        "coordinates": [
          -122.68244,
          45.5192099
        ]
      }
    },
    {
      "type": "Feature",
      "properties": {
        "title": "SW 10th & Alder",
        "tag": "10768",
        "stopId": "10768"
      },
      "geometry": {
        "type": "Point",
        "coordinates": [
          -122.68173,
          45.5205699
        ]
      }
    },
    {
      "type": "Feature",
      "properties": {
        "title": "NW 10th & Couch",
        "tag": "10770",
        "stopId": "10770"
      },
      "geometry": {
        "type": "Point",
        "coordinates": [
          -122.68108,
          45.5235899
        ]
      }
    },
    {
      "type": "Feature",
      "properties": {
        "title": "NW 10th & Glisan",
        "tag": "10772",
        "stopId": "10772"
      },
      "geometry": {
        "type": "Point",
        "coordinates": [
          -122.68118,
          45.5264499
        ]
      }
    },
    {
      "type": "Feature",
      "properties": {
        "title": "NW 10th & Johnson",
        "tag": "10773",
        "stopId": "10773"
      },
      "geometry": {
        "type": "Point",
        "coordinates": [
          -122.68125,
          45.5285699
        ]
      }
    },
    {
      "type": "Feature",
      "properties": {
        "title": "NW 14th & Northrup",
        "tag": "10775",
        "stopId": "10775"
      },
      "geometry": {
        "type": "Point",
        "coordinates": [
          -122.68536,
          45.5315099
        ]
      }
    },
    {
      "type": "Feature",
      "properties": {
        "title": "NW 18th & Northrup",
        "tag": "10776",
        "stopId": "10776"
      },
      "geometry": {
        "type": "Point",
        "coordinates": [
          -122.68941,
          45.5314399
        ]
      }
    },
    {
      "type": "Feature",
      "properties": {
        "title": "NW 21st & Northrup",
        "tag": "10777",
        "stopId": "10777"
      },
      "geometry": {
        "type": "Point",
        "coordinates": [
          -122.69445,
          45.5313499
        ]
      }
    },
    {
      "type": "Feature",
      "properties": {
        "title": "NW 22nd & Northrup",
        "tag": "10778",
        "stopId": "10778"
      },
      "geometry": {
        "type": "Point",
        "coordinates": [
          -122.69644,
          45.5313099
        ]
      }
    },
    {
      "type": "Feature",
      "properties": {
        "title": "SW Park & Market",
        "tag": "11011",
        "stopId": "11011"
      },
      "geometry": {
        "type": "Point",
        "coordinates": [
          -122.68391,
          45.5136999
        ]
      }
    },
    {
      "type": "Feature",
      "properties": {
        "title": "SE Grand & Taylor",
        "tag": "11483",
        "stopId": "11483"
      },
      "geometry": {
        "type": "Point",
        "coordinates": [
          -122.66067,
          45.5149899
        ]
      }
    },
    {
      "type": "Feature",
      "properties": {
        "title": "SE Grand & Belmont",
        "tag": "11484",
        "stopId": "11484"
      },
      "geometry": {
        "type": "Point",
        "coordinates": [
          -122.66064,
          45.5168599
        ]
      }
    },
    {
      "type": "Feature",
      "properties": {
        "title": "SW 3rd & Harrison",
        "tag": "12375",
        "stopId": "12375"
      },
      "geometry": {
        "type": "Point",
        "coordinates": [
          -122.6796,
          45.5102099
        ]
      }
    },
    {
      "type": "Feature",
      "properties": {
        "title": "SW Harrison Street",
        "tag": "12377",
        "stopId": "12377"
      },
      "geometry": {
        "type": "Point",
        "coordinates": [
          -122.67657,
          45.5087999
        ]
      }
    },
    {
      "type": "Feature",
      "properties": {
        "title": "SW River Pkwy & Moody",
        "tag": "12378",
        "stopId": "12378"
      },
      "geometry": {
        "type": "Point",
        "coordinates": [
          -122.67392,
          45.5070699
        ]
      }
    },
    {
      "type": "Feature",
      "properties": {
        "title": "SW River Pkwy & Moody",
        "tag": "12379",
        "stopId": "12379"
      },
      "geometry": {
        "type": "Point",
        "coordinates": [
          -122.67414,
          45.5071399
        ]
      }
    },
    {
      "type": "Feature",
      "properties": {
        "title": "SW Harrison Street",
        "tag": "12380",
        "stopId": "12380"
      },
      "geometry": {
        "type": "Point",
        "coordinates": [
          -122.67653,
          45.5089499
        ]
      }
    },
    {
      "type": "Feature",
      "properties": {
        "title": "SW 3rd & Harrison",
        "tag": "12382",
        "stopId": "12382"
      },
      "geometry": {
        "type": "Point",
        "coordinates": [
          -122.67981,
          45.5102799
        ]
      }
    },
    {
      "type": "Feature",
      "properties": {
        "title": "SW Moody & Gibbs",
        "tag": "12760",
        "stopId": "12760"
      },
      "geometry": {
        "type": "Point",
        "coordinates": [
          -122.67181,
          45.4993399
        ]
      }
    },
    {
      "type": "Feature",
      "properties": {
        "title": "NW 12th & Northrup",
        "tag": "12796",
        "stopId": "12796"
      },
      "geometry": {
        "type": "Point",
        "coordinates": [
          -122.68332,
          45.5315399
        ]
      }
    },
    {
      "type": "Feature",
      "properties": {
        "title": "SW Moody & Gaines",
        "tag": "12880",
        "stopId": "12880"
      },
      "geometry": {
        "type": "Point",
        "coordinates": [
          -122.67194,
          45.4961899
        ]
      }
    },
    {
      "type": "Feature",
      "properties": {
        "title": "SW Lowell & Bond",
        "tag": "12881",
        "stopId": "12881"
      },
      "geometry": {
        "type": "Point",
        "coordinates": [
          -122.67138,
          45.4938999
        ]
      }
    },
    {
      "type": "Feature",
      "properties": {
        "title": "SW Bond & Lane",
        "tag": "12882",
        "stopId": "12882"
      },
      "geometry": {
        "type": "Point",
        "coordinates": [
          -122.67093,
          45.4955999
        ]
      }
    },
    {
      "type": "Feature",
      "properties": {
        "title": "OHSU Commons",
        "tag": "12883",
        "stopId": "12883"
      },
      "geometry": {
        "type": "Point",
        "coordinates": [
          -122.67074,
          45.4989399
        ]
      }
    },
    {
      "type": "Feature",
      "properties": {
        "title": "SE M L King & Morrison",
        "tag": "13584",
        "stopId": "13584"
      },
      "geometry": {
        "type": "Point",
        "coordinates": [
          -122.66193,
          45.5169499
        ]
      }
    },
    {
      "type": "Feature",
      "properties": {
        "title": "SE M L King & Taylor",
        "tag": "13585",
        "stopId": "13585"
      },
      "geometry": {
        "type": "Point",
        "coordinates": [
          -122.6619,
          45.5146699
        ]
      }
    },
    {
      "type": "Feature",
      "properties": {
        "title": "SE Grand & Stark",
        "tag": "13597",
        "stopId": "13597"
      },
      "geometry": {
        "type": "Point",
        "coordinates": [
          -122.66064,
          45.5196299
        ]
      }
    },
    {
      "type": "Feature",
      "properties": {
        "title": "SW Moody & Meade South",
        "tag": "13601",
        "stopId": "13601"
      },
      "geometry": {
        "type": "Point",
        "coordinates": [
          -122.67279,
          45.5031199
        ]
      }
    },
    {
      "type": "Feature",
      "properties": {
        "title": "SW Moody & Meade North",
        "tag": "13602",
        "stopId": "13602"
      },
      "geometry": {
        "type": "Point",
        "coordinates": [
          -122.67273,
          45.5032899
        ]
      }
    },
    {
      "type": "Feature",
      "properties": {
        "title": "NW 10th & Northrup",
        "tag": "13604",
        "stopId": "13604"
      },
      "geometry": {
        "type": "Point",
        "coordinates": [
          -122.68136,
          45.5312799
        ]
      }
    },
    {
      "type": "Feature",
      "properties": {
        "title": "NW 9th & Lovejoy",
        "tag": "13606",
        "stopId": "13606"
      },
      "geometry": {
        "type": "Point",
        "coordinates": [
          -122.6805,
          45.5300599
        ]
      }
    },
    {
      "type": "Feature",
      "properties": {
        "title": "N Weidler & Ross",
        "tag": "13607",
        "stopId": "13607"
      },
      "geometry": {
        "type": "Point",
        "coordinates": [
          -122.66922,
          45.5344299
        ]
      }
    },
    {
      "type": "Feature",
      "properties": {
        "title": "NE Weidler & 2nd",
        "tag": "13608",
        "stopId": "13608"
      },
      "geometry": {
        "type": "Point",
        "coordinates": [
          -122.66383,
          45.5344299
        ]
      }
    },
    {
      "type": "Feature",
      "properties": {
        "title": "NE Weidler & Grand",
        "tag": "13609",
        "stopId": "13609"
      },
      "geometry": {
        "type": "Point",
        "coordinates": [
          -122.66022,
          45.5344099
        ]
      }
    },
    {
      "type": "Feature",
      "properties": {
        "title": "NE 7th & Halsey",
        "tag": "13610",
        "stopId": "13610"
      },
      "geometry": {
        "type": "Point",
        "coordinates": [
          -122.65861,
          45.5333399
        ]
      }
    },
    {
      "type": "Feature",
      "properties": {
        "title": "NE 7th & Holladay",
        "tag": "13611",
        "stopId": "13611"
      },
      "geometry": {
        "type": "Point",
        "coordinates": [
          -122.65862,
          45.5307099
        ]
      }
    },
    {
      "type": "Feature",
      "properties": {
        "title": "NE Oregon & Grand",
        "tag": "13612",
        "stopId": "13612"
      },
      "geometry": {
        "type": "Point",
        "coordinates": [
          -122.6605,
          45.5286899
        ]
      }
    },
    {
      "type": "Feature",
      "properties": {
        "title": "SE M L King & Stark",
        "tag": "13613",
        "stopId": "13613"
      },
      "geometry": {
        "type": "Point",
        "coordinates": [
          -122.66188,
          45.5190999
        ]
      }
    },
    {
      "type": "Feature",
      "properties": {
        "title": "SE M L King & Hawthorne",
        "tag": "13614",
        "stopId": "13614"
      },
      "geometry": {
        "type": "Point",
        "coordinates": [
          -122.66195,
          45.5125099
        ]
      }
    },
    {
      "type": "Feature",
      "properties": {
        "title": "SE Water/OMSI",
        "tag": "13615",
        "stopId": "13615"
      },
      "geometry": {
        "type": "Point",
        "coordinates": [
          -122.66334,
          45.5070399
        ]
      }
    },
    {
      "type": "Feature",
      "properties": {
        "title": "SE Grand & Hawthorne",
        "tag": "13616",
        "stopId": "13616"
      },
      "geometry": {
        "type": "Point",
        "coordinates": [
          -122.66069,
          45.5128299
        ]
      }
    },
    {
      "type": "Feature",
      "properties": {
        "title": "NE Grand & Broadway",
        "tag": "13617",
        "stopId": "13617"
      },
      "geometry": {
        "type": "Point",
        "coordinates": [
          -122.66055,
          45.5347999
        ]
      }
    },
    {
      "type": "Feature",
      "properties": {
        "title": "NE Broadway & 2nd",
        "tag": "13618",
        "stopId": "13618"
      },
      "geometry": {
        "type": "Point",
        "coordinates": [
          -122.66354,
          45.5350299
        ]
      }
    },
    {
      "type": "Feature",
      "properties": {
        "title": "NE Broadway & Ross",
        "tag": "13619",
        "stopId": "13619"
      },
      "geometry": {
        "type": "Point",
        "coordinates": [
          -122.66952,
          45.5344499
        ]
      }
    },
    {
      "type": "Feature",
      "properties": {
        "title": "NW 11th & Marshall",
        "tag": "13620",
        "stopId": "13620"
      },
      "geometry": {
        "type": "Point",
        "coordinates": [
          -122.68247,
          45.5308999
        ]
      }
    },
    {
      "type": "Feature",
      "properties": {
        "title": "SE Water/OMSI",
        "tag": "13709",
        "stopId": "13709"
      },
      "geometry": {
        "type": "Point",
        "coordinates": [
          -122.66336,
          45.5069499
        ]
      }
    },
    {
      "type": "Feature",
      "properties": {
        "title": "NW 23rd & Marshall",
        "tag": "8989_ar"
      },
      "geometry": {
        "type": "Point",
        "coordinates": [
          -122.69869,
          45.5306199
        ]
      }
    },
    {
      "type": "Feature",
      "properties": {
        "title": "SW Lowell & Bond",
        "tag": "12881_ar"
      },
      "geometry": {
        "type": "Point",
        "coordinates": [
          -122.67138,
          45.4938999
        ]
      }
    },
    {
      "type": "Feature",
      "properties": {
        "title": "NW 11th & Johnson",
        "tag": "10753_ar"
      },
      "geometry": {
        "type": "Point",
        "coordinates": [
          -122.68237,
          45.5287499
        ]
      }
    },
    {
      "type": "Feature",
      "properties": {
        "title": "SW 10th & Clay",
        "tag": "10765_ar"
      },
      "geometry": {
        "type": "Point",
        "coordinates": [
          -122.68498,
          45.5145499
        ]
      }
    },
    {
      "type": "Feature",
      "properties": {
        "title": "NW 14th & Northrup",
        "tag": "10775_ar"
      },
      "geometry": {
        "type": "Point",
        "coordinates": [
          -122.68536,
          45.5315099
        ]
      }
    },
    {
      "type": "Feature",
      "properties": {
        "title": "NW 18th & Lovejoy",
        "tag": "10751_ar"
      },
      "geometry": {
        "type": "Point",
        "coordinates": [
          -122.68959,
          45.5299299
        ]
      }
    },
    {
      "type": "Feature",
      "properties": {
        "title": "SE Water/OMSI",
        "tag": "13709_ar"
      },
      "geometry": {
        "type": "Point",
        "coordinates": [
          -122.66336,
          45.5069499
        ]
      }
    },
    {
      "type": "Feature",
      "properties": {
        "title": "SW Moody & Meade North",
        "tag": "13602_ar"
      },
      "geometry": {
        "type": "Point",
        "coordinates": [
          -122.67273,
          45.5032899
        ]
      }
    },
    {
      "type": "Feature",
      "properties": {
        "title": "NW 9th & Lovejoy",
        "tag": "13606_ar"
      },
      "geometry": {
        "type": "Point",
        "coordinates": [
          -122.6805,
          45.5300599
        ]
      }
    },
    {
      "type": "Feature",
      "properties": {
        "title": "SE Water/OMSI",
        "tag": "13615_ar"
      },
      "geometry": {
        "type": "Point",
        "coordinates": [
          -122.66334,
          45.5070399
        ]
      }
    },
    {
      "type": "Feature",
      "properties": {
        "title": "NW 11th & Marshall",
        "tag": "13620_ar"
      },
      "geometry": {
        "type": "Point",
        "coordinates": [
          -122.68247,
          45.5308999
        ]
      }
    },
    {
      "type": "Feature",
      "properties": {
        "title": "NW 10th & Northrup",
        "tag": "13604_ar"
      },
      "geometry": {
        "type": "Point",
        "coordinates": [
          -122.68136,
          45.5312799
        ]
      }
    }
  ],
  "copyright": "All data copyright Portland Streetcar 2018."
}