{
  "type": "FeatureCollection",
  "features": [
    {
      "type": "Feature",
      "properties": {
        "title": "S Virginia Street and La Rue Avenue",
        "tag": "6",
        "stopId": "0006"
      },
      "geometry": {
        "type": "Point",
        "coordinates": [
          -119.8085399,
          39.51645
        ]
      }
    },
    {
      "type": "Feature",
      "properties": {
        "title": "S Virginia Street and Mary Street",
        "tag": "7",
        "stopId": "0007"
      },
      "geometry": {
        "type": "Point",
        "coordinates": [
          -119.8077199,
          39.5148299
        ]
      }
    },
    {
      "type": "Feature",
      "properties": {
        "title": "S Virginia Street and W Arroyo Street",
        "tag": "8",
        "stopId": "0008"
      },
      "geometry": {
        "type": "Point",
        "coordinates": [
          -119.8061099,
          39.5113999
        ]
      }
    },
    {
      "type": "Feature",
      "properties": {
        "title": "S Virginia Street and Mt Rose Street",
        "tag": "9",
        "stopId": "0009"
      },
      "geometry": {
        "type": "Point",
        "coordinates": [
          -119.8050199,
          39.5091399
        ]
      }
    },
    {
      "type": "Feature",
      "properties": {
        "title": "S Virginia Street and S Wells Avenue",
        "tag": "10",
        "stopId": "0010"
      },
      "geometry": {
        "type": "Point",
        "coordinates": [
          -119.80396,
          39.5068799
        ]
      }
    },
    {
      "type": "Feature",
      "properties": {
        "title": "S Virginia Street and Hillcrest Drive",
        "tag": "12",
        "stopId": "0012"
      },
      "geometry": {
        "type": "Point",
        "coordinates": [
          -119.8026,
          39.50407
        ]
      }
    },
    {
      "type": "Feature",
      "properties": {
        "title": "S Virginia Street and Peppermill Lane",
        "tag": "14",
        "stopId": "0014"
      },
      "geometry": {
        "type": "Point",
        "coordinates": [
          -119.80031,
          39.49931
        ]
      }
    },
    {
      "type": "Feature",
      "properties": {
        "title": "S Virginia Street and Brinkby Avenue",
        "tag": "15",
        "stopId": "0015"
      },
      "geometry": {
        "type": "Point",
        "coordinates": [
          -119.7986499,
          39.4961199
        ]
      }
    },
    {
      "type": "Feature",
      "properties": {
        "title": "Kietzke Lane and E Moana Lane",
        "tag": "19",
        "stopId": "0019"
      },
      "geometry": {
        "type": "Point",
        "coordinates": [
          -119.78929,
          39.4921999
        ]
      }
    },
    {
      "type": "Feature",
      "properties": {
        "title": "Kietzke Lane between Moana and Peckham",
        "tag": "20",
        "stopId": "0020"
      },
      "geometry": {
        "type": "Point",
        "coordinates": [
          -119.7893399,
          39.4893399
        ]
      }
    },
    {
      "type": "Feature",
      "properties": {
        "title": "Neil Road and E Peckham Lane",
        "tag": "23",
        "stopId": "0023"
      },
      "geometry": {
        "type": "Point",
        "coordinates": [
          -119.7807199,
          39.4830299
        ]
      }
    },
    {
      "type": "Feature",
      "properties": {
        "title": "Neil Road and Filbert Road",
        "tag": "24",
        "stopId": "0024"
      },
      "geometry": {
        "type": "Point",
        "coordinates": [
          -119.7820799,
          39.4803499
        ]
      }
    },
    {
      "type": "Feature",
      "properties": {
        "title": "Neil Road and Jamaica Avenue",
        "tag": "25",
        "stopId": "0025"
      },
      "geometry": {
        "type": "Point",
        "coordinates": [
          -119.78124,
          39.47767
        ]
      }
    },
    {
      "type": "Feature",
      "properties": {
        "title": "Neil Road and S McCarran Boulevard",
        "tag": "26",
        "stopId": "0026"
      },
      "geometry": {
        "type": "Point",
        "coordinates": [
          -119.7810899,
          39.47624
        ]
      }
    },
    {
      "type": "Feature",
      "properties": {
        "title": "Neil Road and Marvel Way",
        "tag": "27",
        "stopId": "0027"
      },
      "geometry": {
        "type": "Point",
        "coordinates": [
          -119.7789499,
          39.47502
        ]
      }
    },
    {
      "type": "Feature",
      "properties": {
        "title": "Neil Road and Meadow Wood Lane",
        "tag": "28",
        "stopId": "0028"
      },
      "geometry": {
        "type": "Point",
        "coordinates": [
          -119.7785599,
          39.4733599
        ]
      }
    },
    {
      "type": "Feature",
      "properties": {
        "title": "Neil Lane and Neil Road",
        "tag": "29",
        "stopId": "0029"
      },
      "geometry": {
        "type": "Point",
        "coordinates": [
          -119.77946,
          39.4721599
        ]
      }
    },
    {
      "type": "Feature",
      "properties": {
        "title": "RTC TRANSFER CENTER and Meadowood Mall",
        "tag": "30",
        "stopId": "0030"
      },
      "geometry": {
        "type": "Point",
        "coordinates": [
          -119.78316,
          39.4720099
        ]
      }
    },
    {
      "type": "Feature",
      "properties": {
        "title": "Neil Lane and Neil Road",
        "tag": "31",
        "stopId": "0031"
      },
      "geometry": {
        "type": "Point",
        "coordinates": [
          -119.7796199,
          39.47202
        ]
      }
    },
    {
      "type": "Feature",
      "properties": {
        "title": "Neil Road and Meadow Wood Lane",
        "tag": "32",
        "stopId": "0032"
      },
      "geometry": {
        "type": "Point",
        "coordinates": [
          -119.77828,
          39.4735
        ]
      }
    },
    {
      "type": "Feature",
      "properties": {
        "title": "Neil Road and Marvel Way",
        "tag": "33",
        "stopId": "0033"
      },
      "geometry": {
        "type": "Point",
        "coordinates": [
          -119.77861,
          39.4749299
        ]
      }
    },
    {
      "type": "Feature",
      "properties": {
        "title": "Neil Road and S McCarran Boulevard",
        "tag": "34",
        "stopId": "0034"
      },
      "geometry": {
        "type": "Point",
        "coordinates": [
          -119.78005,
          39.4759199
        ]
      }
    },
    {
      "type": "Feature",
      "properties": {
        "title": "Neil Road and Catalina Drive",
        "tag": "35",
        "stopId": "0035"
      },
      "geometry": {
        "type": "Point",
        "coordinates": [
          -119.78142,
          39.4788799
        ]
      }
    },
    {
      "type": "Feature",
      "properties": {
        "title": "Neil Road and Filbert Road",
        "tag": "36",
        "stopId": "0036"
      },
      "geometry": {
        "type": "Point",
        "coordinates": [
          -119.78179,
          39.4806099
        ]
      }
    },
    {
      "type": "Feature",
      "properties": {
        "title": "Neil Road between Filbert and Peckham",
        "tag": "37",
        "stopId": "0037"
      },
      "geometry": {
        "type": "Point",
        "coordinates": [
          -119.78106,
          39.48214
        ]
      }
    },
    {
      "type": "Feature",
      "properties": {
        "title": "Kietzke Lane and E Moana Lane",
        "tag": "41",
        "stopId": "0041"
      },
      "geometry": {
        "type": "Point",
        "coordinates": [
          -119.78898,
          39.49057
        ]
      }
    },
    {
      "type": "Feature",
      "properties": {
        "title": "S Virginia Street at Peppermill Casino",
        "tag": "45",
        "stopId": "0045"
      },
      "geometry": {
        "type": "Point",
        "coordinates": [
          -119.79906,
          39.4976999
        ]
      }
    },
    {
      "type": "Feature",
      "properties": {
        "title": "S Virginia Street and W Grove Street",
        "tag": "46",
        "stopId": "0046"
      },
      "geometry": {
        "type": "Point",
        "coordinates": [
          -119.80107,
          39.50161
        ]
      }
    },
    {
      "type": "Feature",
      "properties": {
        "title": "S Virginia Street and S Wells Avenue",
        "tag": "48",
        "stopId": "0048"
      },
      "geometry": {
        "type": "Point",
        "coordinates": [
          -119.8037,
          39.5070499
        ]
      }
    },
    {
      "type": "Feature",
      "properties": {
        "title": "S Virginia Street and Holcomb Avenue",
        "tag": "49",
        "stopId": "0049"
      },
      "geometry": {
        "type": "Point",
        "coordinates": [
          -119.80477,
          39.50924
        ]
      }
    },
    {
      "type": "Feature",
      "properties": {
        "title": "S Virginia Street and W Arroyo Street",
        "tag": "50",
        "stopId": "0050"
      },
      "geometry": {
        "type": "Point",
        "coordinates": [
          -119.8059499,
          39.5116599
        ]
      }
    },
    {
      "type": "Feature",
      "properties": {
        "title": "S Virginia Street and Vassar Street",
        "tag": "51",
        "stopId": "0051"
      },
      "geometry": {
        "type": "Point",
        "coordinates": [
          -119.80671,
          39.51321
        ]
      }
    },
    {
      "type": "Feature",
      "properties": {
        "title": "S Virginia Street and S Center Street",
        "tag": "52",
        "stopId": "0052"
      },
      "geometry": {
        "type": "Point",
        "coordinates": [
          -119.80764,
          39.5150999
        ]
      }
    },
    {
      "type": "Feature",
      "properties": {
        "title": "S Virginia Street and E Taylor Street",
        "tag": "53",
        "stopId": "0053"
      },
      "geometry": {
        "type": "Point",
        "coordinates": [
          -119.8082499,
          39.5163899
        ]
      }
    },
    {
      "type": "Feature",
      "properties": {
        "title": "S Virginia Street and California Avenue",
        "tag": "55",
        "stopId": "0055"
      },
      "geometry": {
        "type": "Point",
        "coordinates": [
          -119.81012,
          39.5201399
        ]
      }
    },
    {
      "type": "Feature",
      "properties": {
        "title": "S Virginia Street and W Liberty Street",
        "tag": "56",
        "stopId": "0056"
      },
      "geometry": {
        "type": "Point",
        "coordinates": [
          -119.81071,
          39.52152
        ]
      }
    },
    {
      "type": "Feature",
      "properties": {
        "title": "S Center Street and Ryland Street",
        "tag": "57",
        "stopId": "0057"
      },
      "geometry": {
        "type": "Point",
        "coordinates": [
          -119.8100299,
          39.5227699
        ]
      }
    },
    {
      "type": "Feature",
      "properties": {
        "title": "S Center Street and State Street",
        "tag": "58",
        "stopId": "0058"
      },
      "geometry": {
        "type": "Point",
        "coordinates": [
          -119.81078,
          39.5244099
        ]
      }
    },
    {
      "type": "Feature",
      "properties": {
        "title": "N Center Street and E 1st Street",
        "tag": "59",
        "stopId": "0059"
      },
      "geometry": {
        "type": "Point",
        "coordinates": [
          -119.81162,
          39.5264399
        ]
      }
    },
    {
      "type": "Feature",
      "properties": {
        "title": "Valley Road and E 6th Street",
        "tag": "62",
        "stopId": "0062"
      },
      "geometry": {
        "type": "Point",
        "coordinates": [
          -119.80766,
          39.5342099
        ]
      }
    },
    {
      "type": "Feature",
      "properties": {
        "title": "Valley Road and E 7th Street",
        "tag": "63",
        "stopId": "0063"
      },
      "geometry": {
        "type": "Point",
        "coordinates": [
          -119.80763,
          39.5354
        ]
      }
    },
    {
      "type": "Feature",
      "properties": {
        "title": "Valley Road and E 9th Street",
        "tag": "64",
        "stopId": "0064"
      },
      "geometry": {
        "type": "Point",
        "coordinates": [
          -119.80765,
          39.5369599
        ]
      }
    },
    {
      "type": "Feature",
      "properties": {
        "title": "Valley Road and E Poplar Street",
        "tag": "65",
        "stopId": "0065"
      },
      "geometry": {
        "type": "Point",
        "coordinates": [
          -119.80772,
          39.5390799
        ]
      }
    },
    {
      "type": "Feature",
      "properties": {
        "title": "Valley Road and Sadleir Way",
        "tag": "66",
        "stopId": "0066"
      },
      "geometry": {
        "type": "Point",
        "coordinates": [
          -119.80787,
          39.5415499
        ]
      }
    },
    {
      "type": "Feature",
      "properties": {
        "title": "Sadleir Way and N Wells Avenue",
        "tag": "67",
        "stopId": "0067"
      },
      "geometry": {
        "type": "Point",
        "coordinates": [
          -119.8035,
          39.5418399
        ]
      }
    },
    {
      "type": "Feature",
      "properties": {
        "title": "E 9th Street and Wells Avenue at County Offices",
        "tag": "68",
        "stopId": "0068"
      },
      "geometry": {
        "type": "Point",
        "coordinates": [
          -119.8025,
          39.53848
        ]
      }
    },
    {
      "type": "Feature",
      "properties": {
        "title": "E 9th Street and Sutro Street at West Hills",
        "tag": "69",
        "stopId": "0069"
      },
      "geometry": {
        "type": "Point",
        "coordinates": [
          -119.79826,
          39.5384299
        ]
      }
    },
    {
      "type": "Feature",
      "properties": {
        "title": "E 9th Street and Sage Street",
        "tag": "70",
        "stopId": "0070"
      },
      "geometry": {
        "type": "Point",
        "coordinates": [
          -119.7942199,
          39.53845
        ]
      }
    },
    {
      "type": "Feature",
      "properties": {
        "title": "E 9th Street and Graphite Circle",
        "tag": "71",
        "stopId": "0071"
      },
      "geometry": {
        "type": "Point",
        "coordinates": [
          -119.7899399,
          39.5386
        ]
      }
    },
    {
      "type": "Feature",
      "properties": {
        "title": "E 9th Street and Trident Way",
        "tag": "72",
        "stopId": "0072"
      },
      "geometry": {
        "type": "Point",
        "coordinates": [
          -119.78665,
          39.53905
        ]
      }
    },
    {
      "type": "Feature",
      "properties": {
        "title": "Silverada Boulevard and Tybo Avenue",
        "tag": "73",
        "stopId": "0073"
      },
      "geometry": {
        "type": "Point",
        "coordinates": [
          -119.78447,
          39.53961
        ]
      }
    },
    {
      "type": "Feature",
      "properties": {
        "title": "Silverada Boulevard and Tom Sawyer Drive",
        "tag": "74",
        "stopId": "0074"
      },
      "geometry": {
        "type": "Point",
        "coordinates": [
          -119.78397,
          39.54185
        ]
      }
    },
    {
      "type": "Feature",
      "properties": {
        "title": "Tom Sawyer Drive and Silverada Boulevard",
        "tag": "75",
        "stopId": "0075"
      },
      "geometry": {
        "type": "Point",
        "coordinates": [
          -119.7830699,
          39.54145
        ]
      }
    },
    {
      "type": "Feature",
      "properties": {
        "title": "Carville Drive and Tom Sawyer Drive",
        "tag": "76",
        "stopId": "0076"
      },
      "geometry": {
        "type": "Point",
        "coordinates": [
          -119.78214,
          39.5421599
        ]
      }
    },
    {
      "type": "Feature",
      "properties": {
        "title": "Silverada Boulevard and Orchid Way",
        "tag": "77",
        "stopId": "0077"
      },
      "geometry": {
        "type": "Point",
        "coordinates": [
          -119.78369,
          39.5431099
        ]
      }
    },
    {
      "type": "Feature",
      "properties": {
        "title": "Silverada Boulevard and Paradise Drive",
        "tag": "78",
        "stopId": "0078"
      },
      "geometry": {
        "type": "Point",
        "coordinates": [
          -119.78284,
          39.5444899
        ]
      }
    },
    {
      "type": "Feature",
      "properties": {
        "title": "Silverada Boulevard and Fantastic Drive",
        "tag": "79",
        "stopId": "0079"
      },
      "geometry": {
        "type": "Point",
        "coordinates": [
          -119.78252,
          39.54714
        ]
      }
    },
    {
      "type": "Feature",
      "properties": {
        "title": "Greenbrae Drive and El Rancho Drive",
        "tag": "80",
        "stopId": "0080"
      },
      "geometry": {
        "type": "Point",
        "coordinates": [
          -119.77563,
          39.5474899
        ]
      }
    },
    {
      "type": "Feature",
      "properties": {
        "title": "Greenbrae Drive and Sullivan Lane",
        "tag": "81",
        "stopId": "0081"
      },
      "geometry": {
        "type": "Point",
        "coordinates": [
          -119.7723999,
          39.54712
        ]
      }
    },
    {
      "type": "Feature",
      "properties": {
        "title": "Greenbrae Drive and 17th Street",
        "tag": "82",
        "stopId": "0082"
      },
      "geometry": {
        "type": "Point",
        "coordinates": [
          -119.7660699,
          39.54726
        ]
      }
    },
    {
      "type": "Feature",
      "properties": {
        "title": "Rock Boulevard and Greenbrae Drive",
        "tag": "83",
        "stopId": "0083"
      },
      "geometry": {
        "type": "Point",
        "coordinates": [
          -119.76187,
          39.54762
        ]
      }
    },
    {
      "type": "Feature",
      "properties": {
        "title": "Rock Boulevard and Tyler Way",
        "tag": "84",
        "stopId": "0084"
      },
      "geometry": {
        "type": "Point",
        "coordinates": [
          -119.76186,
          39.5493499
        ]
      }
    },
    {
      "type": "Feature",
      "properties": {
        "title": "Rock Boulevard and Vance Way",
        "tag": "85",
        "stopId": "0085"
      },
      "geometry": {
        "type": "Point",
        "coordinates": [
          -119.76183,
          39.55069
        ]
      }
    },
    {
      "type": "Feature",
      "properties": {
        "title": "Rock Boulevard and York Way",
        "tag": "86",
        "stopId": "0086"
      },
      "geometry": {
        "type": "Point",
        "coordinates": [
          -119.76182,
          39.5525599
        ]
      }
    },
    {
      "type": "Feature",
      "properties": {
        "title": "York Way and Nelson Way",
        "tag": "90",
        "stopId": "0090"
      },
      "geometry": {
        "type": "Point",
        "coordinates": [
          -119.75173,
          39.55275
        ]
      }
    },
    {
      "type": "Feature",
      "properties": {
        "title": "York Way and 4th Street",
        "tag": "91",
        "stopId": "0091"
      },
      "geometry": {
        "type": "Point",
        "coordinates": [
          -119.7486799,
          39.55277
        ]
      }
    },
    {
      "type": "Feature",
      "properties": {
        "title": "4th Street and Richards Way",
        "tag": "92",
        "stopId": "0092"
      },
      "geometry": {
        "type": "Point",
        "coordinates": [
          -119.7482499,
          39.5502399
        ]
      }
    },
    {
      "type": "Feature",
      "properties": {
        "title": "4th Street and Greenbrae Drive",
        "tag": "93",
        "stopId": "0093"
      },
      "geometry": {
        "type": "Point",
        "coordinates": [
          -119.7482599,
          39.54784
        ]
      }
    },
    {
      "type": "Feature",
      "properties": {
        "title": "Greenbrae Drive and 5th Street",
        "tag": "94",
        "stopId": "0094"
      },
      "geometry": {
        "type": "Point",
        "coordinates": [
          -119.75043,
          39.5475499
        ]
      }
    },
    {
      "type": "Feature",
      "properties": {
        "title": "York Way and Pyramid Way",
        "tag": "98",
        "stopId": "0098"
      },
      "geometry": {
        "type": "Point",
        "coordinates": [
          -119.75352,
          39.5529399
        ]
      }
    },
    {
      "type": "Feature",
      "properties": {
        "title": "S Virginia Street and Kietzke Lane",
        "tag": "99",
        "stopId": "0099"
      },
      "geometry": {
        "type": "Point",
        "coordinates": [
          -119.79049,
          39.48016
        ]
      }
    },
    {
      "type": "Feature",
      "properties": {
        "title": "York Way and 11th Street",
        "tag": "100",
        "stopId": "0100"
      },
      "geometry": {
        "type": "Point",
        "coordinates": [
          -119.7577799,
          39.5530099
        ]
      }
    },
    {
      "type": "Feature",
      "properties": {
        "title": "York Avenue & Rock Boulevard",
        "tag": "101",
        "stopId": "0101"
      },
      "geometry": {
        "type": "Point",
        "coordinates": [
          -119.76093,
          39.5530499
        ]
      }
    },
    {
      "type": "Feature",
      "properties": {
        "title": "Rock Boulevard and Vance Way",
        "tag": "102",
        "stopId": "0102"
      },
      "geometry": {
        "type": "Point",
        "coordinates": [
          -119.7620299,
          39.5511
        ]
      }
    },
    {
      "type": "Feature",
      "properties": {
        "title": "Rock Boulevard and Tyler Way",
        "tag": "103",
        "stopId": "0103"
      },
      "geometry": {
        "type": "Point",
        "coordinates": [
          -119.7620699,
          39.54975
        ]
      }
    },
    {
      "type": "Feature",
      "properties": {
        "title": "Rock Boulevard and Greenbrae Drive",
        "tag": "104",
        "stopId": "0104"
      },
      "geometry": {
        "type": "Point",
        "coordinates": [
          -119.7620899,
          39.5476099
        ]
      }
    },
    {
      "type": "Feature",
      "properties": {
        "title": "Greenbrae Drive and Lorena Street",
        "tag": "105",
        "stopId": "0105"
      },
      "geometry": {
        "type": "Point",
        "coordinates": [
          -119.7678299,
          39.5473799
        ]
      }
    },
    {
      "type": "Feature",
      "properties": {
        "title": "Greenbrae Drive and Sullivan Lane",
        "tag": "106",
        "stopId": "0106"
      },
      "geometry": {
        "type": "Point",
        "coordinates": [
          -119.77195,
          39.5472399
        ]
      }
    },
    {
      "type": "Feature",
      "properties": {
        "title": "Greenbrae Drive and El Rancho Drive",
        "tag": "107",
        "stopId": "0107"
      },
      "geometry": {
        "type": "Point",
        "coordinates": [
          -119.77523,
          39.5476399
        ]
      }
    },
    {
      "type": "Feature",
      "properties": {
        "title": "Silverada Boulevard and Fantastic Drive Sak'n Save",
        "tag": "108",
        "stopId": "0108"
      },
      "geometry": {
        "type": "Point",
        "coordinates": [
          -119.7827399,
          39.5473199
        ]
      }
    },
    {
      "type": "Feature",
      "properties": {
        "title": "Silverada Boulevard and Paradise Drive",
        "tag": "109",
        "stopId": "0109"
      },
      "geometry": {
        "type": "Point",
        "coordinates": [
          -119.7828299,
          39.5447799
        ]
      }
    },
    {
      "type": "Feature",
      "properties": {
        "title": "Silverada Boulevard and Orchid Way",
        "tag": "110",
        "stopId": "0110"
      },
      "geometry": {
        "type": "Point",
        "coordinates": [
          -119.78377,
          39.5431799
        ]
      }
    },
    {
      "type": "Feature",
      "properties": {
        "title": "Carville Drive and Tom Sawyer Drive",
        "tag": "111",
        "stopId": "0111"
      },
      "geometry": {
        "type": "Point",
        "coordinates": [
          -119.78181,
          39.5420799
        ]
      }
    },
    {
      "type": "Feature",
      "properties": {
        "title": "Tom Sawyer Drive and Carville Drive",
        "tag": "112",
        "stopId": "0112"
      },
      "geometry": {
        "type": "Point",
        "coordinates": [
          -119.78187,
          39.5414399
        ]
      }
    },
    {
      "type": "Feature",
      "properties": {
        "title": "Silverada Boulevard and Tybo Avenue",
        "tag": "114",
        "stopId": "0114"
      },
      "geometry": {
        "type": "Point",
        "coordinates": [
          -119.7845799,
          39.53976
        ]
      }
    },
    {
      "type": "Feature",
      "properties": {
        "title": "E 9th Street and Trident Way",
        "tag": "115",
        "stopId": "0115"
      },
      "geometry": {
        "type": "Point",
        "coordinates": [
          -119.7872499,
          39.5391399
        ]
      }
    },
    {
      "type": "Feature",
      "properties": {
        "title": "E 9th Street and Manhattan Street",
        "tag": "116",
        "stopId": "0116"
      },
      "geometry": {
        "type": "Point",
        "coordinates": [
          -119.78921,
          39.5387899
        ]
      }
    },
    {
      "type": "Feature",
      "properties": {
        "title": "E 9th Street and Montello Street",
        "tag": "117",
        "stopId": "0117"
      },
      "geometry": {
        "type": "Point",
        "coordinates": [
          -119.79498,
          39.5385499
        ]
      }
    },
    {
      "type": "Feature",
      "properties": {
        "title": "E 9th Street and Sutro Street at Senior Center",
        "tag": "118",
        "stopId": "0118"
      },
      "geometry": {
        "type": "Point",
        "coordinates": [
          -119.7989,
          39.5386099
        ]
      }
    },
    {
      "type": "Feature",
      "properties": {
        "title": "E 9th Street and Wells Avenue at County Offices",
        "tag": "119",
        "stopId": "0119"
      },
      "geometry": {
        "type": "Point",
        "coordinates": [
          -119.8023399,
          39.5386499
        ]
      }
    },
    {
      "type": "Feature",
      "properties": {
        "title": "Sadleir Way and N Wells Avenue",
        "tag": "120",
        "stopId": "0120"
      },
      "geometry": {
        "type": "Point",
        "coordinates": [
          -119.8036299,
          39.5419799
        ]
      }
    },
    {
      "type": "Feature",
      "properties": {
        "title": "Sadleir Way and Valley Road",
        "tag": "121",
        "stopId": "0121"
      },
      "geometry": {
        "type": "Point",
        "coordinates": [
          -119.8067199,
          39.5419199
        ]
      }
    },
    {
      "type": "Feature",
      "properties": {
        "title": "Valley Road and Highland Avenue",
        "tag": "122",
        "stopId": "0122"
      },
      "geometry": {
        "type": "Point",
        "coordinates": [
          -119.8079899,
          39.5414699
        ]
      }
    },
    {
      "type": "Feature",
      "properties": {
        "title": "Valley Road and E Poplar Street",
        "tag": "123",
        "stopId": "0123"
      },
      "geometry": {
        "type": "Point",
        "coordinates": [
          -119.8079099,
          39.5392499
        ]
      }
    },
    {
      "type": "Feature",
      "properties": {
        "title": "Valley Road and E 9th Street",
        "tag": "124",
        "stopId": "0124"
      },
      "geometry": {
        "type": "Point",
        "coordinates": [
          -119.8078099,
          39.53733
        ]
      }
    },
    {
      "type": "Feature",
      "properties": {
        "title": "Valley Road and E 6th Street",
        "tag": "126",
        "stopId": "0126"
      },
      "geometry": {
        "type": "Point",
        "coordinates": [
          -119.8077799,
          39.5341599
        ]
      }
    },
    {
      "type": "Feature",
      "properties": {
        "title": "E 6th Street and Evans Avenue",
        "tag": "127",
        "stopId": "0127"
      },
      "geometry": {
        "type": "Point",
        "coordinates": [
          -119.81097,
          39.5332499
        ]
      }
    },
    {
      "type": "Feature",
      "properties": {
        "title": "Lake Street and E 6th Street",
        "tag": "128",
        "stopId": "0128"
      },
      "geometry": {
        "type": "Point",
        "coordinates": [
          -119.81238,
          39.53269
        ]
      }
    },
    {
      "type": "Feature",
      "properties": {
        "title": "W 5th Street and N Arlington Avenue",
        "tag": "131",
        "stopId": "0131"
      },
      "geometry": {
        "type": "Point",
        "coordinates": [
          -119.81924,
          39.5303799
        ]
      }
    },
    {
      "type": "Feature",
      "properties": {
        "title": "W 5th Street and Ralston Street",
        "tag": "132",
        "stopId": "0132"
      },
      "geometry": {
        "type": "Point",
        "coordinates": [
          -119.8213799,
          39.53004
        ]
      }
    },
    {
      "type": "Feature",
      "properties": {
        "title": "W 5th Street and Washington Street",
        "tag": "133",
        "stopId": "0133"
      },
      "geometry": {
        "type": "Point",
        "coordinates": [
          -119.82354,
          39.5296299
        ]
      }
    },
    {
      "type": "Feature",
      "properties": {
        "title": "Washington Street and W 6th Street",
        "tag": "134",
        "stopId": "0134"
      },
      "geometry": {
        "type": "Point",
        "coordinates": [
          -119.8242599,
          39.5311999
        ]
      }
    },
    {
      "type": "Feature",
      "properties": {
        "title": "Kings Row and Van Petten Street",
        "tag": "142",
        "stopId": "0142"
      },
      "geometry": {
        "type": "Point",
        "coordinates": [
          -119.8420599,
          39.5367299
        ]
      }
    },
    {
      "type": "Feature",
      "properties": {
        "title": "Kings Row and Wyoming Avenue",
        "tag": "143",
        "stopId": "0143"
      },
      "geometry": {
        "type": "Point",
        "coordinates": [
          -119.8460299,
          39.5371999
        ]
      }
    },
    {
      "type": "Feature",
      "properties": {
        "title": "Kings Row and Polson Street",
        "tag": "144",
        "stopId": "0144"
      },
      "geometry": {
        "type": "Point",
        "coordinates": [
          -119.84884,
          39.5378099
        ]
      }
    },
    {
      "type": "Feature",
      "properties": {
        "title": "Kings Row and Bridgewood Lane",
        "tag": "145",
        "stopId": "0145"
      },
      "geometry": {
        "type": "Point",
        "coordinates": [
          -119.85202,
          39.5382299
        ]
      }
    },
    {
      "type": "Feature",
      "properties": {
        "title": "Kings Row and Marne Drive",
        "tag": "146",
        "stopId": "0146"
      },
      "geometry": {
        "type": "Point",
        "coordinates": [
          -119.85406,
          39.5385199
        ]
      }
    },
    {
      "type": "Feature",
      "properties": {
        "title": "Kings Row and Surf Way",
        "tag": "147",
        "stopId": "0147"
      },
      "geometry": {
        "type": "Point",
        "coordinates": [
          -119.85584,
          39.54072
        ]
      }
    },
    {
      "type": "Feature",
      "properties": {
        "title": "N McCarran Boulevard at Viewcrest Shopping Center",
        "tag": "148",
        "stopId": "0148"
      },
      "geometry": {
        "type": "Point",
        "coordinates": [
          -119.85777,
          39.5419799
        ]
      }
    },
    {
      "type": "Feature",
      "properties": {
        "title": "Mae Anne Avenue and Sierra Highlands Drive",
        "tag": "150",
        "stopId": "0150"
      },
      "geometry": {
        "type": "Point",
        "coordinates": [
          -119.8689,
          39.5335899
        ]
      }
    },
    {
      "type": "Feature",
      "properties": {
        "title": "Mae Anne Avenue and Morning Star Drive",
        "tag": "151",
        "stopId": "0151"
      },
      "geometry": {
        "type": "Point",
        "coordinates": [
          -119.8733099,
          39.5334799
        ]
      }
    },
    {
      "type": "Feature",
      "properties": {
        "title": "Mae Anne Avenue and Shadow Park Drive",
        "tag": "152",
        "stopId": "0152"
      },
      "geometry": {
        "type": "Point",
        "coordinates": [
          -119.87627,
          39.5308599
        ]
      }
    },
    {
      "type": "Feature",
      "properties": {
        "title": "Mae Anne Avenue and Grand Point Way",
        "tag": "153",
        "stopId": "0153"
      },
      "geometry": {
        "type": "Point",
        "coordinates": [
          -119.87955,
          39.5297399
        ]
      }
    },
    {
      "type": "Feature",
      "properties": {
        "title": "Robb Drive at McQueen High School",
        "tag": "155",
        "stopId": "0155"
      },
      "geometry": {
        "type": "Point",
        "coordinates": [
          -119.88179,
          39.53457
        ]
      }
    },
    {
      "type": "Feature",
      "properties": {
        "title": "Robb Drive at North West Library",
        "tag": "156",
        "stopId": "0156"
      },
      "geometry": {
        "type": "Point",
        "coordinates": [
          -119.88465,
          39.5385699
        ]
      }
    },
    {
      "type": "Feature",
      "properties": {
        "title": "Robb Drive at McQueen High School",
        "tag": "157",
        "stopId": "0157"
      },
      "geometry": {
        "type": "Point",
        "coordinates": [
          -119.8819999,
          39.5345399
        ]
      }
    },
    {
      "type": "Feature",
      "properties": {
        "title": "Robb Drive and Glen Aulin Way",
        "tag": "158",
        "stopId": "0158"
      },
      "geometry": {
        "type": "Point",
        "coordinates": [
          -119.8820799,
          39.5317699
        ]
      }
    },
    {
      "type": "Feature",
      "properties": {
        "title": "Mae Anne Avenue and Grand Point Way",
        "tag": "159",
        "stopId": "0159"
      },
      "geometry": {
        "type": "Point",
        "coordinates": [
          -119.87894,
          39.52962
        ]
      }
    },
    {
      "type": "Feature",
      "properties": {
        "title": "Mae Anne Avenue and Shadow Park Drive",
        "tag": "160",
        "stopId": "0160"
      },
      "geometry": {
        "type": "Point",
        "coordinates": [
          -119.87645,
          39.5304199
        ]
      }
    },
    {
      "type": "Feature",
      "properties": {
        "title": "Mae Anne Avenue and Quail Run Road",
        "tag": "161",
        "stopId": "0161"
      },
      "geometry": {
        "type": "Point",
        "coordinates": [
          -119.87209,
          39.5334
        ]
      }
    },
    {
      "type": "Feature",
      "properties": {
        "title": "Mae Anne Avenue and Sierra Highlands Drive",
        "tag": "162",
        "stopId": "0162"
      },
      "geometry": {
        "type": "Point",
        "coordinates": [
          -119.86752,
          39.5334299
        ]
      }
    },
    {
      "type": "Feature",
      "properties": {
        "title": "N McCarran Boulevard and W 7th Street",
        "tag": "163",
        "stopId": "0163"
      },
      "geometry": {
        "type": "Point",
        "coordinates": [
          -119.86428,
          39.5371399
        ]
      }
    },
    {
      "type": "Feature",
      "properties": {
        "title": "N McCarran Boulevard and Kings Row",
        "tag": "164",
        "stopId": "0164"
      },
      "geometry": {
        "type": "Point",
        "coordinates": [
          -119.8568399,
          39.54207
        ]
      }
    },
    {
      "type": "Feature",
      "properties": {
        "title": "W 7th Street and Nancy Circle",
        "tag": "165",
        "stopId": "0165"
      },
      "geometry": {
        "type": "Point",
        "coordinates": [
          -119.8548,
          39.53061
        ]
      }
    },
    {
      "type": "Feature",
      "properties": {
        "title": "Kings Row and Marne Drive",
        "tag": "166",
        "stopId": "0166"
      },
      "geometry": {
        "type": "Point",
        "coordinates": [
          -119.8540999,
          39.5384
        ]
      }
    },
    {
      "type": "Feature",
      "properties": {
        "title": "Kings Row and Apollo Way",
        "tag": "167",
        "stopId": "0167"
      },
      "geometry": {
        "type": "Point",
        "coordinates": [
          -119.85212,
          39.53814
        ]
      }
    },
    {
      "type": "Feature",
      "properties": {
        "title": "Kings Row and Wyoming Avenue",
        "tag": "168",
        "stopId": "0168"
      },
      "geometry": {
        "type": "Point",
        "coordinates": [
          -119.84679,
          39.53711
        ]
      }
    },
    {
      "type": "Feature",
      "properties": {
        "title": "Kings Row and Crown Drive",
        "tag": "169",
        "stopId": "0169"
      },
      "geometry": {
        "type": "Point",
        "coordinates": [
          -119.8427199,
          39.5366
        ]
      }
    },
    {
      "type": "Feature",
      "properties": {
        "title": "Kings Row and Severn Drive",
        "tag": "170",
        "stopId": "0170"
      },
      "geometry": {
        "type": "Point",
        "coordinates": [
          -119.83924,
          39.5367899
        ]
      }
    },
    {
      "type": "Feature",
      "properties": {
        "title": "Washington Street and W 7th Street",
        "tag": "180",
        "stopId": "0180"
      },
      "geometry": {
        "type": "Point",
        "coordinates": [
          -119.8244599,
          39.5313
        ]
      }
    },
    {
      "type": "Feature",
      "properties": {
        "title": "W 5th Street and N Arlington Avenue",
        "tag": "183",
        "stopId": "0183"
      },
      "geometry": {
        "type": "Point",
        "coordinates": [
          -119.8187999,
          39.53041
        ]
      }
    },
    {
      "type": "Feature",
      "properties": {
        "title": "W 4th Street and N Arlington Avenue",
        "tag": "188",
        "stopId": "0188"
      },
      "geometry": {
        "type": "Point",
        "coordinates": [
          -119.8177,
          39.5293399
        ]
      }
    },
    {
      "type": "Feature",
      "properties": {
        "title": "W 4th Street and Ralston Street",
        "tag": "189",
        "stopId": "0189"
      },
      "geometry": {
        "type": "Point",
        "coordinates": [
          -119.82101,
          39.5286999
        ]
      }
    },
    {
      "type": "Feature",
      "properties": {
        "title": "W 4th Street and Washington Street",
        "tag": "190",
        "stopId": "0190"
      },
      "geometry": {
        "type": "Point",
        "coordinates": [
          -119.82391,
          39.5280999
        ]
      }
    },
    {
      "type": "Feature",
      "properties": {
        "title": "W 4th Street and Keystone Avenue",
        "tag": "191",
        "stopId": "0191"
      },
      "geometry": {
        "type": "Point",
        "coordinates": [
          -119.8264799,
          39.5271899
        ]
      }
    },
    {
      "type": "Feature",
      "properties": {
        "title": "Keystone Avenue and W 5th Street",
        "tag": "192",
        "stopId": "0192"
      },
      "geometry": {
        "type": "Point",
        "coordinates": [
          -119.8278,
          39.5279499
        ]
      }
    },
    {
      "type": "Feature",
      "properties": {
        "title": "W 7th Street and Keystone Avenue",
        "tag": "193",
        "stopId": "0193"
      },
      "geometry": {
        "type": "Point",
        "coordinates": [
          -119.83253,
          39.5308999
        ]
      }
    },
    {
      "type": "Feature",
      "properties": {
        "title": "W 7th Street and Genoa Avenue",
        "tag": "194",
        "stopId": "0194"
      },
      "geometry": {
        "type": "Point",
        "coordinates": [
          -119.8351099,
          39.5307699
        ]
      }
    },
    {
      "type": "Feature",
      "properties": {
        "title": "W 7th Street and Stoker Avenue",
        "tag": "195",
        "stopId": "0195"
      },
      "geometry": {
        "type": "Point",
        "coordinates": [
          -119.83737,
          39.5306599
        ]
      }
    },
    {
      "type": "Feature",
      "properties": {
        "title": "W 7th Street and McDonald Drive",
        "tag": "196",
        "stopId": "0196"
      },
      "geometry": {
        "type": "Point",
        "coordinates": [
          -119.84027,
          39.5305199
        ]
      }
    },
    {
      "type": "Feature",
      "properties": {
        "title": "W 7th Street and Rhode Island Drive",
        "tag": "198",
        "stopId": "0198"
      },
      "geometry": {
        "type": "Point",
        "coordinates": [
          -119.8462699,
          39.5304199
        ]
      }
    },
    {
      "type": "Feature",
      "properties": {
        "title": "W 7th Street and Montana Drive",
        "tag": "199",
        "stopId": "0199"
      },
      "geometry": {
        "type": "Point",
        "coordinates": [
          -119.8484599,
          39.5304999
        ]
      }
    },
    {
      "type": "Feature",
      "properties": {
        "title": "W 7th Street and Akard Drive",
        "tag": "200",
        "stopId": "0200"
      },
      "geometry": {
        "type": "Point",
        "coordinates": [
          -119.8497499,
          39.5305599
        ]
      }
    },
    {
      "type": "Feature",
      "properties": {
        "title": "W 7th Street and Ibis Lane",
        "tag": "201",
        "stopId": "0201"
      },
      "geometry": {
        "type": "Point",
        "coordinates": [
          -119.8526599,
          39.5306799
        ]
      }
    },
    {
      "type": "Feature",
      "properties": {
        "title": "W 7th Street and Heights Drive",
        "tag": "202",
        "stopId": "0202"
      },
      "geometry": {
        "type": "Point",
        "coordinates": [
          -119.85541,
          39.5307499
        ]
      }
    },
    {
      "type": "Feature",
      "properties": {
        "title": "W 7th Street and Akard Drive",
        "tag": "203",
        "stopId": "0203"
      },
      "geometry": {
        "type": "Point",
        "coordinates": [
          -119.8585,
          39.53354
        ]
      }
    },
    {
      "type": "Feature",
      "properties": {
        "title": "W 7th Street and Conway Lane",
        "tag": "204",
        "stopId": "0204"
      },
      "geometry": {
        "type": "Point",
        "coordinates": [
          -119.86029,
          39.53482
        ]
      }
    },
    {
      "type": "Feature",
      "properties": {
        "title": "W 7th Street and N McCarran Boulevard",
        "tag": "205",
        "stopId": "0205"
      },
      "geometry": {
        "type": "Point",
        "coordinates": [
          -119.8632,
          39.5362599
        ]
      }
    },
    {
      "type": "Feature",
      "properties": {
        "title": "W 7th Street and N McCarran Boulevard",
        "tag": "206",
        "stopId": "0206"
      },
      "geometry": {
        "type": "Point",
        "coordinates": [
          -119.86378,
          39.5363399
        ]
      }
    },
    {
      "type": "Feature",
      "properties": {
        "title": "W 7th Street and Conway Lane",
        "tag": "207",
        "stopId": "0207"
      },
      "geometry": {
        "type": "Point",
        "coordinates": [
          -119.86086,
          39.53482
        ]
      }
    },
    {
      "type": "Feature",
      "properties": {
        "title": "W 7th Street and Akard Drive",
        "tag": "208",
        "stopId": "0208"
      },
      "geometry": {
        "type": "Point",
        "coordinates": [
          -119.8587199,
          39.5333899
        ]
      }
    },
    {
      "type": "Feature",
      "properties": {
        "title": "W 7th Street and Downey Avenue",
        "tag": "209",
        "stopId": "0209"
      },
      "geometry": {
        "type": "Point",
        "coordinates": [
          -119.8563999,
          39.53099
        ]
      }
    },
    {
      "type": "Feature",
      "properties": {
        "title": "W 7th Street and James Lane",
        "tag": "210",
        "stopId": "0210"
      },
      "geometry": {
        "type": "Point",
        "coordinates": [
          -119.8521999,
          39.53052
        ]
      }
    },
    {
      "type": "Feature",
      "properties": {
        "title": "W 7th Street and Rhode Island Drive",
        "tag": "212",
        "stopId": "0212"
      },
      "geometry": {
        "type": "Point",
        "coordinates": [
          -119.8467299,
          39.5303
        ]
      }
    },
    {
      "type": "Feature",
      "properties": {
        "title": "W 7th Street and McDonald Drive",
        "tag": "214",
        "stopId": "0214"
      },
      "geometry": {
        "type": "Point",
        "coordinates": [
          -119.84075,
          39.5303599
        ]
      }
    },
    {
      "type": "Feature",
      "properties": {
        "title": "W 7th Street and Stoker Avenue",
        "tag": "215",
        "stopId": "0215"
      },
      "geometry": {
        "type": "Point",
        "coordinates": [
          -119.8375599,
          39.5305
        ]
      }
    },
    {
      "type": "Feature",
      "properties": {
        "title": "W 7th Street and Genoa Avenue",
        "tag": "216",
        "stopId": "0216"
      },
      "geometry": {
        "type": "Point",
        "coordinates": [
          -119.8352699,
          39.53061
        ]
      }
    },
    {
      "type": "Feature",
      "properties": {
        "title": "W 7th Street and Elgin Avenue",
        "tag": "217",
        "stopId": "0217"
      },
      "geometry": {
        "type": "Point",
        "coordinates": [
          -119.8330799,
          39.53073
        ]
      }
    },
    {
      "type": "Feature",
      "properties": {
        "title": "Keystone Avenue and W 5th Street",
        "tag": "218",
        "stopId": "0218"
      },
      "geometry": {
        "type": "Point",
        "coordinates": [
          -119.8284399,
          39.52806
        ]
      }
    },
    {
      "type": "Feature",
      "properties": {
        "title": "W 4th Street and Keystone Avenue",
        "tag": "219",
        "stopId": "0219"
      },
      "geometry": {
        "type": "Point",
        "coordinates": [
          -119.82631,
          39.5271199
        ]
      }
    },
    {
      "type": "Feature",
      "properties": {
        "title": "W 4th Street and Washington Street",
        "tag": "221",
        "stopId": "0221"
      },
      "geometry": {
        "type": "Point",
        "coordinates": [
          -119.82378,
          39.5279899
        ]
      }
    },
    {
      "type": "Feature",
      "properties": {
        "title": "W 4th Street and Ralston Street",
        "tag": "222",
        "stopId": "0222"
      },
      "geometry": {
        "type": "Point",
        "coordinates": [
          -119.82142,
          39.5284499
        ]
      }
    },
    {
      "type": "Feature",
      "properties": {
        "title": "W 4th Street and N Arlington Avenue",
        "tag": "223",
        "stopId": "0223"
      },
      "geometry": {
        "type": "Point",
        "coordinates": [
          -119.8188199,
          39.52898
        ]
      }
    },
    {
      "type": "Feature",
      "properties": {
        "title": "Sutro Street and E 9th Street",
        "tag": "228",
        "stopId": "0228"
      },
      "geometry": {
        "type": "Point",
        "coordinates": [
          -119.79855,
          39.5381799
        ]
      }
    },
    {
      "type": "Feature",
      "properties": {
        "title": "Sutro Street and Carville Drive",
        "tag": "229",
        "stopId": "0229"
      },
      "geometry": {
        "type": "Point",
        "coordinates": [
          -119.79858,
          39.5420399
        ]
      }
    },
    {
      "type": "Feature",
      "properties": {
        "title": "Sutro Street and Haddock Drive",
        "tag": "230",
        "stopId": "0230"
      },
      "geometry": {
        "type": "Point",
        "coordinates": [
          -119.79858,
          39.54419
        ]
      }
    },
    {
      "type": "Feature",
      "properties": {
        "title": "Sutro Street and Oliver Street",
        "tag": "231",
        "stopId": "0231"
      },
      "geometry": {
        "type": "Point",
        "coordinates": [
          -119.79853,
          39.54631
        ]
      }
    },
    {
      "type": "Feature",
      "properties": {
        "title": "Sutro Street and Timber Way",
        "tag": "232",
        "stopId": "0232"
      },
      "geometry": {
        "type": "Point",
        "coordinates": [
          -119.7985,
          39.54924
        ]
      }
    },
    {
      "type": "Feature",
      "properties": {
        "title": "Sutro Street at Hug High School",
        "tag": "233",
        "stopId": "0233"
      },
      "geometry": {
        "type": "Point",
        "coordinates": [
          -119.79842,
          39.5550699
        ]
      }
    },
    {
      "type": "Feature",
      "properties": {
        "title": "Clear Acre Lane and Scottsdale Road",
        "tag": "235",
        "stopId": "0235"
      },
      "geometry": {
        "type": "Point",
        "coordinates": [
          -119.78572,
          39.56399
        ]
      }
    },
    {
      "type": "Feature",
      "properties": {
        "title": "Sun Valley Boulevard and Rampion Way",
        "tag": "236",
        "stopId": "0236"
      },
      "geometry": {
        "type": "Point",
        "coordinates": [
          -119.7811999,
          39.57325
        ]
      }
    },
    {
      "type": "Feature",
      "properties": {
        "title": "Sun Valley Boulevard and E 1st Avenue",
        "tag": "237",
        "stopId": "0237"
      },
      "geometry": {
        "type": "Point",
        "coordinates": [
          -119.78015,
          39.5787
        ]
      }
    },
    {
      "type": "Feature",
      "properties": {
        "title": "Sun Valley Boulevard and E 2nd Avenue",
        "tag": "238",
        "stopId": "0238"
      },
      "geometry": {
        "type": "Point",
        "coordinates": [
          -119.78016,
          39.58236
        ]
      }
    },
    {
      "type": "Feature",
      "properties": {
        "title": "Sun Valley Boulevard and W Gepford Parkway",
        "tag": "239",
        "stopId": "0239"
      },
      "geometry": {
        "type": "Point",
        "coordinates": [
          -119.78023,
          39.5857199
        ]
      }
    },
    {
      "type": "Feature",
      "properties": {
        "title": "Sun Valley Boulevard and E 4th Avenue",
        "tag": "240",
        "stopId": "0240"
      },
      "geometry": {
        "type": "Point",
        "coordinates": [
          -119.7803299,
          39.5896499
        ]
      }
    },
    {
      "type": "Feature",
      "properties": {
        "title": "Sun Valley Boulevard and E 5th Avenue",
        "tag": "241",
        "stopId": "0241"
      },
      "geometry": {
        "type": "Point",
        "coordinates": [
          -119.7804,
          39.59233
        ]
      }
    },
    {
      "type": "Feature",
      "properties": {
        "title": "Sun Valley Boulevard and E 6th Avenue",
        "tag": "242",
        "stopId": "0242"
      },
      "geometry": {
        "type": "Point",
        "coordinates": [
          -119.78039,
          39.59656
        ]
      }
    },
    {
      "type": "Feature",
      "properties": {
        "title": "Sun Valley Boulevard and E 7th Avenue",
        "tag": "243",
        "stopId": "0243"
      },
      "geometry": {
        "type": "Point",
        "coordinates": [
          -119.78043,
          39.6002199
        ]
      }
    },
    {
      "type": "Feature",
      "properties": {
        "title": "Lupin Drive and 7th Avenue",
        "tag": "251",
        "stopId": "0251"
      },
      "geometry": {
        "type": "Point",
        "coordinates": [
          -119.7710899,
          39.60021
        ]
      }
    },
    {
      "type": "Feature",
      "properties": {
        "title": "Lupin Drive and 6th Avenue",
        "tag": "252",
        "stopId": "0252"
      },
      "geometry": {
        "type": "Point",
        "coordinates": [
          -119.77109,
          39.59667
        ]
      }
    },
    {
      "type": "Feature",
      "properties": {
        "title": "Lupin Drive and 5th Avenue",
        "tag": "253",
        "stopId": "0253"
      },
      "geometry": {
        "type": "Point",
        "coordinates": [
          -119.7711199,
          39.5930199
        ]
      }
    },
    {
      "type": "Feature",
      "properties": {
        "title": "E 5th Avenue and Leon Drive",
        "tag": "254",
        "stopId": "0254"
      },
      "geometry": {
        "type": "Point",
        "coordinates": [
          -119.7754099,
          39.5928199
        ]
      }
    },
    {
      "type": "Feature",
      "properties": {
        "title": "E 5th Avenue and Sun Valley Boulevard",
        "tag": "255",
        "stopId": "0255"
      },
      "geometry": {
        "type": "Point",
        "coordinates": [
          -119.77998,
          39.5927699
        ]
      }
    },
    {
      "type": "Feature",
      "properties": {
        "title": "Sun Valley Boulevard and W 4th Avenue",
        "tag": "256",
        "stopId": "0256"
      },
      "geometry": {
        "type": "Point",
        "coordinates": [
          -119.7805899,
          39.5885699
        ]
      }
    },
    {
      "type": "Feature",
      "properties": {
        "title": "Sun Valley Boulevard and W Gepford Parkway",
        "tag": "257",
        "stopId": "0257"
      },
      "geometry": {
        "type": "Point",
        "coordinates": [
          -119.7805199,
          39.5852799
        ]
      }
    },
    {
      "type": "Feature",
      "properties": {
        "title": "Sun Valley Boulevard and W 2nd Avenue",
        "tag": "258",
        "stopId": "0258"
      },
      "geometry": {
        "type": "Point",
        "coordinates": [
          -119.7804599,
          39.58138
        ]
      }
    },
    {
      "type": "Feature",
      "properties": {
        "title": "Sun Valley Boulevard and W 1st Avenue",
        "tag": "259",
        "stopId": "0259"
      },
      "geometry": {
        "type": "Point",
        "coordinates": [
          -119.7803899,
          39.57884
        ]
      }
    },
    {
      "type": "Feature",
      "properties": {
        "title": "Sun Valley Boulevard and Skaggs Circle",
        "tag": "260",
        "stopId": "0260"
      },
      "geometry": {
        "type": "Point",
        "coordinates": [
          -119.7813899,
          39.57367
        ]
      }
    },
    {
      "type": "Feature",
      "properties": {
        "title": "Sun Valley Boulevard and Dandini Boulevard",
        "tag": "261",
        "stopId": "0261"
      },
      "geometry": {
        "type": "Point",
        "coordinates": [
          -119.78199,
          39.5706899
        ]
      }
    },
    {
      "type": "Feature",
      "properties": {
        "title": "Clear Acre Lane and Scottsdale Road",
        "tag": "262",
        "stopId": "0262"
      },
      "geometry": {
        "type": "Point",
        "coordinates": [
          -119.7857699,
          39.56424
        ]
      }
    },
    {
      "type": "Feature",
      "properties": {
        "title": "Sutro Street and Paintbrush Drive",
        "tag": "264",
        "stopId": "0264"
      },
      "geometry": {
        "type": "Point",
        "coordinates": [
          -119.7986799,
          39.55262
        ]
      }
    },
    {
      "type": "Feature",
      "properties": {
        "title": "Sutro Street and Timber Way",
        "tag": "265",
        "stopId": "0265"
      },
      "geometry": {
        "type": "Point",
        "coordinates": [
          -119.7987299,
          39.54899
        ]
      }
    },
    {
      "type": "Feature",
      "properties": {
        "title": "Sutro Street and Wells Avenue",
        "tag": "266",
        "stopId": "0266"
      },
      "geometry": {
        "type": "Point",
        "coordinates": [
          -119.7987099,
          39.5460299
        ]
      }
    },
    {
      "type": "Feature",
      "properties": {
        "title": "Sutro Street and Haddock Drive",
        "tag": "267",
        "stopId": "0267"
      },
      "geometry": {
        "type": "Point",
        "coordinates": [
          -119.7987199,
          39.5438799
        ]
      }
    },
    {
      "type": "Feature",
      "properties": {
        "title": "Sutro Street and Carville Drive",
        "tag": "268",
        "stopId": "0268"
      },
      "geometry": {
        "type": "Point",
        "coordinates": [
          -119.7987099,
          39.5415499
        ]
      }
    },
    {
      "type": "Feature",
      "properties": {
        "title": "Sutro Street and E 9th Street",
        "tag": "269",
        "stopId": "0269"
      },
      "geometry": {
        "type": "Point",
        "coordinates": [
          -119.79871,
          39.5387499
        ]
      }
    },
    {
      "type": "Feature",
      "properties": {
        "title": "Sutro Street and E 7th Street",
        "tag": "270",
        "stopId": "0270"
      },
      "geometry": {
        "type": "Point",
        "coordinates": [
          -119.7986199,
          39.53625
        ]
      }
    },
    {
      "type": "Feature",
      "properties": {
        "title": "S Arlington Avenue and Ridge Street",
        "tag": "276",
        "stopId": "0276"
      },
      "geometry": {
        "type": "Point",
        "coordinates": [
          -119.8165399,
          39.5217799
        ]
      }
    },
    {
      "type": "Feature",
      "properties": {
        "title": "S Arlington Avenue and California Avenue",
        "tag": "277",
        "stopId": "0277"
      },
      "geometry": {
        "type": "Point",
        "coordinates": [
          -119.8172399,
          39.51972
        ]
      }
    },
    {
      "type": "Feature",
      "properties": {
        "title": "Stead Boulevard and Sagewood Drive",
        "tag": "280",
        "stopId": "0280"
      },
      "geometry": {
        "type": "Point",
        "coordinates": [
          -119.8821899,
          39.62846
        ]
      }
    },
    {
      "type": "Feature",
      "properties": {
        "title": "E Prater Way and Parlanti Lane",
        "tag": "281",
        "stopId": "0281"
      },
      "geometry": {
        "type": "Point",
        "coordinates": [
          -119.72491,
          39.5418399
        ]
      }
    },
    {
      "type": "Feature",
      "properties": {
        "title": "Plumas Street and Urban Road",
        "tag": "286",
        "stopId": "0286"
      },
      "geometry": {
        "type": "Point",
        "coordinates": [
          -119.8127099,
          39.50161
        ]
      }
    },
    {
      "type": "Feature",
      "properties": {
        "title": "Plumas Street and Mountain View Drive",
        "tag": "287",
        "stopId": "0287"
      },
      "geometry": {
        "type": "Point",
        "coordinates": [
          -119.8127099,
          39.49858
        ]
      }
    },
    {
      "type": "Feature",
      "properties": {
        "title": "Brinkby Avenue and Plumas Street",
        "tag": "288",
        "stopId": "0288"
      },
      "geometry": {
        "type": "Point",
        "coordinates": [
          -119.81216,
          39.49506
        ]
      }
    },
    {
      "type": "Feature",
      "properties": {
        "title": "Lakeside Drive and Brinkby Avenue",
        "tag": "289",
        "stopId": "0289"
      },
      "geometry": {
        "type": "Point",
        "coordinates": [
          -119.8078999,
          39.49518
        ]
      }
    },
    {
      "type": "Feature",
      "properties": {
        "title": "Lakeside Drive and Berrum Lane",
        "tag": "290",
        "stopId": "0290"
      },
      "geometry": {
        "type": "Point",
        "coordinates": [
          -119.8079599,
          39.49405
        ]
      }
    },
    {
      "type": "Feature",
      "properties": {
        "title": "W Moana Lane and Lakeside Drive",
        "tag": "291",
        "stopId": "0291"
      },
      "geometry": {
        "type": "Point",
        "coordinates": [
          -119.80736,
          39.4911199
        ]
      }
    },
    {
      "type": "Feature",
      "properties": {
        "title": "Lakeside Drive and W Moana Lane",
        "tag": "317",
        "stopId": "0317"
      },
      "geometry": {
        "type": "Point",
        "coordinates": [
          -119.80782,
          39.49145
        ]
      }
    },
    {
      "type": "Feature",
      "properties": {
        "title": "Lakeside Drive and Berrum Lane",
        "tag": "318",
        "stopId": "0318"
      },
      "geometry": {
        "type": "Point",
        "coordinates": [
          -119.80782,
          39.4931199
        ]
      }
    },
    {
      "type": "Feature",
      "properties": {
        "title": "Lakeside Drive and Robinhood Drive",
        "tag": "319",
        "stopId": "0319"
      },
      "geometry": {
        "type": "Point",
        "coordinates": [
          -119.80782,
          39.49482
        ]
      }
    },
    {
      "type": "Feature",
      "properties": {
        "title": "Brinkby Avenue and Lakeside Drive",
        "tag": "320",
        "stopId": "0320"
      },
      "geometry": {
        "type": "Point",
        "coordinates": [
          -119.8083,
          39.4955899
        ]
      }
    },
    {
      "type": "Feature",
      "properties": {
        "title": "Brinkby Avenue and Plumas Street",
        "tag": "321",
        "stopId": "0321"
      },
      "geometry": {
        "type": "Point",
        "coordinates": [
          -119.8119599,
          39.4951899
        ]
      }
    },
    {
      "type": "Feature",
      "properties": {
        "title": "Plumas Street and Mountain View Drive",
        "tag": "322",
        "stopId": "0322"
      },
      "geometry": {
        "type": "Point",
        "coordinates": [
          -119.81251,
          39.49831
        ]
      }
    },
    {
      "type": "Feature",
      "properties": {
        "title": "Plumas Street and Morningside Drive",
        "tag": "323",
        "stopId": "0323"
      },
      "geometry": {
        "type": "Point",
        "coordinates": [
          -119.8125199,
          39.5023099
        ]
      }
    },
    {
      "type": "Feature",
      "properties": {
        "title": "S Arlington Avenue and St Lawrence Avenue",
        "tag": "331",
        "stopId": "0331"
      },
      "geometry": {
        "type": "Point",
        "coordinates": [
          -119.81708,
          39.5178599
        ]
      }
    },
    {
      "type": "Feature",
      "properties": {
        "title": "S Arlington Avenue and Ridge Street",
        "tag": "333",
        "stopId": "0333"
      },
      "geometry": {
        "type": "Point",
        "coordinates": [
          -119.81642,
          39.5215199
        ]
      }
    },
    {
      "type": "Feature",
      "properties": {
        "title": "N Virginia Street and E 7th Street",
        "tag": "338",
        "stopId": "0338"
      },
      "geometry": {
        "type": "Point",
        "coordinates": [
          -119.8152699,
          39.5334199
        ]
      }
    },
    {
      "type": "Feature",
      "properties": {
        "title": "N Virginia Street and E 9th Street",
        "tag": "339",
        "stopId": "0339"
      },
      "geometry": {
        "type": "Point",
        "coordinates": [
          -119.81626,
          39.5366699
        ]
      }
    },
    {
      "type": "Feature",
      "properties": {
        "title": "N Virginia Street and Artemesia Way",
        "tag": "340",
        "stopId": "0340"
      },
      "geometry": {
        "type": "Point",
        "coordinates": [
          -119.81695,
          39.53881
        ]
      }
    },
    {
      "type": "Feature",
      "properties": {
        "title": "N Virginia Street and College Drive",
        "tag": "341",
        "stopId": "0341"
      },
      "geometry": {
        "type": "Point",
        "coordinates": [
          -119.81702,
          39.54124
        ]
      }
    },
    {
      "type": "Feature",
      "properties": {
        "title": "N Virginia Street and E 15th Street",
        "tag": "342",
        "stopId": "0342"
      },
      "geometry": {
        "type": "Point",
        "coordinates": [
          -119.8186999,
          39.5441799
        ]
      }
    },
    {
      "type": "Feature",
      "properties": {
        "title": "N Virginia Street at Planetarium",
        "tag": "343",
        "stopId": "0343"
      },
      "geometry": {
        "type": "Point",
        "coordinates": [
          -119.82059,
          39.54669
        ]
      }
    },
    {
      "type": "Feature",
      "properties": {
        "title": "N Virginia Street and E 17th Street",
        "tag": "344",
        "stopId": "0344"
      },
      "geometry": {
        "type": "Point",
        "coordinates": [
          -119.8211799,
          39.5483399
        ]
      }
    },
    {
      "type": "Feature",
      "properties": {
        "title": "N Virginia Street and Morraine Way",
        "tag": "345",
        "stopId": "0345"
      },
      "geometry": {
        "type": "Point",
        "coordinates": [
          -119.82638,
          39.5582699
        ]
      }
    },
    {
      "type": "Feature",
      "properties": {
        "title": "N Virginia Street and Talus Way",
        "tag": "346",
        "stopId": "0346"
      },
      "geometry": {
        "type": "Point",
        "coordinates": [
          -119.82622,
          39.5615699
        ]
      }
    },
    {
      "type": "Feature",
      "properties": {
        "title": "N Virginia Street and E Parr Boulevard",
        "tag": "347",
        "stopId": "0347"
      },
      "geometry": {
        "type": "Point",
        "coordinates": [
          -119.82428,
          39.5682199
        ]
      }
    },
    {
      "type": "Feature",
      "properties": {
        "title": "N Virginia Street at Bonanza Square",
        "tag": "348",
        "stopId": "0348"
      },
      "geometry": {
        "type": "Point",
        "coordinates": [
          -119.82627,
          39.5713099
        ]
      }
    },
    {
      "type": "Feature",
      "properties": {
        "title": "N Virginia Street at Mobile Manor",
        "tag": "349",
        "stopId": "0349"
      },
      "geometry": {
        "type": "Point",
        "coordinates": [
          -119.8287299,
          39.5733099
        ]
      }
    },
    {
      "type": "Feature",
      "properties": {
        "title": "N Virginia Street and Sunset Mountain Road",
        "tag": "350",
        "stopId": "0350"
      },
      "geometry": {
        "type": "Point",
        "coordinates": [
          -119.8304,
          39.5846499
        ]
      }
    },
    {
      "type": "Feature",
      "properties": {
        "title": "N Virginia Street and Wellington Way",
        "tag": "351",
        "stopId": "0351"
      },
      "geometry": {
        "type": "Point",
        "coordinates": [
          -119.8351099,
          39.5901499
        ]
      }
    },
    {
      "type": "Feature",
      "properties": {
        "title": "Stead Boulevard and Silver Lake Road",
        "tag": "363",
        "stopId": "0363"
      },
      "geometry": {
        "type": "Point",
        "coordinates": [
          -119.88198,
          39.6259799
        ]
      }
    },
    {
      "type": "Feature",
      "properties": {
        "title": "Stead Boulevard and Sagewood Drive",
        "tag": "364",
        "stopId": "0364"
      },
      "geometry": {
        "type": "Point",
        "coordinates": [
          -119.88192,
          39.6282099
        ]
      }
    },
    {
      "type": "Feature",
      "properties": {
        "title": "Stead Boulevard and Ural Street",
        "tag": "365",
        "stopId": "0365"
      },
      "geometry": {
        "type": "Point",
        "coordinates": [
          -119.88187,
          39.63086
        ]
      }
    },
    {
      "type": "Feature",
      "properties": {
        "title": "Stead Boulevard and Cascade Street",
        "tag": "366",
        "stopId": "0366"
      },
      "geometry": {
        "type": "Point",
        "coordinates": [
          -119.8817699,
          39.63494
        ]
      }
    },
    {
      "type": "Feature",
      "properties": {
        "title": "Stead Boulevard and Rocky Mountain Street",
        "tag": "367",
        "stopId": "0367"
      },
      "geometry": {
        "type": "Point",
        "coordinates": [
          -119.88166,
          39.6396099
        ]
      }
    },
    {
      "type": "Feature",
      "properties": {
        "title": "Stead Boulevard and Lear Boulevard",
        "tag": "368",
        "stopId": "0368"
      },
      "geometry": {
        "type": "Point",
        "coordinates": [
          -119.8816,
          39.64141
        ]
      }
    },
    {
      "type": "Feature",
      "properties": {
        "title": "Stead Boulevard and Mt Anderson Street",
        "tag": "369",
        "stopId": "0369"
      },
      "geometry": {
        "type": "Point",
        "coordinates": [
          -119.8798899,
          39.64604
        ]
      }
    },
    {
      "type": "Feature",
      "properties": {
        "title": "Stead Boulevard and Mt Shasta Street",
        "tag": "370",
        "stopId": "0370"
      },
      "geometry": {
        "type": "Point",
        "coordinates": [
          -119.87585,
          39.6498799
        ]
      }
    },
    {
      "type": "Feature",
      "properties": {
        "title": "Echo Avenue and Mt Charleston Street",
        "tag": "376",
        "stopId": "0376"
      },
      "geometry": {
        "type": "Point",
        "coordinates": [
          -119.8766899,
          39.6539099
        ]
      }
    },
    {
      "type": "Feature",
      "properties": {
        "title": "Echo Avenue and Echo Court",
        "tag": "377",
        "stopId": "0377"
      },
      "geometry": {
        "type": "Point",
        "coordinates": [
          -119.87855,
          39.6540499
        ]
      }
    },
    {
      "type": "Feature",
      "properties": {
        "title": "Echo Avenue and Mt Babcock Street",
        "tag": "378",
        "stopId": "0378"
      },
      "geometry": {
        "type": "Point",
        "coordinates": [
          -119.8807899,
          39.6542299
        ]
      }
    },
    {
      "type": "Feature",
      "properties": {
        "title": "Stead Boulevard and Lear Boulevard",
        "tag": "382",
        "stopId": "0382"
      },
      "geometry": {
        "type": "Point",
        "coordinates": [
          -119.88185,
          39.6420399
        ]
      }
    },
    {
      "type": "Feature",
      "properties": {
        "title": "Stead Boulevard and Rocky Mountain Street",
        "tag": "383",
        "stopId": "0383"
      },
      "geometry": {
        "type": "Point",
        "coordinates": [
          -119.8818999,
          39.64032
        ]
      }
    },
    {
      "type": "Feature",
      "properties": {
        "title": "Stead Boulevard at Craftman's Press",
        "tag": "384",
        "stopId": "0384"
      },
      "geometry": {
        "type": "Point",
        "coordinates": [
          -119.8820799,
          39.6328899
        ]
      }
    },
    {
      "type": "Feature",
      "properties": {
        "title": "Stead Boulevard and Ural Street",
        "tag": "385",
        "stopId": "0385"
      },
      "geometry": {
        "type": "Point",
        "coordinates": [
          -119.8821099,
          39.6312299
        ]
      }
    },
    {
      "type": "Feature",
      "properties": {
        "title": "N Virginia Street and Lancaster Drive",
        "tag": "396",
        "stopId": "0396"
      },
      "geometry": {
        "type": "Point",
        "coordinates": [
          -119.8358099,
          39.5922299
        ]
      }
    },
    {
      "type": "Feature",
      "properties": {
        "title": "N Virginia Street and Wellington Way",
        "tag": "397",
        "stopId": "0397"
      },
      "geometry": {
        "type": "Point",
        "coordinates": [
          -119.8353499,
          39.5905299
        ]
      }
    },
    {
      "type": "Feature",
      "properties": {
        "title": "N Virginia Street and Sunset Mountain Road",
        "tag": "398",
        "stopId": "0398"
      },
      "geometry": {
        "type": "Point",
        "coordinates": [
          -119.8304099,
          39.5841099
        ]
      }
    },
    {
      "type": "Feature",
      "properties": {
        "title": "S Virginia Street and Hoge Road",
        "tag": "399",
        "stopId": "0399"
      },
      "geometry": {
        "type": "Point",
        "coordinates": [
          -119.8291199,
          39.5733299
        ]
      }
    },
    {
      "type": "Feature",
      "properties": {
        "title": "N Virginia Street at Bonanza Square",
        "tag": "400",
        "stopId": "0400"
      },
      "geometry": {
        "type": "Point",
        "coordinates": [
          -119.82713,
          39.5716999
        ]
      }
    },
    {
      "type": "Feature",
      "properties": {
        "title": "N Virginia Street and Talus Way",
        "tag": "401",
        "stopId": "0401"
      },
      "geometry": {
        "type": "Point",
        "coordinates": [
          -119.8264199,
          39.5622099
        ]
      }
    },
    {
      "type": "Feature",
      "properties": {
        "title": "N Virginia Street and Morraine Way",
        "tag": "402",
        "stopId": "0402"
      },
      "geometry": {
        "type": "Point",
        "coordinates": [
          -119.8267399,
          39.5577099
        ]
      }
    },
    {
      "type": "Feature",
      "properties": {
        "title": "N Virginia Street and W 17th Street",
        "tag": "403",
        "stopId": "0403"
      },
      "geometry": {
        "type": "Point",
        "coordinates": [
          -119.82134,
          39.5482
        ]
      }
    },
    {
      "type": "Feature",
      "properties": {
        "title": "N Virginia Street at Planetarium",
        "tag": "404",
        "stopId": "0404"
      },
      "geometry": {
        "type": "Point",
        "coordinates": [
          -119.8207299,
          39.54641
        ]
      }
    },
    {
      "type": "Feature",
      "properties": {
        "title": "N Virginia Street and 15th Street",
        "tag": "405",
        "stopId": "0405"
      },
      "geometry": {
        "type": "Point",
        "coordinates": [
          -119.8187699,
          39.5439299
        ]
      }
    },
    {
      "type": "Feature",
      "properties": {
        "title": "N Virginia Street and College Drive",
        "tag": "406",
        "stopId": "0406"
      },
      "geometry": {
        "type": "Point",
        "coordinates": [
          -119.8172699,
          39.5407499
        ]
      }
    },
    {
      "type": "Feature",
      "properties": {
        "title": "N Virginia Street and W 10th Street",
        "tag": "407",
        "stopId": "0407"
      },
      "geometry": {
        "type": "Point",
        "coordinates": [
          -119.81679,
          39.5374599
        ]
      }
    },
    {
      "type": "Feature",
      "properties": {
        "title": "W 8th Street and N Virginia Street",
        "tag": "408",
        "stopId": "0408"
      },
      "geometry": {
        "type": "Point",
        "coordinates": [
          -119.8164699,
          39.5349799
        ]
      }
    },
    {
      "type": "Feature",
      "properties": {
        "title": "N Sierra Street and Elm Street",
        "tag": "409",
        "stopId": "0409"
      },
      "geometry": {
        "type": "Point",
        "coordinates": [
          -119.8167999,
          39.53326
        ]
      }
    },
    {
      "type": "Feature",
      "properties": {
        "title": "Buck Drive and Lemmon Drive",
        "tag": "411",
        "stopId": "0411"
      },
      "geometry": {
        "type": "Point",
        "coordinates": [
          -119.8479499,
          39.6140499
        ]
      }
    },
    {
      "type": "Feature",
      "properties": {
        "title": "Lemmon Drive and Military Road",
        "tag": "412",
        "stopId": "0412"
      },
      "geometry": {
        "type": "Point",
        "coordinates": [
          -119.84814,
          39.6226099
        ]
      }
    },
    {
      "type": "Feature",
      "properties": {
        "title": "Lemmon Drive and Bernoulli Street",
        "tag": "413",
        "stopId": "0413"
      },
      "geometry": {
        "type": "Point",
        "coordinates": [
          -119.8458799,
          39.62922
        ]
      }
    },
    {
      "type": "Feature",
      "properties": {
        "title": "Lemmon Drive and Hydraulic Street",
        "tag": "414",
        "stopId": "0414"
      },
      "geometry": {
        "type": "Point",
        "coordinates": [
          -119.8448513,
          39.632445
        ]
      }
    },
    {
      "type": "Feature",
      "properties": {
        "title": "Lemmon Drive and Surge Street",
        "tag": "415",
        "stopId": "0415"
      },
      "geometry": {
        "type": "Point",
        "coordinates": [
          -119.84353,
          39.6361699
        ]
      }
    },
    {
      "type": "Feature",
      "properties": {
        "title": "Lemmon Drive and Limber Pine Drive",
        "tag": "416",
        "stopId": "0416"
      },
      "geometry": {
        "type": "Point",
        "coordinates": [
          -119.8422699,
          39.6381
        ]
      }
    },
    {
      "type": "Feature",
      "properties": {
        "title": "Lemmon Drive and Fleetwood Drive",
        "tag": "428",
        "stopId": "0428"
      },
      "geometry": {
        "type": "Point",
        "coordinates": [
          -119.8413999,
          39.63932
        ]
      }
    },
    {
      "type": "Feature",
      "properties": {
        "title": "Lemmon Drive and Limber Pine Drive",
        "tag": "429",
        "stopId": "0429"
      },
      "geometry": {
        "type": "Point",
        "coordinates": [
          -119.84273,
          39.6381599
        ]
      }
    },
    {
      "type": "Feature",
      "properties": {
        "title": "Lemmon Drive and Surge Street",
        "tag": "430",
        "stopId": "0430"
      },
      "geometry": {
        "type": "Point",
        "coordinates": [
          -119.8442799,
          39.6358099
        ]
      }
    },
    {
      "type": "Feature",
      "properties": {
        "title": "Lemmon Drive and Hydraulic Street",
        "tag": "431",
        "stopId": "0431"
      },
      "geometry": {
        "type": "Point",
        "coordinates": [
          -119.8453699,
          39.63242
        ]
      }
    },
    {
      "type": "Feature",
      "properties": {
        "title": "Lemmon Drive and Bernoulli Street",
        "tag": "432",
        "stopId": "0432"
      },
      "geometry": {
        "type": "Point",
        "coordinates": [
          -119.84645,
          39.6292299
        ]
      }
    },
    {
      "type": "Feature",
      "properties": {
        "title": "Lemmon Drive and Military Road",
        "tag": "433",
        "stopId": "0433"
      },
      "geometry": {
        "type": "Point",
        "coordinates": [
          -119.8486599,
          39.62188
        ]
      }
    },
    {
      "type": "Feature",
      "properties": {
        "title": "Buck Drive and Lemmon Drive",
        "tag": "434",
        "stopId": "0434"
      },
      "geometry": {
        "type": "Point",
        "coordinates": [
          -119.84737,
          39.61388
        ]
      }
    },
    {
      "type": "Feature",
      "properties": {
        "title": "E 2nd Street and Lake Street",
        "tag": "436",
        "stopId": "0436"
      },
      "geometry": {
        "type": "Point",
        "coordinates": [
          -119.8102599,
          39.5274
        ]
      }
    },
    {
      "type": "Feature",
      "properties": {
        "title": "E 2nd Street and High Street",
        "tag": "437",
        "stopId": "0437"
      },
      "geometry": {
        "type": "Point",
        "coordinates": [
          -119.8069099,
          39.52741
        ]
      }
    },
    {
      "type": "Feature",
      "properties": {
        "title": "E 2nd Street and Locust Street",
        "tag": "439",
        "stopId": "0439"
      },
      "geometry": {
        "type": "Point",
        "coordinates": [
          -119.8010599,
          39.52729
        ]
      }
    },
    {
      "type": "Feature",
      "properties": {
        "title": "E 2nd Street and Kirman Avenue",
        "tag": "440",
        "stopId": "0440"
      },
      "geometry": {
        "type": "Point",
        "coordinates": [
          -119.7973899,
          39.52733
        ]
      }
    },
    {
      "type": "Feature",
      "properties": {
        "title": "E 2nd Street at Renown",
        "tag": "441",
        "stopId": "0441"
      },
      "geometry": {
        "type": "Point",
        "coordinates": [
          -119.7950999,
          39.52735
        ]
      }
    },
    {
      "type": "Feature",
      "properties": {
        "title": "E 2nd Street and Gould Street",
        "tag": "442",
        "stopId": "0442"
      },
      "geometry": {
        "type": "Point",
        "coordinates": [
          -119.7903699,
          39.52733
        ]
      }
    },
    {
      "type": "Feature",
      "properties": {
        "title": "Kietzke Lane and Roberts Street",
        "tag": "445",
        "stopId": "0445"
      },
      "geometry": {
        "type": "Point",
        "coordinates": [
          -119.7892899,
          39.5205199
        ]
      }
    },
    {
      "type": "Feature",
      "properties": {
        "title": "Kietzke Lane and E Taylor Street",
        "tag": "446",
        "stopId": "0446"
      },
      "geometry": {
        "type": "Point",
        "coordinates": [
          -119.78925,
          39.51671
        ]
      }
    },
    {
      "type": "Feature",
      "properties": {
        "title": "Harvard Way and Vassar Street",
        "tag": "448",
        "stopId": "0448"
      },
      "geometry": {
        "type": "Point",
        "coordinates": [
          -119.7859,
          39.5125299
        ]
      }
    },
    {
      "type": "Feature",
      "properties": {
        "title": "Harvard Way and Princeton Drive",
        "tag": "449",
        "stopId": "0449"
      },
      "geometry": {
        "type": "Point",
        "coordinates": [
          -119.7859,
          39.51139
        ]
      }
    },
    {
      "type": "Feature",
      "properties": {
        "title": "Harvard Way and Pedretti Road",
        "tag": "450",
        "stopId": "0450"
      },
      "geometry": {
        "type": "Point",
        "coordinates": [
          -119.7859,
          39.50708
        ]
      }
    },
    {
      "type": "Feature",
      "properties": {
        "title": "Harvard Way and E Plumb Lane",
        "tag": "451",
        "stopId": "0451"
      },
      "geometry": {
        "type": "Point",
        "coordinates": [
          -119.7859199,
          39.50484
        ]
      }
    },
    {
      "type": "Feature",
      "properties": {
        "title": "E Grove Street and Harvard Way",
        "tag": "452",
        "stopId": "0452"
      },
      "geometry": {
        "type": "Point",
        "coordinates": [
          -119.78625,
          39.5008799
        ]
      }
    },
    {
      "type": "Feature",
      "properties": {
        "title": "E Grove Street and Kietzke Lane",
        "tag": "453",
        "stopId": "0453"
      },
      "geometry": {
        "type": "Point",
        "coordinates": [
          -119.7875799,
          39.5008899
        ]
      }
    },
    {
      "type": "Feature",
      "properties": {
        "title": "Kietzke Lane and Linden Street",
        "tag": "454",
        "stopId": "0454"
      },
      "geometry": {
        "type": "Point",
        "coordinates": [
          -119.78921,
          39.4997999
        ]
      }
    },
    {
      "type": "Feature",
      "properties": {
        "title": "Kietzke Lane between Linden and Gentry",
        "tag": "455",
        "stopId": "0455"
      },
      "geometry": {
        "type": "Point",
        "coordinates": [
          -119.78921,
          39.49758
        ]
      }
    },
    {
      "type": "Feature",
      "properties": {
        "title": "Neil Road and E Moana Lane",
        "tag": "458",
        "stopId": "0458"
      },
      "geometry": {
        "type": "Point",
        "coordinates": [
          -119.78054,
          39.4919699
        ]
      }
    },
    {
      "type": "Feature",
      "properties": {
        "title": "Neil Road and Mauldin Lane",
        "tag": "459",
        "stopId": "0459"
      },
      "geometry": {
        "type": "Point",
        "coordinates": [
          -119.7804399,
          39.4889699
        ]
      }
    },
    {
      "type": "Feature",
      "properties": {
        "title": "Neil Road and Nutmeg Place",
        "tag": "460",
        "stopId": "0460"
      },
      "geometry": {
        "type": "Point",
        "coordinates": [
          -119.7803599,
          39.48715
        ]
      }
    },
    {
      "type": "Feature",
      "properties": {
        "title": "Neil Road and E Peckham Lane",
        "tag": "461",
        "stopId": "0461"
      },
      "geometry": {
        "type": "Point",
        "coordinates": [
          -119.78007,
          39.48467
        ]
      }
    },
    {
      "type": "Feature",
      "properties": {
        "title": "Neil Road and Model Way",
        "tag": "462",
        "stopId": "0462"
      },
      "geometry": {
        "type": "Point",
        "coordinates": [
          -119.78017,
          39.48753
        ]
      }
    },
    {
      "type": "Feature",
      "properties": {
        "title": "Neil Road and Nannette Circle",
        "tag": "463",
        "stopId": "0463"
      },
      "geometry": {
        "type": "Point",
        "coordinates": [
          -119.78025,
          39.4898
        ]
      }
    },
    {
      "type": "Feature",
      "properties": {
        "title": "Neil Road and Evelyn Way",
        "tag": "464",
        "stopId": "0464"
      },
      "geometry": {
        "type": "Point",
        "coordinates": [
          -119.7803,
          39.4912999
        ]
      }
    },
    {
      "type": "Feature",
      "properties": {
        "title": "Kietzke Lane and E Moana Lane",
        "tag": "466",
        "stopId": "0466"
      },
      "geometry": {
        "type": "Point",
        "coordinates": [
          -119.78895,
          39.4933399
        ]
      }
    },
    {
      "type": "Feature",
      "properties": {
        "title": "Kietzke Lane and Gentry Way",
        "tag": "467",
        "stopId": "0467"
      },
      "geometry": {
        "type": "Point",
        "coordinates": [
          -119.7889,
          39.4953699
        ]
      }
    },
    {
      "type": "Feature",
      "properties": {
        "title": "Kietzke Lane and Miami Way",
        "tag": "476",
        "stopId": "0476"
      },
      "geometry": {
        "type": "Point",
        "coordinates": [
          -119.78903,
          39.51534
        ]
      }
    },
    {
      "type": "Feature",
      "properties": {
        "title": "Kietzke Lane and Automotive Way",
        "tag": "477",
        "stopId": "0477"
      },
      "geometry": {
        "type": "Point",
        "coordinates": [
          -119.7890299,
          39.51777
        ]
      }
    },
    {
      "type": "Feature",
      "properties": {
        "title": "Kietzke Lane and Roberts Street",
        "tag": "478",
        "stopId": "0478"
      },
      "geometry": {
        "type": "Point",
        "coordinates": [
          -119.78902,
          39.52008
        ]
      }
    },
    {
      "type": "Feature",
      "properties": {
        "title": "E 2nd Street and Giroux Street",
        "tag": "481",
        "stopId": "0481"
      },
      "geometry": {
        "type": "Point",
        "coordinates": [
          -119.79051,
          39.5276299
        ]
      }
    },
    {
      "type": "Feature",
      "properties": {
        "title": "Giroux Street and Kuenzli Street",
        "tag": "482",
        "stopId": "0482"
      },
      "geometry": {
        "type": "Point",
        "coordinates": [
          -119.792,
          39.52889
        ]
      }
    },
    {
      "type": "Feature",
      "properties": {
        "title": "Kuenzli Street and Manuel Street",
        "tag": "483",
        "stopId": "0483"
      },
      "geometry": {
        "type": "Point",
        "coordinates": [
          -119.79392,
          39.5292399
        ]
      }
    },
    {
      "type": "Feature",
      "properties": {
        "title": "Kuenzli Street and Locust Street",
        "tag": "485",
        "stopId": "0485"
      },
      "geometry": {
        "type": "Point",
        "coordinates": [
          -119.8002999,
          39.5284199
        ]
      }
    },
    {
      "type": "Feature",
      "properties": {
        "title": "Kuenzli Street and High Street",
        "tag": "486",
        "stopId": "0486"
      },
      "geometry": {
        "type": "Point",
        "coordinates": [
          -119.8062699,
          39.5283599
        ]
      }
    },
    {
      "type": "Feature",
      "properties": {
        "title": "S Virginia Street and Gentry Way",
        "tag": "488",
        "stopId": "0488"
      },
      "geometry": {
        "type": "Point",
        "coordinates": [
          -119.7978899,
          39.49435
        ]
      }
    },
    {
      "type": "Feature",
      "properties": {
        "title": "S Virginia Street and W Peckham Lane",
        "tag": "490",
        "stopId": "0490"
      },
      "geometry": {
        "type": "Point",
        "coordinates": [
          -119.79411,
          39.4867899
        ]
      }
    },
    {
      "type": "Feature",
      "properties": {
        "title": "S Virginia Street and Kumle Lane",
        "tag": "491",
        "stopId": "0491"
      },
      "geometry": {
        "type": "Point",
        "coordinates": [
          -119.7930299,
          39.4846099
        ]
      }
    },
    {
      "type": "Feature",
      "properties": {
        "title": "North Hills Boulevard at North Hills Center",
        "tag": "498",
        "stopId": "0498"
      },
      "geometry": {
        "type": "Point",
        "coordinates": [
          -119.84016,
          39.6040799
        ]
      }
    },
    {
      "type": "Feature",
      "properties": {
        "title": "North Hills Boulevard at North Hills Center South",
        "tag": "501",
        "stopId": "0501"
      },
      "geometry": {
        "type": "Point",
        "coordinates": [
          -119.8393099,
          39.60403
        ]
      }
    },
    {
      "type": "Feature",
      "properties": {
        "title": "Neil Road and Delucchi Lane",
        "tag": "505",
        "stopId": "0505"
      },
      "geometry": {
        "type": "Point",
        "coordinates": [
          -119.78021,
          39.47057
        ]
      }
    },
    {
      "type": "Feature",
      "properties": {
        "title": "S Virginia Street and Meadowood Mall Circle",
        "tag": "506",
        "stopId": "0506"
      },
      "geometry": {
        "type": "Point",
        "coordinates": [
          -119.7865099,
          39.4717999
        ]
      }
    },
    {
      "type": "Feature",
      "properties": {
        "title": "S Virginia Street at Reno Sparks Convention Center",
        "tag": "507",
        "stopId": "0507"
      },
      "geometry": {
        "type": "Point",
        "coordinates": [
          -119.79286,
          39.4849999
        ]
      }
    },
    {
      "type": "Feature",
      "properties": {
        "title": "S Virginia Street and Moana Lane",
        "tag": "509",
        "stopId": "0509"
      },
      "geometry": {
        "type": "Point",
        "coordinates": [
          -119.7953899,
          39.4901999
        ]
      }
    },
    {
      "type": "Feature",
      "properties": {
        "title": "S Virginia Street and Gentry Way",
        "tag": "510",
        "stopId": "0510"
      },
      "geometry": {
        "type": "Point",
        "coordinates": [
          -119.7973,
          39.49383
        ]
      }
    },
    {
      "type": "Feature",
      "properties": {
        "title": "Victorian Avenue and 16th Street",
        "tag": "526",
        "stopId": "0526"
      },
      "geometry": {
        "type": "Point",
        "coordinates": [
          -119.7639799,
          39.53518
        ]
      }
    },
    {
      "type": "Feature",
      "properties": {
        "title": "Victorian Avenue and Victorian Plaza Circle",
        "tag": "528",
        "stopId": "0528"
      },
      "geometry": {
        "type": "Point",
        "coordinates": [
          -119.7566199,
          39.5345599
        ]
      }
    },
    {
      "type": "Feature",
      "properties": {
        "title": "E Prater Way and Howard Drive",
        "tag": "539",
        "stopId": "0539"
      },
      "geometry": {
        "type": "Point",
        "coordinates": [
          -119.7316499,
          39.54176
        ]
      }
    },
    {
      "type": "Feature",
      "properties": {
        "title": "Howard Drive and E Lincoln Way",
        "tag": "542",
        "stopId": "0542"
      },
      "geometry": {
        "type": "Point",
        "coordinates": [
          -119.7325499,
          39.5364899
        ]
      }
    },
    {
      "type": "Feature",
      "properties": {
        "title": "Western Village Inn and Casino",
        "tag": "543",
        "stopId": "0543"
      },
      "geometry": {
        "type": "Point",
        "coordinates": [
          -119.73334,
          39.5348499
        ]
      }
    },
    {
      "type": "Feature",
      "properties": {
        "title": "Victorian Avenue and 7th Street",
        "tag": "553",
        "stopId": "0553"
      },
      "geometry": {
        "type": "Point",
        "coordinates": [
          -119.75188,
          39.5348999
        ]
      }
    },
    {
      "type": "Feature",
      "properties": {
        "title": "Victorian Avenue at Nugget",
        "tag": "554",
        "stopId": "0554"
      },
      "geometry": {
        "type": "Point",
        "coordinates": [
          -119.7579599,
          39.5348699
        ]
      }
    },
    {
      "type": "Feature",
      "properties": {
        "title": "Victorian Avenue and 16th Street",
        "tag": "556",
        "stopId": "0556"
      },
      "geometry": {
        "type": "Point",
        "coordinates": [
          -119.7636,
          39.53529
        ]
      }
    },
    {
      "type": "Feature",
      "properties": {
        "title": "E Prater Way and E Greenbrae Drive",
        "tag": "559",
        "stopId": "0559"
      },
      "geometry": {
        "type": "Point",
        "coordinates": [
          -119.72688,
          39.5417999
        ]
      }
    },
    {
      "type": "Feature",
      "properties": {
        "title": "Prater Way and 7th Street",
        "tag": "574",
        "stopId": "0574"
      },
      "geometry": {
        "type": "Point",
        "coordinates": [
          -119.7513599,
          39.5405
        ]
      }
    },
    {
      "type": "Feature",
      "properties": {
        "title": "Prater Way and 4th Street",
        "tag": "575",
        "stopId": "0575"
      },
      "geometry": {
        "type": "Point",
        "coordinates": [
          -119.7483999,
          39.54106
        ]
      }
    },
    {
      "type": "Feature",
      "properties": {
        "title": "E Prater Way and Lyyski Street",
        "tag": "576",
        "stopId": "0576"
      },
      "geometry": {
        "type": "Point",
        "coordinates": [
          -119.7418,
          39.54185
        ]
      }
    },
    {
      "type": "Feature",
      "properties": {
        "title": "E Prater Way and E I Street",
        "tag": "577",
        "stopId": "0577"
      },
      "geometry": {
        "type": "Point",
        "coordinates": [
          -119.73705,
          39.5417999
        ]
      }
    },
    {
      "type": "Feature",
      "properties": {
        "title": "E Prater Way and Marina Gateway Drive",
        "tag": "579",
        "stopId": "0579"
      },
      "geometry": {
        "type": "Point",
        "coordinates": [
          -119.72198,
          39.54184
        ]
      }
    },
    {
      "type": "Feature",
      "properties": {
        "title": "E Prater Way and Pullman Drive",
        "tag": "580",
        "stopId": "0580"
      },
      "geometry": {
        "type": "Point",
        "coordinates": [
          -119.7178999,
          39.54188
        ]
      }
    },
    {
      "type": "Feature",
      "properties": {
        "title": "Northern Nevada Medical Center",
        "tag": "588",
        "stopId": "0588"
      },
      "geometry": {
        "type": "Point",
        "coordinates": [
          -119.69789,
          39.5410599
        ]
      }
    },
    {
      "type": "Feature",
      "properties": {
        "title": "E Prater Way and Feeder Street",
        "tag": "589",
        "stopId": "0589"
      },
      "geometry": {
        "type": "Point",
        "coordinates": [
          -119.70695,
          39.5420099
        ]
      }
    },
    {
      "type": "Feature",
      "properties": {
        "title": "E Prater Way and Lillard Drive",
        "tag": "590",
        "stopId": "0590"
      },