{
  "type": "FeatureCollection",
  "features": [
    {
      "type": "Feature",
      "properties": {
        "title": "Oxnard Transit Center",
        "tag": "otc_d",
        "stopId": "32200"
      },
      "geometry": {
        "type": "Point",
        "coordinates": [
          -119.17654,
          34.199352
        ]
      }
    },
    {
      "type": "Feature",
      "properties": {
        "title": "B St at Fourth",
        "tag": "bfour_ph",
        "stopId": "35001"
      },
      "geometry": {
        "type": "Point",
        "coordinates": [
          -119.1795822,
          34.19902
        ]
      }
    },
    {
      "type": "Feature",
      "properties": {
        "title": "C St at Fourth",
        "tag": "cfour",
        "stopId": "32201"
      },
      "geometry": {
        "type": "Point",
        "coordinates": [
          -119.18117,
          34.198599
        ]
      }
    },
    {
      "type": "Feature",
      "properties": {
        "title": "C St at Sixth",
        "tag": "csixt",
        "stopId": "32202"
      },
      "geometry": {
        "type": "Point",
        "coordinates": [
          -119.18119,
          34.1961114
        ]
      }
    },
    {
      "type": "Feature",
      "properties": {
        "title": "C St at Eighth",
        "tag": "ceigh",
        "stopId": "32203"
      },
      "geometry": {
        "type": "Point",
        "coordinates": [
          -119.18121,
          34.19397
        ]
      }
    },
    {
      "type": "Feature",
      "properties": {
        "title": "C St at Ninth",
        "tag": "cnint_ph",
        "stopId": "32204"
      },
      "geometry": {
        "type": "Point",
        "coordinates": [
          -119.1812217,
          34.1921992
        ]
      }
    },
    {
      "type": "Feature",
      "properties": {
        "title": "C St at Wooley",
        "tag": "cwool_ph",
        "stopId": "32205"
      },
      "geometry": {
        "type": "Point",
        "coordinates": [
          -119.1812703,
          34.189419
        ]
      }
    },
    {
      "type": "Feature",
      "properties": {
        "title": "C St at Hill",
        "tag": "chill_ph",
        "stopId": "32206"
      },
      "geometry": {
        "type": "Point",
        "coordinates": [
          -119.18131,
          34.1863452
        ]
      }
    },
    {
      "type": "Feature",
      "properties": {
        "title": "C St at Fir",
        "tag": "cfir",
        "stopId": "32208"
      },
      "geometry": {
        "type": "Point",
        "coordinates": [
          -119.1813412,
          34.1824823
        ]
      }
    },
    {
      "type": "Feature",
      "properties": {
        "title": "C St at Hemlock",
        "tag": "cheml_ph",
        "stopId": "32209"
      },
      "geometry": {
        "type": "Point",
        "coordinates": [
          -119.18136,
          34.1808339
        ]
      }
    },
    {
      "type": "Feature",
      "properties": {
        "title": "C St at Kamala",
        "tag": "ckama",
        "stopId": "32210"
      },
      "geometry": {
        "type": "Point",
        "coordinates": [
          -119.1813913,
          34.1784654
        ]
      }
    },
    {
      "type": "Feature",
      "properties": {
        "title": "C St Terminal",
        "tag": "cterm",
        "stopId": "32211"
      },
      "geometry": {
        "type": "Point",
        "coordinates": [
          -119.1812938,
          34.1758071
        ]
      }
    },
    {
      "type": "Feature",
      "properties": {
        "title": "Saviers Rd at Channel Islands",
        "tag": "savichan",
        "stopId": "32212"
      },
      "geometry": {
        "type": "Point",
        "coordinates": [
          -119.17767,
          34.1727418
        ]
      }
    },
    {
      "type": "Feature",
      "properties": {
        "title": "Saviers Rd at Bryce Canyon",
        "tag": "savibryc",
        "stopId": "32213"
      },
      "geometry": {
        "type": "Point",
        "coordinates": [
          -119.17771,
          34.1695111
        ]
      }
    },
    {
      "type": "Feature",
      "properties": {
        "title": "Saviers Rd at Yucca",
        "tag": "saviyucc_ph",
        "stopId": "32214"
      },
      "geometry": {
        "type": "Point",
        "coordinates": [
          -119.1777699,
          34.1661006
        ]
      }
    },
    {
      "type": "Feature",
      "properties": {
        "title": "Saviers Rd at Bard",
        "tag": "savibard_ph",
        "stopId": "32215"
      },
      "geometry": {
        "type": "Point",
        "coordinates": [
          -119.17782,
          34.1605976
        ]
      }
    },
    {
      "type": "Feature",
      "properties": {
        "title": "Saviers Rd at Pleasant Valley",
        "tag": "savipleas",
        "stopId": "32216"
      },
      "geometry": {
        "type": "Point",
        "coordinates": [
          -119.1778799,
          34.15506
        ]
      }
    },
    {
      "type": "Feature",
      "properties": {
        "title": "Pleasant Valley Rd at C",
        "tag": "pleac",
        "stopId": "32217"
      },
      "geometry": {
        "type": "Point",
        "coordinates": [
          -119.1816099,
          34.1547899
        ]
      }
    },
    {
      "type": "Feature",
      "properties": {
        "title": "Perkins Rd at Pleasant Valley",
        "tag": "perkplea",
        "stopId": "32218"
      },
      "geometry": {
        "type": "Point",
        "coordinates": [
          -119.18388,
          34.1544481
        ]
      }
    },
    {
      "type": "Feature",
      "properties": {
        "title": "Perkins Rd at Clara",
        "tag": "perkclar",
        "stopId": "32219"
      },
      "geometry": {
        "type": "Point",
        "coordinates": [
          -119.1839199,
          34.1512525
        ]
      }
    },
    {
      "type": "Feature",
      "properties": {
        "title": "Perkins Rd at Hueneme",
        "tag": "perkhuen",
        "stopId": "32220"
      },
      "geometry": {
        "type": "Point",
        "coordinates": [
          -119.1839301,
          34.147769
        ]
      }
    },
    {
      "type": "Feature",
      "properties": {
        "title": "Hueneme Rd at J",
        "tag": "huenj",
        "stopId": "32221"
      },
      "geometry": {
        "type": "Point",
        "coordinates": [
          -119.1857277,
          34.1475799
        ]
      }
    },
    {
      "type": "Feature",
      "properties": {
        "title": "Hueneme Rd at Ann",
        "tag": "huenann",
        "stopId": "32222"
      },
      "geometry": {
        "type": "Point",
        "coordinates": [
          -119.1882231,
          34.1476
        ]
      }
    },
    {
      "type": "Feature",
      "properties": {
        "title": "Surfside Dr at Hueneme",
        "tag": "surfhuen",
        "stopId": "32223"
      },
      "geometry": {
        "type": "Point",
        "coordinates": [
          -119.1903298,
          34.1470765
        ]
      }
    },
    {
      "type": "Feature",
      "properties": {
        "title": "Surfside Dr at Industrial",
        "tag": "surfindu",
        "stopId": "32224"
      },
      "geometry": {
        "type": "Point",
        "coordinates": [
          -119.1903792,
          34.1435894
        ]
      }
    },
    {
      "type": "Feature",
      "properties": {
        "title": "575 S. Surfside Dr - Cultural Center",
        "tag": "surf575",
        "stopId": "32225"
      },
      "geometry": {
        "type": "Point",
        "coordinates": [
          -119.1922949,
          34.1428185
        ]
      }
    },
    {
      "type": "Feature",
      "properties": {
        "title": "Surfside Dr at Ventura",
        "tag": "surfvent",
        "stopId": "32226"
      },
      "geometry": {
        "type": "Point",
        "coordinates": [
          -119.1949704,
          34.1436831
        ]
      }
    },
    {
      "type": "Feature",
      "properties": {
        "title": "Ventura Rd at Seaview",
        "tag": "ventseav",
        "stopId": "32227"
      },
      "geometry": {
        "type": "Point",
        "coordinates": [
          -119.19542,
          34.1452657
        ]
      }
    },
    {
      "type": "Feature",
      "properties": {
        "title": "Hueneme Rd at Ventura",
        "tag": "huenvent_d",
        "stopId": "32300"
      },
      "geometry": {
        "type": "Point",
        "coordinates": [
          -119.1959716,
          34.14781
        ]
      }
    },
    {
      "type": "Feature",
      "properties": {
        "title": "Hueneme Rd at Market",
        "tag": "huenmark",
        "stopId": "32301"
      },
      "geometry": {
        "type": "Point",
        "coordinates": [
          -119.1988424,
          34.1478199
        ]
      }
    },
    {
      "type": "Feature",
      "properties": {
        "title": "Scott St at Pomona",
        "tag": "scotseco",
        "stopId": "32302"
      },
      "geometry": {
        "type": "Point",
        "coordinates": [
          -119.1990783,
          34.1491004
        ]
      }
    },
    {
      "type": "Feature",
      "properties": {
        "title": "Ponoma St at Clara",
        "tag": "ponoclar",
        "stopId": "32303"
      },
      "geometry": {
        "type": "Point",
        "coordinates": [
          -119.1999699,
          34.1514337
        ]
      }
    },
    {
      "type": "Feature",
      "properties": {
        "title": "Ponoma St at B",
        "tag": "ponob",
        "stopId": "32304"
      },
      "geometry": {
        "type": "Point",
        "coordinates": [
          -119.1999604,
          34.1533618
        ]
      }
    },
    {
      "type": "Feature",
      "properties": {
        "title": "Pomona St at Pleasant Valley",
        "tag": "pleapono",
        "stopId": "32305"
      },
      "geometry": {
        "type": "Point",
        "coordinates": [
          -119.1993899,
          34.1547997
        ]
      }
    },
    {
      "type": "Feature",
      "properties": {
        "title": "Pleasant Valley Rd at Third",
        "tag": "pleathir",
        "stopId": "32306"
      },
      "geometry": {
        "type": "Point",
        "coordinates": [
          -119.1966707,
          34.1548
        ]
      }
    },
    {
      "type": "Feature",
      "properties": {
        "title": "Ventura Rd at Pleasant Valley - City Library",
        "tag": "ventpleas1",
        "stopId": "32307"
      },
      "geometry": {
        "type": "Point",
        "coordinates": [
          -119.19511,
          34.1561684
        ]
      }
    },
    {
      "type": "Feature",
      "properties": {
        "title": "Ventura Rd at Bard",
        "tag": "ventbard",
        "stopId": "32308"
      },
      "geometry": {
        "type": "Point",
        "coordinates": [
          -119.19508,
          34.1608621
        ]
      }
    },
    {
      "type": "Feature",
      "properties": {
        "title": "Bard at Park",
        "tag": "bardpark",
        "stopId": "32309"
      },
      "geometry": {
        "type": "Point",
        "coordinates": [
          -119.1883575,
          34.16101
        ]
      }
    },
    {
      "type": "Feature",
      "properties": {
        "title": "Bard Rd at J",
        "tag": "bardk",
        "stopId": "32310"
      },
      "geometry": {
        "type": "Point",
        "coordinates": [
          -119.1851697,
          34.1610099
        ]
      }
    },
    {
      "type": "Feature",
      "properties": {
        "title": "Bard Rd at C",
        "tag": "bardc",
        "stopId": "32311"
      },
      "geometry": {
        "type": "Point",
        "coordinates": [
          -119.1807073,
          34.1609702
        ]
      }
    },
    {
      "type": "Feature",
      "properties": {
        "title": "Saviers Rd at Bard",
        "tag": "savibard_otc",
        "stopId": "32215"
      },
      "geometry": {
        "type": "Point",
        "coordinates": [
          -119.17758,
          34.1613999
        ]
      }
    },
    {
      "type": "Feature",
      "properties": {
        "title": "Saviers Rd at Imperial Mobile Home Park",
        "tag": "saviimpe",
        "stopId": "32312"
      },
      "geometry": {
        "type": "Point",
        "coordinates": [
          -119.1775693,
          34.1642697
        ]
      }
    },
    {
      "type": "Feature",
      "properties": {
        "title": "Saviers Rd at Yucca",
        "tag": "saviyucc_otc",
        "stopId": "32214"
      },
      "geometry": {
        "type": "Point",
        "coordinates": [
          -119.17753,
          34.1663124
        ]
      }
    },
    {
      "type": "Feature",
      "properties": {
        "title": "Saviers Rd at 31 Flavors",
        "tag": "savi31f",
        "stopId": "32313"
      },
      "geometry": {
        "type": "Point",
        "coordinates": [
          -119.1774901,
          34.1679649
        ]
      }
    },
    {
      "type": "Feature",
      "properties": {
        "title": "Saviers Rd at Thomas - Bryce Canyon",
        "tag": "savithom",
        "stopId": "32314"
      },
      "geometry": {
        "type": "Point",
        "coordinates": [
          -119.17751,
          34.1700355
        ]
      }
    },
    {
      "type": "Feature",
      "properties": {
        "title": "Channel Islands Boulevard at C Street",
        "tag": "chanc",
        "stopId": "36001"
      },
      "geometry": {
        "type": "Point",
        "coordinates": [
          -119.1796434,
          34.1736002
        ]
      }
    },
    {
      "type": "Feature",
      "properties": {
        "title": "C Street Transfer Center",
        "tag": "ctrans",
        "stopId": "32315"
      },
      "geometry": {
        "type": "Point",
        "coordinates": [
          -119.1811885,
          34.1754378
        ]
      }
    },
    {
      "type": "Feature",
      "properties": {
        "title": "C St at Hemlock",
        "tag": "cheml_otc",
        "stopId": "32209"
      },
      "geometry": {
        "type": "Point",
        "coordinates": [
          -119.1812417,
          34.1811997
        ]
      }
    },
    {
      "type": "Feature",
      "properties": {
        "title": "C St at Elm",
        "tag": "celm",
        "stopId": "32316"
      },
      "geometry": {
        "type": "Point",
        "coordinates": [
          -119.1812047,
          34.1838327
        ]
      }
    },
    {
      "type": "Feature",
      "properties": {
        "title": "C St at Hill",
        "tag": "chill_otc",
        "stopId": "32206"
      },
      "geometry": {
        "type": "Point",
        "coordinates": [
          -119.1811994,
          34.1868261
        ]
      }
    },
    {
      "type": "Feature",
      "properties": {
        "title": "C St at Wooley",
        "tag": "cwool_otc",
        "stopId": "32205"
      },
      "geometry": {
        "type": "Point",
        "coordinates": [
          -119.1811497,
          34.1904377
        ]
      }
    },
    {
      "type": "Feature",
      "properties": {
        "title": "C St at Ninth",
        "tag": "cnint_otc",
        "stopId": "32204"
      },
      "geometry": {
        "type": "Point",
        "coordinates": [
          -119.18112,
          34.1923211
        ]
      }
    },
    {
      "type": "Feature",
      "properties": {
        "title": "C St at Seventh",
        "tag": "cseve",
        "stopId": "32317"
      },
      "geometry": {
        "type": "Point",
        "coordinates": [
          -119.1810897,
          34.19487
        ]
      }
    },
    {
      "type": "Feature",
      "properties": {
        "title": "C St at Fifth - Plaza Park",
        "tag": "cfift",
        "stopId": "32318"
      },
      "geometry": {
        "type": "Point",
        "coordinates": [
          -119.18104,
          34.1979803
        ]
      }
    },
    {
      "type": "Feature",
      "properties": {
        "title": "B St at Fourth",
        "tag": "bfour_otc",
        "stopId": "35000"
      },
      "geometry": {
        "type": "Point",
        "coordinates": [
          -119.179517,
          34.19897
        ]
      }
    },
    {
      "type": "Feature",
      "properties": {
        "title": "C St at Fourth",
        "tag": "cfourt",
        "stopId": "32400"
      },
      "geometry": {
        "type": "Point",
        "coordinates": [
          -119.18117,
          34.198599
        ]
      }
    },
    {
      "type": "Feature",
      "properties": {
        "title": "C Street Transfer Center",
        "tag": "ctrans_ph",
        "stopId": "32315"
      },
      "geometry": {
        "type": "Point",
        "coordinates": [
          -119.1812938,
          34.1758071
        ]
      }
    },
    {
      "type": "Feature",
      "properties": {
        "title": "Bard at Saviers",
        "tag": "bardsavi_ph",
        "stopId": "32335"
      },
      "geometry": {
        "type": "Point",
        "coordinates": [
          -119.17817,
          34.16107
        ]
      }
    },
    {
      "type": "Feature",
      "properties": {
        "title": "Bard at J",
        "tag": "bardj",
        "stopId": "32401"
      },
      "geometry": {
        "type": "Point",
        "coordinates": [
          -119.1862877,
          34.16113
        ]
      }
    },
    {
      "type": "Feature",
      "properties": {
        "title": "Bard at Sixth",
        "tag": "bardsixt",
        "stopId": "32402"
      },
      "geometry": {
        "type": "Point",
        "coordinates": [
          -119.1913825,
          34.16111
        ]
      }
    },
    {
      "type": "Feature",
      "properties": {
        "title": "Bard at Fifth",
        "tag": "bardfift",
        "stopId": "32403"
      },
      "geometry": {
        "type": "Point",
        "coordinates": [
          -119.1943612,
          34.16115
        ]
      }
    },
    {
      "type": "Feature",
      "properties": {
        "title": "Pleasant Valley at Ventura Rd",
        "tag": "bardplea",
        "stopId": "32404"
      },
      "geometry": {
        "type": "Point",
        "coordinates": [
          -119.1959659,
          34.1548701
        ]
      }
    },
    {
      "type": "Feature",
      "properties": {
        "title": "Ventura Rd at Railroad",
        "tag": "ventrail",
        "stopId": "32500"
      },
      "geometry": {
        "type": "Point",
        "coordinates": [
          -119.19562,
          34.1451967
        ]
      }
    },
    {
      "type": "Feature",
      "properties": {
        "title": "Surfside Dr at Cultural Center",
        "tag": "surfbeac",
        "stopId": "32501"
      },
      "geometry": {
        "type": "Point",
        "coordinates": [
          -119.1926591,
          34.1428495
        ]
      }
    },
    {
      "type": "Feature",
      "properties": {
        "title": "Surfside Dr at Industrial",
        "tag": "surgindu",
        "stopId": "32502"
      },
      "geometry": {
        "type": "Point",
        "coordinates": [
          -119.1902395,
          34.1435223
        ]
      }
    },
    {
      "type": "Feature",
      "properties": {
        "title": "Perkins at Hueneme Rd",
        "tag": "huenperk",
        "stopId": "32503"
      },
      "geometry": {
        "type": "Point",
        "coordinates": [
          -119.18384,
          34.1477615
        ]
      }
    },
    {
      "type": "Feature",
      "properties": {
        "title": "Perkins Rd at Pleasant Valley",
        "tag": "perkpleas",
        "stopId": "32504"
      },
      "geometry": {
        "type": "Point",
        "coordinates": [
          -119.1837898,
          34.1544719
        ]
      }
    },
    {
      "type": "Feature",
      "properties": {
        "title": "Saviers Rd at Pleasant Valley",
        "tag": "saviplea",
        "stopId": "32505"
      },
      "geometry": {
        "type": "Point",
        "coordinates": [
          -119.1776601,
          34.1553218
        ]
      }
    },
    {
      "type": "Feature",
      "properties": {
        "title": "Saviers Rd at Fashion Park",
        "tag": "savifash",
        "stopId": "32506"
      },
      "geometry": {
        "type": "Point",
        "coordinates": [
          -119.1776096,
          34.1589848
        ]
      }
    },
    {
      "type": "Feature",
      "properties": {
        "title": "Saviers Rd at Bard",
        "tag": "savibard",
        "stopId": "32215"
      },
      "geometry": {
        "type": "Point",
        "coordinates": [
          -119.17758,
          34.1613999
        ]
      }
    },
    {
      "type": "Feature",
      "properties": {
        "title": "C Street Transfer Center",
        "tag": "ctrans_otc",
        "stopId": "32315"
      },
      "geometry": {
        "type": "Point",
        "coordinates": [
          -119.1811885,
          34.1754378
        ]
      }
    },
    {
      "type": "Feature",
      "properties": {
        "title": "Oxnard Transit Center",
        "tag": "12oxnar",
        "stopId": "31100"
      },
      "geometry": {
        "type": "Point",
        "coordinates": [
          -119.17673,
          34.1995895
        ]
      }
    },
    {
      "type": "Feature",
      "properties": {
        "title": "Third St at B - City Hall",
        "tag": "178third",
        "stopId": "32600"
      },
      "geometry": {
        "type": "Point",
        "coordinates": [
          -119.1794971,
          34.2003868
        ]
      }
    },
    {
      "type": "Feature",
      "properties": {
        "title": "Garfield Ave at Second",
        "tag": "196garfi",
        "stopId": "32601"
      },
      "geometry": {
        "type": "Point",
        "coordinates": [
          -119.1738101,
          34.2014947
        ]
      }
    },
    {
      "type": "Feature",
      "properties": {
        "title": "Garfield Ave at Cooper",
        "tag": "197garfi",
        "stopId": "32602"
      },
      "geometry": {
        "type": "Point",
        "coordinates": [
          -119.17378,
          34.2044
        ]
      }
    },
    {
      "type": "Feature",
      "properties": {
        "title": "Colonia Rd at Mckinley",
        "tag": "179colon",
        "stopId": "32604"
      },
      "geometry": {
        "type": "Point",
        "coordinates": [
          -119.1714169,
          34.206372
        ]
      }
    },
    {
      "type": "Feature",
      "properties": {
        "title": "Colonia Rd at Juanita",
        "tag": "180colon",
        "stopId": "32605"
      },
      "geometry": {
        "type": "Point",
        "coordinates": [
          -119.1680483,
          34.2063599
        ]
      }
    },
    {
      "type": "Feature",
      "properties": {
        "title": "Colonia Rd at Marquita",
        "tag": "181colon",
        "stopId": "32606"
      },
      "geometry": {
        "type": "Point",
        "coordinates": [
          -119.1658482,
          34.2063599
        ]
      }
    },
    {
      "type": "Feature",
      "properties": {
        "title": "Multi Service Center - Fire Station",
        "tag": "182multi",
        "stopId": "32607"
      },
      "geometry": {
        "type": "Point",
        "coordinates": [
          -119.1626084,
          34.2067497
        ]
      }
    },
    {
      "type": "Feature",
      "properties": {
        "title": "Rose Ave at Camino Del Sol",
        "tag": "111rosea",
        "stopId": "31703"
      },
      "geometry": {
        "type": "Point",
        "coordinates": [
          -119.1598147,
          34.2059005
        ]
      }
    },
    {
      "type": "Feature",
      "properties": {
        "title": "San Gorgonio St at Rose",
        "tag": "183sango",
        "stopId": "32608"
      },
      "geometry": {
        "type": "Point",
        "coordinates": [
          -119.1590815,
          34.2047875
        ]
      }
    },
    {
      "type": "Feature",
      "properties": {
        "title": "San Gorgonio St at Driskill",
        "tag": "184sango",
        "stopId": "32609"
      },
      "geometry": {
        "type": "Point",
        "coordinates": [
          -119.1564993,
          34.20481
        ]
      }
    },
    {
      "type": "Feature",
      "properties": {
        "title": "San Gorgonio St at Gibraltar",
        "tag": "185sango",
        "stopId": "32610"
      },
      "geometry": {
        "type": "Point",
        "coordinates": [
          -119.1544791,
          34.20481
        ]
      }
    },
    {
      "type": "Feature",
      "properties": {
        "title": "Gibralter St at Santa Lucia",
        "tag": "186gibra",
        "stopId": "32700"
      },
      "geometry": {
        "type": "Point",
        "coordinates": [
          -119.15423,
          34.2023154
        ]
      }
    },
    {
      "type": "Feature",
      "properties": {
        "title": "Santa Lucia Ave at Driskill",
        "tag": "187santa",
        "stopId": "32701"
      },
      "geometry": {
        "type": "Point",
        "coordinates": [
          -119.1568317,
          34.2020722
        ]
      }
    },
    {
      "type": "Feature",
      "properties": {
        "title": "Santa Lucia Ave at Rose",
        "tag": "199santa",
        "stopId": "32702"
      },
      "geometry": {
        "type": "Point",
        "coordinates": [
          -119.1594199,
          34.20203
        ]
      }
    },
    {
      "type": "Feature",
      "properties": {
        "title": "First St at Carmelita",
        "tag": "189first",
        "stopId": "32704"
      },
      "geometry": {
        "type": "Point",
        "coordinates": [
          -119.1632984,
          34.20266
        ]
      }
    },
    {
      "type": "Feature",
      "properties": {
        "title": "First St at Marquita",
        "tag": "190first",
        "stopId": "32705"
      },
      "geometry": {
        "type": "Point",
        "coordinates": [
          -119.1661179,
          34.2026562
        ]
      }
    },
    {
      "type": "Feature",
      "properties": {
        "title": "First St at Juanita",
        "tag": "191first",
        "stopId": "32706"
      },
      "geometry": {
        "type": "Point",
        "coordinates": [
          -119.1681792,
          34.2026404
        ]
      }
    },
    {
      "type": "Feature",
      "properties": {
        "title": "First St at Bonita",
        "tag": "192first",
        "stopId": "32707"
      },
      "geometry": {
        "type": "Point",
        "coordinates": [
          -119.1702793,
          34.2028963
        ]
      }
    },
    {
      "type": "Feature",
      "properties": {
        "title": "First St at Roosevelt",
        "tag": "193first",
        "stopId": "32708"
      },
      "geometry": {
        "type": "Point",
        "coordinates": [
          -119.1723707,
          34.2029102
        ]
      }
    },
    {
      "type": "Feature",
      "properties": {
        "title": "Garfield Ave at First",
        "tag": "194garfi",
        "stopId": "32709"
      },
      "geometry": {
        "type": "Point",
        "coordinates": [
          -119.1738333,
          34.2025304
        ]
      }
    },
    {
      "type": "Feature",
      "properties": {
        "title": "Garfield Ave at Third",
        "tag": "195garfi",
        "stopId": "32710"
      },
      "geometry": {
        "type": "Point",
        "coordinates": [
          -119.1738494,
          34.2006704
        ]
      }
    },
    {
      "type": "Feature",
      "properties": {
        "title": "Third St at A - City Hall And Library",
        "tag": "151third",
        "stopId": "31708"
      },
      "geometry": {
        "type": "Point",
        "coordinates": [
          -119.1791498,
          34.2004231
        ]
      }
    },
    {
      "type": "Feature",
      "properties": {
        "title": "B St at Fourth",
        "tag": "bfour_s",
        "stopId": "35000"
      },
      "geometry": {
        "type": "Point",
        "coordinates": [
          -119.1795194,
          34.1989887
        ]
      }
    },
    {
      "type": "Feature",
      "properties": {
        "title": "C St Terminal - Center Point Mall",
        "tag": "1cstte",
        "stopId": "32900"
      },
      "geometry": {
        "type": "Point",
        "coordinates": [
          -119.1813192,
          34.1757847
        ]
      }
    },
    {
      "type": "Feature",
      "properties": {
        "title": "C St at Channel Islands",
        "tag": "156cstat",
        "stopId": "32901"
      },
      "geometry": {
        "type": "Point",
        "coordinates": [
          -119.1812174,
          34.1732223
        ]
      }
    },
    {
      "type": "Feature",
      "properties": {
        "title": "C St at Teakwood",
        "tag": "157cstat",
        "stopId": "32902"
      },
      "geometry": {
        "type": "Point",
        "coordinates": [
          -119.1812553,
          34.1708538
        ]
      }
    },
    {
      "type": "Feature",
      "properties": {
        "title": "Teakwood St at J",
        "tag": "158teakw",
        "stopId": "32903"
      },
      "geometry": {
        "type": "Point",
        "coordinates": [
          -119.1855684,
          34.17061
        ]
      }
    },
    {
      "type": "Feature",
      "properties": {
        "title": "Teakwood St at K",
        "tag": "159teakw",
        "stopId": "32904"
      },
      "geometry": {
        "type": "Point",
        "coordinates": [
          -119.1884286,
          34.17061
        ]
      }
    },
    {
      "type": "Feature",
      "properties": {
        "title": "Teakwood St at M",
        "tag": "160teakw",
        "stopId": "32905"
      },
      "geometry": {
        "type": "Point",
        "coordinates": [
          -119.1915787,
          34.17061
        ]
      }
    },
    {
      "type": "Feature",
      "properties": {
        "title": "Teakwood St at Ventura",
        "tag": "161teakw",
        "stopId": "32906"
      },
      "geometry": {
        "type": "Point",
        "coordinates": [
          -119.1950795,
          34.1706689
        ]
      }
    },
    {
      "type": "Feature",
      "properties": {
        "title": "Ventura Rd at Spruce",
        "tag": "162ventu",
        "stopId": "32907"
      },
      "geometry": {
        "type": "Point",
        "coordinates": [
          -119.1950081,
          34.1732756
        ]
      }
    },
    {
      "type": "Feature",
      "properties": {
        "title": "Channel Islands Boulevard at Ventura Road",
        "tag": "163chann",
        "stopId": "32908"
      },
      "geometry": {
        "type": "Point",
        "coordinates": [
          -119.194801,
          34.1754188
        ]
      }
    },
    {
      "type": "Feature",
      "properties": {
        "title": "Channel Islands Boulvard at Lassen",
        "tag": "164chann",
        "stopId": "32909"
      },
      "geometry": {
        "type": "Point",
        "coordinates": [
          -119.1903294,
          34.1754839
        ]
      }
    },
    {
      "type": "Feature",
      "properties": {
        "title": "Channel Islands Boulvard at J Street",
        "tag": "165jstat",
        "stopId": "32910"
      },
      "geometry": {
        "type": "Point",
        "coordinates": [
          -119.1862302,
          34.1754499
        ]
      }
    },
    {
      "type": "Feature",
      "properties": {
        "title": "C St Terminal - Center Point Mall",
        "tag": "1cstte_2",
        "stopId": "32911"
      },
      "geometry": {
        "type": "Point",
        "coordinates": [
          -119.181209,
          34.1757908
        ]
      }
    },
    {
      "type": "Feature",
      "properties": {
        "title": "J St at Kamala",
        "tag": "166jstat_otc",
        "stopId": "32912"
      },
      "geometry": {
        "type": "Point",
        "coordinates": [
          -119.1862579,
          34.1789527
        ]
      }
    },
    {
      "type": "Feature",
      "properties": {
        "title": "J St at G (Hemlock)",
        "tag": "176jstat",
        "stopId": "32913"
      },
      "geometry": {
        "type": "Point",
        "coordinates": [
          -119.1872605,
          34.1817807
        ]
      }
    },
    {
      "type": "Feature",
      "properties": {
        "title": "J St at Fir",
        "tag": "168jstat",
        "stopId": "32914"
      },
      "geometry": {
        "type": "Point",
        "coordinates": [
          -119.1885592,
          34.1830219
        ]
      }
    },
    {
      "type": "Feature",
      "properties": {
        "title": "J St at Hill",
        "tag": "169jstat_otc",
        "stopId": "32915"
      },
      "geometry": {
        "type": "Point",
        "coordinates": [
          -119.1894502,
          34.1861848
        ]
      }
    },
    {
      "type": "Feature",
      "properties": {
        "title": "Hobson Way at Wooley",
        "tag": "170hobso_otc",
        "stopId": "31508"
      },
      "geometry": {
        "type": "Point",
        "coordinates": [
          -119.18949,
          34.1905465
        ]
      }
    },
    {
      "type": "Feature",
      "properties": {
        "title": "Hobson Way at Community Center",
        "tag": "171hobso",
        "stopId": "31411"
      },
      "geometry": {
        "type": "Point",
        "coordinates": [
          -119.1891185,
          34.1938854
        ]
      }
    },
    {
      "type": "Feature",
      "properties": {
        "title": "Hobson Way at Seventh",
        "tag": "172hobso_otc",
        "stopId": "31412"
      },
      "geometry": {
        "type": "Point",
        "coordinates": [
          -119.1881419,
          34.1956668
        ]
      }
    },
    {
      "type": "Feature",
      "properties": {
        "title": "Hobson Way at Fifth - Oxnard High School",
        "tag": "173hobso",
        "stopId": "32916"
      },
      "geometry": {
        "type": "Point",
        "coordinates": [
          -119.1878953,
          34.1975565
        ]
      }
    },
    {
      "type": "Feature",
      "properties": {
        "title": "Fifth St at F",
        "tag": "81fifth_otc",
        "stopId": "31603"
      },
      "geometry": {
        "type": "Point",
        "coordinates": [
          -119.1849919,
          34.1976834
        ]
      }
    },
    {
      "type": "Feature",
      "properties": {
        "title": "C St at Fifth - Plaza Park",
        "tag": "90cstat",
        "stopId": "31604"
      },
      "geometry": {
        "type": "Point",
        "coordinates": [
          -119.1810561,
          34.1978214
        ]
      }
    },
    {
      "type": "Feature",
      "properties": {
        "title": "Hobson Way at Fifth",
        "tag": "174hobso",
        "stopId": "31413"
      },
      "geometry": {
        "type": "Point",
        "coordinates": [
          -119.1879504,
          34.1974536
        ]
      }
    },
    {
      "type": "Feature",
      "properties": {
        "title": "Hobson Way at Seventh",
        "tag": "172hobso",
        "stopId": "31412"
      },
      "geometry": {
        "type": "Point",
        "coordinates": [
          -119.188792,
          34.1947469
        ]
      }
    },
    {
      "type": "Feature",
      "properties": {
        "title": "Hobson Way at Wooley",
        "tag": "170hobso",
        "stopId": "31508"
      },
      "geometry": {
        "type": "Point",
        "coordinates": [
          -119.18955,
          34.1904439
        ]
      }
    },
    {
      "type": "Feature",
      "properties": {
        "title": "J St at Hill",
        "tag": "169jstat",
        "stopId": "32915"
      },
      "geometry": {
        "type": "Point",
        "coordinates": [
          -119.189513,
          34.186157
        ]
      }
    },
    {
      "type": "Feature",
      "properties": {
        "title": "J St at Mckinna School",
        "tag": "175jstat",
        "stopId": "33000"
      },
      "geometry": {
        "type": "Point",
        "coordinates": [
          -119.1892011,
          34.1840601
        ]
      }
    },
    {
      "type": "Feature",
      "properties": {
        "title": "J St at Hemlock (G St)",
        "tag": "167jstat",
        "stopId": "33001"
      },
      "geometry": {
        "type": "Point",
        "coordinates": [
          -119.1874206,
          34.1818106
        ]
      }
    },
    {
      "type": "Feature",
      "properties": {
        "title": "J St at Kamala",
        "tag": "166jstat",
        "stopId": "32912"
      },
      "geometry": {
        "type": "Point",
        "coordinates": [
          -119.1863247,
          34.1792749
        ]
      }
    },
    {
      "type": "Feature",
      "properties": {
        "title": "C St at Kamala",
        "tag": "177cstat",
        "stopId": "31307"
      },
      "geometry": {
        "type": "Point",
        "coordinates": [
          -119.1813932,
          34.1784622
        ]
      }
    },
    {
      "type": "Feature",
      "properties": {
        "title": "Fourth St at D - Catholic Middle School",
        "tag": "137fourt",
        "stopId": "31605"
      },
      "geometry": {
        "type": "Point",
        "coordinates": [
          -119.1833238,
          34.1990927
        ]
      }
    },
    {
      "type": "Feature",
      "properties": {
        "title": "Fourth St at F",
        "tag": "138fourt",
        "stopId": "31606"
      },
      "geometry": {
        "type": "Point",
        "coordinates": [
          -119.1851679,
          34.1992212
        ]
      }
    },
    {
      "type": "Feature",
      "properties": {
        "title": "F St at Second",
        "tag": "139fstat",
        "stopId": "31607"
      },
      "geometry": {
        "type": "Point",
        "coordinates": [
          -119.1851167,
          34.2017217
        ]
      }
    },
    {
      "type": "Feature",
      "properties": {
        "title": "F St at Beverly - Old St John's Hospital",
        "tag": "141fstat",
        "stopId": "31609"
      },
      "geometry": {
        "type": "Point",
        "coordinates": [
          -119.185046,
          34.206862
        ]
      }
    },
    {
      "type": "Feature",
      "properties": {
        "title": "Doris Ave at F",
        "tag": "142doris",
        "stopId": "31104"
      },
      "geometry": {
        "type": "Point",
        "coordinates": [
          -119.18569,
          34.2079499
        ]
      }
    },
    {
      "type": "Feature",
      "properties": {
        "title": "Doris Ave at H",
        "tag": "143doris",
        "stopId": "31105"
      },
      "geometry": {
        "type": "Point",
        "coordinates": [
          -119.1881526,
          34.2079789
        ]
      }
    },
    {
      "type": "Feature",
      "properties": {
        "title": "Doris Ave at M",
        "tag": "144doris",
        "stopId": "31106"
      },
      "geometry": {
        "type": "Point",
        "coordinates": [
          -119.1922331,
          34.2080202
        ]
      }
    },
    {
      "type": "Feature",
      "properties": {
        "title": "M St at Devonshire",
        "tag": "129mstat",
        "stopId": "31610"
      },
      "geometry": {
        "type": "Point",
        "coordinates": [
          -119.19228,
          34.2118271
        ]
      }
    },
    {
      "type": "Feature",
      "properties": {
        "title": "M St at Glenwood",
        "tag": "145mstat",
        "stopId": "31611"
      },
      "geometry": {
        "type": "Point",
        "coordinates": [
          -119.19228,
          34.2139272
        ]
      }
    },
    {
      "type": "Feature",
      "properties": {
        "title": "M St at Ivywood",
        "tag": "128mstat",
        "stopId": "31612"
      },
      "geometry": {
        "type": "Point",
        "coordinates": [
          -119.19228,
          34.2153773
        ]
      }
    },
    {
      "type": "Feature",
      "properties": {
        "title": "Ivywood Dr at Ventura",
        "tag": "127ivywo",
        "stopId": "31613"
      },
      "geometry": {
        "type": "Point",
        "coordinates": [
          -119.1944977,
          34.2160899
        ]
      }
    },
    {
      "type": "Feature",
      "properties": {
        "title": "Ventura Rd at Gonzales",
        "tag": "126ventu",
        "stopId": "31425"
      },
      "geometry": {
        "type": "Point",
        "coordinates": [
          -119.1945,
          34.2198204
        ]
      }
    },
    {
      "type": "Feature",
      "properties": {
        "title": "Ventura Rd at Fuchsia - Substance Rehab Hospital",
        "tag": "146ventu",
        "stopId": "31614"
      },
      "geometry": {
        "type": "Point",
        "coordinates": [
          -119.1944832,
          34.2240697
        ]
      }
    },
    {
      "type": "Feature",
      "properties": {
        "title": "Ventura Rd at Holly",
        "tag": "152ventu",
        "stopId": "31503"
      },
      "geometry": {
        "type": "Point",
        "coordinates": [
          -119.194498,
          34.2264367
        ]
      }
    },
    {
      "type": "Feature",
      "properties": {
        "title": "Holly Ave at Lantana",
        "tag": "153holly",
        "stopId": "31615"
      },
      "geometry": {
        "type": "Point",
        "coordinates": [
          -119.1903299,
          34.2265597
        ]
      }
    },
    {
      "type": "Feature",
      "properties": {
        "title": "Lantana St at Fuschia",
        "tag": "122lanta",
        "stopId": "31616"
      },
      "geometry": {
        "type": "Point",
        "coordinates": [
          -119.1902897,
          34.2243263
        ]
      }
    },
    {
      "type": "Feature",
      "properties": {
        "title": "Lantana St at Bluebell",
        "tag": "147lanta",
        "stopId": "31617"
      },
      "geometry": {
        "type": "Point",
        "coordinates": [
          -119.1902625,
          34.2218293
        ]
      }
    },
    {
      "type": "Feature",
      "properties": {
        "title": "Gonzales Rd at Lantana",
        "tag": "148gonza",
        "stopId": "31619"
      },
      "geometry": {
        "type": "Point",
        "coordinates": [
          -119.1894679,
          34.2191399
        ]
      }
    },
    {
      "type": "Feature",
      "properties": {
        "title": "Gonzales Rd at H",
        "tag": "149gonza",
        "stopId": "31620"
      },
      "geometry": {
        "type": "Point",
        "coordinates": [
          -119.1851112,
          34.219083
        ]
      }
    },
    {
      "type": "Feature",
      "properties": {
        "title": "Gonzales Rd at C",
        "tag": "150gonza",
        "stopId": "31621"
      },
      "geometry": {
        "type": "Point",
        "coordinates": [
          -119.1813146,
          34.21906
        ]
      }
    },
    {
      "type": "Feature",
      "properties": {
        "title": "Gonzales Rd at Entrada",
        "tag": "117gonza",
        "stopId": "31622"
      },
      "geometry": {
        "type": "Point",
        "coordinates": [
          -119.1719185,
          34.2189565
        ]
      }
    },
    {
      "type": "Feature",
      "properties": {
        "title": "Gonzales Rd at Snow",
        "tag": "116gonza",
        "stopId": "31701"
      },
      "geometry": {
        "type": "Point",
        "coordinates": [
          -119.1654834,
          34.2188836
        ]
      }
    },
    {
      "type": "Feature",
      "properties": {
        "title": "Gonzales Rd at Rose",
        "tag": "gonzrose_o",
        "stopId": "07717"
      },
      "geometry": {
        "type": "Point",
        "coordinates": [
          -119.1598998,
          34.2188441
        ]
      }
    },
    {
      "type": "Feature",
      "properties": {
        "title": "Rose at Gonzales Rd",
        "tag": "115gonza",
        "stopId": "30616"
      },
      "geometry": {
        "type": "Point",
        "coordinates": [
          -119.1583797,
          34.2185134
        ]
      }
    },
    {
      "type": "Feature",
      "properties": {
        "title": "Rose Ave at Socorro Way",
        "tag": "154rosea",
        "stopId": "31702"
      },
      "geometry": {
        "type": "Point",
        "coordinates": [
          -119.1597007,
          34.2139598
        ]
      }
    },
    {
      "type": "Feature",
      "properties": {
        "title": "Rose Ave at Santa Lucia",
        "tag": "110rosea",
        "stopId": "31704"
      },
      "geometry": {
        "type": "Point",
        "coordinates": [
          -119.1598759,
          34.2015508
        ]
      }
    },
    {
      "type": "Feature",
      "properties": {
        "title": "Third St at Campton",
        "tag": "109third",
        "stopId": "31705"
      },
      "geometry": {
        "type": "Point",
        "coordinates": [
          -119.1646637,
          34.2005298
        ]
      }
    },
    {
      "type": "Feature",
      "properties": {
        "title": "Third St at Wilson",
        "tag": "108third",
        "stopId": "31706"
      },
      "geometry": {
        "type": "Point",
        "coordinates": [
          -119.1689455,
          34.2005435
        ]
      }
    },
    {
      "type": "Feature",
      "properties": {
        "title": "Third St at Garfield",
        "tag": "107third",
        "stopId": "31707"
      },
      "geometry": {
        "type": "Point",
        "coordinates": [
          -119.17351,
          34.20058
        ]
      }
    },
    {
      "type": "Feature",
      "properties": {
        "title": "Third St at B",
        "tag": "106third",
        "stopId": "31800"
      },
      "geometry": {
        "type": "Point",
        "coordinates": [
          -119.1795493,
          34.2003856
        ]
      }
    },
    {
      "type": "Feature",
      "properties": {
        "title": "Rose Ave at Socorro",
        "tag": "112rosea",
        "stopId": "31801"
      },
      "geometry": {
        "type": "Point",
        "coordinates": [
          -119.159333,
          34.2143536
        ]
      }
    },
    {
      "type": "Feature",
      "properties": {
        "title": "Rose Ave at Saint John's Parking Lot",
        "tag": "114rosea",
        "stopId": "31802"
      },
      "geometry": {
        "type": "Point",
        "coordinates": [
          -119.1565923,
          34.21703
        ]
      }
    },
    {
      "type": "Feature",
      "properties": {
        "title": "Rose Ave at Gonzales",
        "tag": "113rosea",
        "stopId": "31803"
      },
      "geometry": {
        "type": "Point",
        "coordinates": [
          -119.1562872,
          34.21898
        ]
      }
    },
    {
      "type": "Feature",
      "properties": {
        "title": "Gonzales Rd at  C",
        "tag": "118gonza",
        "stopId": "33400"
      },
      "geometry": {
        "type": "Point",
        "coordinates": [
          -119.18113,
          34.2192099
        ]
      }
    },
    {
      "type": "Feature",
      "properties": {
        "title": "Gonzales Rd at  H",
        "tag": "119gonza",
        "stopId": "33401"
      },
      "geometry": {
        "type": "Point",
        "coordinates": [
          -119.1863792,
          34.2192623
        ]
      }
    },
    {
      "type": "Feature",
      "properties": {
        "title": "Gonzales Rd at Lantana",
        "tag": "120gonza",
        "stopId": "33500"
      },
      "geometry": {
        "type": "Point",
        "coordinates": [
          -119.19006,
          34.21927
        ]
      }
    },
    {
      "type": "Feature",
      "properties": {
        "title": "Lantana St at  Bluebell",
        "tag": "121lanta",
        "stopId": "33501"
      },
      "geometry": {
        "type": "Point",
        "coordinates": [
          -119.1902218,
          34.2215764
        ]
      }
    },
    {
      "type": "Feature",
      "properties": {
        "title": "Lantana St at Holly",
        "tag": "123lanta",
        "stopId": "33502"
      },
      "geometry": {
        "type": "Point",
        "coordinates": [
          -119.1902195,
          34.226545
        ]
      }
    },
    {
      "type": "Feature",
      "properties": {
        "title": "Ventura Rd at Carmen",
        "tag": "124ventu",
        "stopId": "31423"
      },
      "geometry": {
        "type": "Point",
        "coordinates": [
          -119.1945734,
          34.2259614
        ]
      }
    },
    {
      "type": "Feature",
      "properties": {
        "title": "Ventura Rd at Bevra",
        "tag": "125ventu",
        "stopId": "31424"
      },
      "geometry": {
        "type": "Point",
        "coordinates": [
          -119.194646,
          34.2232396
        ]
      }
    },
    {
      "type": "Feature",
      "properties": {
        "title": "M St at Doris",
        "tag": "130mstat",
        "stopId": "33503"
      },
      "geometry": {
        "type": "Point",
        "coordinates": [
          -119.1923199,
          34.2086753
        ]
      }
    },
    {
      "type": "Feature",
      "properties": {
        "title": "Doris Ave at  H",
        "tag": "131doris",
        "stopId": "33504"
      },
      "geometry": {
        "type": "Point",
        "coordinates": [
          -119.1882166,
          34.2079642
        ]
      }
    },
    {
      "type": "Feature",
      "properties": {
        "title": "Doris Ave at  F",
        "tag": "132doris",
        "stopId": "33505"
      },
      "geometry": {
        "type": "Point",
        "coordinates": [
          -119.1852241,
          34.2079499
        ]
      }
    },
    {
      "type": "Feature",
      "properties": {
        "title": "Doris Ave at C",
        "tag": "133doris",
        "stopId": "33506"
      },
      "geometry": {
        "type": "Point",
        "coordinates": [
          -119.18113,
          34.20788
        ]
      }
    },
    {
      "type": "Feature",
      "properties": {
        "title": "C St at Palm",
        "tag": "134cstat",
        "stopId": "31103"
      },
      "geometry": {
        "type": "Point",
        "coordinates": [
          -119.18111,
          34.205171
        ]
      }
    },
    {
      "type": "Feature",
      "properties": {
        "title": "C St at First",
        "tag": "135cstat",
        "stopId": "31102"
      },
      "geometry": {
        "type": "Point",
        "coordinates": [
          -119.1811498,
          34.2028575
        ]
      }
    },
    {
      "type": "Feature",
      "properties": {
        "title": "C St at Third",
        "tag": "136cstat",
        "stopId": "31101"
      },
      "geometry": {
        "type": "Point",
        "coordinates": [
          -119.1811599,
          34.2004977
        ]
      }
    },
    {
      "type": "Feature",
      "properties": {
        "title": "B St at Fourth",
        "tag": "bst4_pw",
        "stopId": "35001"
      },
      "geometry": {
        "type": "Point",
        "coordinates": [
          -119.1795822,
          34.19902
        ]
      }
    },
    {
      "type": "Feature",
      "properties": {
        "title": "C St at Fourth",
        "tag": "cst4th",
        "stopId": "31301"
      },
      "geometry": {
        "type": "Point",
        "coordinates": [
          -119.18117,
          34.1986015
        ]
      }
    },
    {
      "type": "Feature",
      "properties": {
        "title": "Fifth St at D",
        "tag": "5thd",
        "stopId": "31710"
      },
      "geometry": {
        "type": "Point",
        "coordinates": [
          -119.1820782,
          34.1977469
        ]
      }
    },
    {
      "type": "Feature",
      "properties": {
        "title": "Fifth St at F",
        "tag": "5thf_pw",
        "stopId": "31603"
      },
      "geometry": {
        "type": "Point",
        "coordinates": [
          -119.1850524,
          34.1977569
        ]
      }
    },
    {
      "type": "Feature",
      "properties": {
        "title": "Fifth St at H",
        "tag": "5thh",
        "stopId": "31711"
      },
      "geometry": {
        "type": "Point",
        "coordinates": [
          -119.1883029,
          34.1977959
        ]
      }
    },
    {
      "type": "Feature",
      "properties": {
        "title": "Fifth St at K",
        "tag": "83fifth",
        "stopId": "31712"
      },
      "geometry": {
        "type": "Point",
        "coordinates": [
          -119.1915234,
          34.1978734
        ]
      }
    },
    {
      "type": "Feature",
      "properties": {
        "title": "Ventura Rd at Fifth",
        "tag": "vent5th",
        "stopId": "31713"
      },
      "geometry": {
        "type": "Point",
        "coordinates": [
          -119.1949399,
          34.1972402
        ]
      }
    },
    {
      "type": "Feature",
      "properties": {
        "title": "Ventura Rd at Seventh",
        "tag": "85ventu",
        "stopId": "33600"
      },
      "geometry": {
        "type": "Point",
        "coordinates": [
          -119.194906,
          34.1952663
        ]
      }
    },
    {
      "type": "Feature",
      "properties": {
        "title": "Wooley Rd at Ventura",
        "tag": "91woole",
        "stopId": "33601"
      },
      "geometry": {
        "type": "Point",
        "coordinates": [
          -119.1954459,
          34.1903719
        ]
      }
    },
    {
      "type": "Feature",
      "properties": {
        "title": "Wooley Rd at Escalon",
        "tag": "86woole",
        "stopId": "33602"
      },
      "geometry": {
        "type": "Point",
        "coordinates": [
          -119.2005252,
          34.1904649
        ]
      }
    },
    {
      "type": "Feature",
      "properties": {
        "title": "Novato Dr at El Portal",
        "tag": "87novat",
        "stopId": "33603"
      },
      "geometry": {
        "type": "Point",
        "coordinates": [
          -119.2036384,
          34.1890155
        ]
      }
    },
    {
      "type": "Feature",
      "properties": {
        "title": "Hill St at Mcloughlin",
        "tag": "88hills",
        "stopId": "33604"
      },
      "geometry": {
        "type": "Point",
        "coordinates": [
          -119.2028665,
          34.1860242
        ]
      }
    },
    {
      "type": "Feature",
      "properties": {
        "title": "Mcloughlin Ave at Carob",
        "tag": "89mclou",
        "stopId": "33605"
      },
      "geometry": {
        "type": "Point",
        "coordinates": [
          -119.2028689,
          34.1840638
        ]
      }
    },
    {
      "type": "Feature",
      "properties": {
        "title": "Hemlock St at Lido",
        "tag": "92hemlo",
        "stopId": "33606"
      },
      "geometry": {
        "type": "Point",
        "coordinates": [
          -119.2032497,
          34.181203
        ]
      }
    },
    {
      "type": "Feature",
      "properties": {
        "title": "Hemlock St at Patterson",
        "tag": "hemlpatt_d",
        "stopId": "33700"
      },
      "geometry": {
        "type": "Point",
        "coordinates": [
          -119.2087439,
          34.1812788
        ]
      }
    },
    {
      "type": "Feature",
      "properties": {
        "title": "Hemlock St at Capstan",
        "tag": "94hemlo",
        "stopId": "33701"
      },
      "geometry": {
        "type": "Point",
        "coordinates": [
          -119.2156657,
          34.1812899
        ]
      }
    },
    {
      "type": "Feature",
      "properties": {
        "title": "Victoria Aveune at Hemlock",
        "tag": "95victo",
        "stopId": "36002"
      },
      "geometry": {
        "type": "Point",
        "coordinates": [
          -119.2212588,
          34.1818119
        ]
      }
    },
    {
      "type": "Feature",
      "properties": {
        "title": "Victoria Avenue at Leeward",
        "tag": "96victo",
        "stopId": "33703"
      },
      "geometry": {
        "type": "Point",
        "coordinates": [
          -119.221224,
          34.1852093
        ]
      }
    },
    {
      "type": "Feature",
      "properties": {
        "title": "Wooley Rd at Victoria",
        "tag": "woolvict",
        "stopId": "33704"
      },
      "geometry": {
        "type": "Point",
        "coordinates": [
          -119.2202602,
          34.1902699
        ]
      }
    },
    {
      "type": "Feature",
      "properties": {
        "title": "Wooley Rd at Offshore",
        "tag": "98woole",
        "stopId": "33705"
      },
      "geometry": {
        "type": "Point",
        "coordinates": [
          -119.21414,
          34.19019
        ]
      }
    },
    {
      "type": "Feature",
      "properties": {
        "title": "Wooley Rd at Patterson",
        "tag": "99woole",
        "stopId": "33706"
      },
      "geometry": {
        "type": "Point",
        "coordinates": [
          -119.2083218,
          34.190188
        ]
      }
    },
    {
      "type": "Feature",
      "properties": {
        "title": "Wooley Rd at Novato",
        "tag": "100woole",
        "stopId": "31407"
      },
      "geometry": {
        "type": "Point",
        "coordinates": [
          -119.2031477,
          34.19019
        ]
      }
    },
    {
      "type": "Feature",
      "properties": {
        "title": "Wooley Rd at Pisco",
        "tag": "101woole",
        "stopId": "31409"
      },
      "geometry": {
        "type": "Point",
        "coordinates": [
          -119.1972448,
          34.1901899
        ]
      }
    },
    {
      "type": "Feature",
      "properties": {
        "title": "Ventura Rd at Ninth",
        "tag": "102ventu",
        "stopId": "33707"
      },
      "geometry": {
        "type": "Point",
        "coordinates": [
          -119.1947699,
          34.1920861
        ]
      }
    },
    {
      "type": "Feature",
      "properties": {
        "title": "Fifth St at Ventura",
        "tag": "5thvent_otc",
        "stopId": "31404"
      },
      "geometry": {
        "type": "Point",
        "coordinates": [
          -119.194365,
          34.197655
        ]
      }
    },
    {
      "type": "Feature",
      "properties": {
        "title": "Fifth St at K",
        "tag": "104fifth",
        "stopId": "31601"
      },
      "geometry": {
        "type": "Point",
        "coordinates": [
          -119.1914144,
          34.197688
        ]
      }
    },
    {
      "type": "Feature",
      "properties": {
        "title": "Fifth St at H",
        "tag": "105fifth",
        "stopId": "31602"
      },
      "geometry": {
        "type": "Point",
        "coordinates": [
          -119.1876451,
          34.1977079
        ]
      }
    },
    {
      "type": "Feature",
      "properties": {
        "title": "B St at Fourth",
        "tag": "bst4_otc",
        "stopId": "35000"
      },
      "geometry": {
        "type": "Point",
        "coordinates": [
          -119.1795168,
          34.19897
        ]
      }
    },
    {
      "type": "Feature",
      "properties": {
        "title": "C St at Third",
        "tag": "cthird_n",
        "stopId": "33800"
      },
      "geometry": {
        "type": "Point",
        "coordinates": [
          -119.181,
          34.2006798
        ]
      }
    },
    {
      "type": "Feature",
      "properties": {
        "title": "C St at First",
        "tag": "cfirst_n",
        "stopId": "33801"
      },
      "geometry": {
        "type": "Point",
        "coordinates": [
          -119.1810033,
          34.2032065
        ]
      }
    },
    {
      "type": "Feature",
      "properties": {
        "title": "C St at Palm",
        "tag": "cpalm_n",
        "stopId": "33802"
      },
      "geometry": {
        "type": "Point",
        "coordinates": [
          -119.18098,
          34.2052849
        ]
      }
    },
    {
      "type": "Feature",
      "properties": {
        "title": "C St at Doris",
        "tag": "cdoris_n",
        "stopId": "33803"
      },
      "geometry": {
        "type": "Point",
        "coordinates": [
          -119.1809697,
          34.2077784
        ]
      }
    },
    {
      "type": "Feature",
      "properties": {
        "title": "C St at Robert",
        "tag": "crobe",
        "stopId": "33804"
      },
      "geometry": {
        "type": "Point",
        "coordinates": [
          -119.1809399,
          34.210805
        ]
      }
    },
    {
      "type": "Feature",
      "properties": {
        "title": "C St at Glenwood",
        "tag": "cglen_n",
        "stopId": "33805"
      },
      "geometry": {
        "type": "Point",
        "coordinates": [
          -119.1808898,
          34.2144073
        ]
      }
    },
    {
      "type": "Feature",
      "properties": {
        "title": "C St at Ivywood",
        "tag": "civyw_n",
        "stopId": "33806"
      },
      "geometry": {
        "type": "Point",
        "coordinates": [
          -119.1808598,
          34.2163237
        ]
      }
    },
    {
      "type": "Feature",
      "properties": {
        "title": "C St at Gonzales",
        "tag": "cgonz",
        "stopId": "33807"
      },
      "geometry": {
        "type": "Point",
        "coordinates": [
          -119.1808,
          34.2201098
        ]
      }
    },
    {
      "type": "Feature",
      "properties": {
        "title": "Citrus Grove at Oxnard",
        "tag": "citruoxna_n",
        "stopId": "33808"
      },
      "geometry": {
        "type": "Point",
        "coordinates": [
          -119.1785253,
          34.2211015
        ]
      }
    },
    {
      "type": "Feature",
      "properties": {
        "title": "Vineyard Ave at Saint Mary's",
        "tag": "vinestma",
        "stopId": "33809"
      },
      "geometry": {
        "type": "Point",
        "coordinates": [
          -119.1759452,
          34.2280274
        ]
      }
    },
    {
      "type": "Feature",
      "properties": {
        "title": "Esplanade (Old Target)",
        "tag": "espl_nb",
        "stopId": "33810"
      },
      "geometry": {
        "type": "Point",
        "coordinates": [
          -119.17612,
          34.2320643
        ]
      }
    },
    {
      "type": "Feature",
      "properties": {
        "title": "Esplanade at Wagon Wheel",
        "tag": "esplwagon",
        "stopId": "33811"
      },
      "geometry": {
        "type": "Point",
        "coordinates": [
          -119.1785528,
          34.2333699
        ]
      }
    },
    {
      "type": "Feature",
      "properties": {
        "title": "Johnson Dr at Northbank (Theater Entranc",
        "tag": "johnnort_n",
        "stopId": "33812"
      },
      "geometry": {
        "type": "Point",
        "coordinates": [
          -119.19582,
          34.24833
        ]
      }
    },
    {
      "type": "Feature",
      "properties": {
        "title": "Johnson Dr at Hummingbird",
        "tag": "johnhumm_n",
        "stopId": "33813"
      },
      "geometry": {
        "type": "Point",
        "coordinates": [
          -119.1971752,
          34.2532887
        ]
      }
    },
    {
      "type": "Feature",
      "properties": {
        "title": "Bristol at Hill",
        "tag": "bristhill_n",
        "stopId": "33814"
      },
      "geometry": {
        "type": "Point",
        "coordinates": [
          -119.2032451,
          34.2537231
        ]
      }
    },
    {
      "type": "Feature",
      "properties": {
        "title": "Grand at Bristol",
        "tag": "granbris_n",
        "stopId": "33815"
      },
      "geometry": {
        "type": "Point",
        "coordinates": [
          -119.2071569,
          34.253178
        ]
      }
    },
    {
      "type": "Feature",
      "properties": {
        "title": "Moon at Victoria Ave",
        "tag": "victmoon_n",
        "stopId": "33816"
      },
      "geometry": {
        "type": "Point",
        "coordinates": [
          -119.210358,
          34.2561062
        ]
      }
    },
    {
      "type": "Feature",
      "properties": {
        "title": "Victoria Ave at Avocet",
        "tag": "victavoc_n",
        "stopId": "33817"
      },
      "geometry": {
        "type": "Point",
        "coordinates": [
          -119.2110568,
          34.2590965
        ]
      }
    },
    {
      "type": "Feature",
      "properties": {
        "title": "Victoria Ave at Ralston",
        "tag": "victrals_n",
        "stopId": "33818"
      },
      "geometry": {
        "type": "Point",
        "coordinates": [
          -119.2116184,
          34.2617021
        ]
      }
    },
    {
      "type": "Feature",
      "properties": {
        "title": "Victoria Ave at Telephone",
        "tag": "victtelep_n",
        "stopId": "33200"
      },
      "geometry": {
        "type": "Point",
        "coordinates": [
          -119.2125187,
          34.2661644
        ]
      }
    },
    {
      "type": "Feature",
      "properties": {
        "title": "Telegraph Rd at Victoria",
        "tag": "telegvict_n",
        "stopId": "33819"
      },
      "geometry": {
        "type": "Point",
        "coordinates": [
          -119.2158302,
          34.2778949
        ]
      }
    },
    {
      "type": "Feature",
      "properties": {
        "title": "Telegraph Rd at Wake Forest",
        "tag": "telegwake_n",
        "stopId": "33820"
      },
      "geometry": {
        "type": "Point",
        "coordinates": [
          -119.2178114,
          34.2775999
        ]
      }
    },
    {
      "type": "Feature",
      "properties": {
        "title": "Telegraph Rd at Bryn Mawr",
        "tag": "telegbryn_n",
        "stopId": "33821"
      },
      "geometry": {
        "type": "Point",
        "coordinates": [
          -119.2226681,
          34.2768929
        ]
      }
    },
    {
      "type": "Feature",
      "properties": {
        "title": "Telegraph Rd at Day",
        "tag": "telegday_n",
        "stopId": "33822"
      },
      "geometry": {
        "type": "Point",
        "coordinates": [
          -119.2270787,
          34.276253
        ]
      }
    },
    {
      "type": "Feature",
      "properties": {
        "title": "Telegraph Rd at Estates (Ventura College)",
        "tag": "telegeste_n",
        "stopId": "33823"
      },
      "geometry": {
        "type": "Point",
        "coordinates": [
          -119.2309863,
          34.2756839
        ]
      }
    },
    {
      "type": "Feature",
      "properties": {
        "title": "Telegraph Rd at Claremont",
        "tag": "telegclar_n",
        "stopId": "33824"
      },
      "geometry": {
        "type": "Point",
        "coordinates": [
          -119.2342623,
          34.2751931
        ]
      }
    },
    {
      "type": "Feature",
      "properties": {
        "title": "Telegraph Rd at West Campus",
        "tag": "telegwestc",
        "stopId": "33825"
      },
      "geometry": {
        "type": "Point",
        "coordinates": [
          -119.2372943,
          34.2747423
        ]
      }
    },
    {
      "type": "Feature",
      "properties": {
        "title": "Telegraph Rd at Ashwood",
        "tag": "telegash_n",
        "stopId": "33826"
      },
      "geometry": {
        "type": "Point",
        "coordinates": [
          -119.2396515,
          34.2743926
        ]
      }
    },
    {
      "type": "Feature",
      "properties": {
        "title": "Telegraph Rd at Palomores",
        "tag": "telegpalo",
        "stopId": "33827"
      },
      "geometry": {
        "type": "Point",
        "coordinates": [
          -119.2435647,
          34.2738124
        ]
      }
    },
    {
      "type": "Feature",
      "properties": {
        "title": "Ventura Transfer Center",
        "tag": "vtc_d",
        "stopId": "30000"
      },
      "geometry": {
        "type": "Point",
        "coordinates": [
          -119.2496348,
          34.272451
        ]
      }
    },
    {
      "type": "Feature",
      "properties": {
        "title": "Mills Rd at Telegraph",
        "tag": "millteleg",
        "stopId": "33828"
      },
      "geometry": {
        "type": "Point",
        "coordinates": [
          -119.2478753,
          34.2730454
        ]
      }
    },
    {
      "type": "Feature",
      "properties": {
        "title": "Loma Vista at Mills Rd",
        "tag": "lomamills",
        "stopId": "33829"
      },
      "geometry": {
        "type": "Point",
        "coordinates": [
          -119.2493887,
          34.2766519
        ]
      }
    },
    {
      "type": "Feature",
      "properties": {
        "title": "Loma Vista at VCMC",
        "tag": "lomavcmc",
        "stopId": "33830"
      },
      "geometry": {
        "type": "Point",
        "coordinates": [
          -119.2521345,
          34.2762432
        ]
      }
    },
    {
      "type": "Feature",
      "properties": {
        "title": "Loma Vista at Dos Caminos",
        "tag": "lomadosc_n",
        "stopId": "32017"
      },
      "geometry": {
        "type": "Point",
        "coordinates": [
          -119.2558297,
          34.2757004
        ]
      }
    },
    {
      "type": "Feature",
      "properties": {
        "title": "Loma Vista at Brent",
        "tag": "lomabren_n",
        "stopId": "32016"
      },
      "geometry": {
        "type": "Point",
        "coordinates": [
          -119.2583462,
          34.2753402
        ]
      }
    },
    {
      "type": "Feature",
      "properties": {
        "title": "Main St at Katherine",
        "tag": "mainkath",
        "stopId": "33831"
      },
      "geometry": {
        "type": "Point",
        "coordinates": [
          -119.2621392,
          34.2751643
        ]
      }
    },
    {
      "type": "Feature",
      "properties": {
        "title": "Main St at Evergreen",
        "tag": "mainever_n",
        "stopId": "32014"
      },
      "geometry": {
        "type": "Point",
        "coordinates": [
          -119.2637168,
          34.2758734
        ]
      }
    },
    {
      "type": "Feature",
      "properties": {
        "title": "Main St at Seaward",
        "tag": "mainseaw_n",
        "stopId": "32013"
      },
      "geometry": {
        "type": "Point",
        "coordinates": [
          -119.2652799,
          34.2765799
        ]
      }
    },
    {
      "type": "Feature",
      "properties": {
        "title": "Main St at Catalina (Ventura High School)",
        "tag": "maincata_n",
        "stopId": "32012"
      },
      "geometry": {
        "type": "Point",
        "coordinates": [
          -119.2689493,
          34.2778269
        ]
      }
    },
    {
      "type": "Feature",
      "properties": {
        "title": "Main St at Santa Cruz",
        "tag": "mainsantac_n",
        "stopId": "32011"
      },
      "geometry": {
        "type": "Point",
        "coordinates": [
          -119.2716025,
          34.2784743
        ]
      }
    },
    {
      "type": "Feature",
      "properties": {
        "title": "Main St at Pacific",
        "tag": "mainpaci",
        "stopId": "32100"
      },
      "geometry": {
        "type": "Point",
        "coordinates": [
          -119.2738211,
          34.2790038
        ]
      }
    },
    {
      "type": "Feature",
      "properties": {
        "title": "Main at Encinal",
        "tag": "mainenci",
        "stopId": "32101"
      },
      "geometry": {
        "type": "Point",
        "coordinates": [
          -119.2764716,
          34.2796651
        ]
      }
    },
    {
      "type": "Feature",
      "properties": {
        "title": "Main St at Aliso",
        "tag": "mainalis",
        "stopId": "32102"
      },
      "geometry": {
        "type": "Point",
        "coordinates": [
          -119.2789898,
          34.2803249
        ]
      }
    },
    {
      "type": "Feature",
      "properties": {
        "title": "Main St at Hemlock",
        "tag": "mainheml_n",
        "stopId": "32006"
      },
      "geometry": {
        "type": "Point",
        "coordinates": [
          -119.2824789,
          34.2809291
        ]
      }
    },
    {
      "type": "Feature",
      "properties": {
        "title": "Main St at Laurel",
        "tag": "mainlaur_n",
        "stopId": "32005"
      },
      "geometry": {
        "type": "Point",
        "coordinates": [
          -119.2855982,
          34.28091
        ]
      }
    },
    {
      "type": "Feature",
      "properties": {
        "title": "Main St at Ash",
        "tag": "mainash_n",
        "stopId": "32004"
      },
      "geometry": {
        "type": "Point",
        "coordinates": [
          -119.288728,
          34.280919
        ]
      }
    },
    {
      "type": "Feature",
      "properties": {
        "title": "Main St at Chestnut",
        "tag": "mainches_n",
        "stopId": "32003"
      },
      "geometry": {
        "type": "Point",
        "coordinates": [
          -119.2918787,
          34.2808989
        ]
      }
    },
    {
      "type": "Feature",
      "properties": {
        "title": "Main St at California",
        "tag": "maincali",
        "stopId": "32103"
      },
      "geometry": {
        "type": "Point",
        "coordinates": [
          -119.2933683,
          34.2808909
        ]
      }
    },
    {
      "type": "Feature",
      "properties": {
        "title": "Main St at Oak",
        "tag": "mainoak_n",
        "stopId": "32002"
      },
      "geometry": {
        "type": "Point",
        "coordinates": [
          -119.2948357,
          34.280899
        ]
      }
    },
    {
      "type": "Feature",
      "properties": {
        "title": "Main St at Figueroa",
        "tag": "mainfig1_n",
        "stopId": "32001"
      },
      "geometry": {
        "type": "Point",
        "coordinates": [
          -119.2981265,
          34.28088
        ]
      }
    },
    {
      "type": "Feature",
      "properties": {
        "title": "Ventura Ave at Main",
        "tag": "ventmain",
        "stopId": "33832"
      },
      "geometry": {
        "type": "Point",
        "coordinates": [
          -119.30074,
          34.28118
        ]
      }
    },
    {
      "type": "Feature",
      "properties": {
        "title": "Ventura Ave at Park Row",
        "tag": "ventpark_n",
        "stopId": "30809"
      },
      "geometry": {
        "type": "Point",
        "coordinates": [
          -119.2998204,
          34.2844536
        ]
      }
    },
    {
      "type": "Feature",
      "properties": {
        "title": "Ventura Ave at Center",
        "tag": "ventcent_n",
        "stopId": "30810"
      },
      "geometry": {
        "type": "Point",
        "coordinates": [
          -119.2988321,
          34.287723
        ]
      }
    },
    {
      "type": "Feature",
      "properties": {
        "title": "Ventura Ave at Ramona",
        "tag": "ventramo_n",
        "stopId": "30811"
      },
      "geometry": {
        "type": "Point",
        "coordinates": [
          -119.2982863,
          34.2895388
        ]
      }
    },
    {
      "type": "Feature",
      "properties": {
        "title": "Ventura Ave at Warner",
        "tag": "ventwarn",
        "stopId": "30813"
      },
      "geometry": {
        "type": "Point",
        "coordinates": [
          -119.2973921,
          34.2925229
        ]
      }
    },
    {
      "type": "Feature",
      "properties": {
        "title": "Ventura Ave at Vince",
        "tag": "ventvinc_n",
        "stopId": "30814"
      },
      "geometry": {
        "type": "Point",
        "coordinates": [
          -119.2968087,
          34.2944236
        ]
      }
    },
    {
      "type": "Feature",
      "properties": {
        "title": "Ventura Ave at Forbes",
        "tag": "ventforb",
        "stopId": "30815"
      },
      "geometry": {
        "type": "Point",
        "coordinates": [
          -119.2963912,
          34.2957675
        ]
      }
    },
    {
      "type": "Feature",
      "properties": {
        "title": "Ventura Ave at Comstock",
        "tag": "ventcoms",
        "stopId": "30816"
      },
      "geometry": {
        "type": "Point",
        "coordinates": [
          -119.2957579,
          34.2978803
        ]
      }
    },
    {
      "type": "Feature",
      "properties": {
        "title": "Ventura Ave at De Anza",
        "tag": "ventdean_n",
        "stopId": "30817"
      },
      "geometry": {
        "type": "Point",
        "coordinates": [
          -119.2946382,
          34.3015781
        ]
      }
    },
    {
      "type": "Feature",
      "properties": {
        "title": "Ventura Ave at Barry",
        "tag": "ventbary_n",
        "stopId": "33833"
      },
      "geometry": {
        "type": "Point",
        "coordinates": [
          -119.2941229,
          34.3032501
        ]
      }
    },
    {
      "type": "Feature",
      "properties": {
        "title": "Ventura Senior Housing",
        "tag": "ventseni",
        "stopId": "30819"
      },
      "geometry": {
        "type": "Point",
        "coordinates": [
          -119.2937214,
          34.3045611
        ]
      }
    },
    {
      "type": "Feature",
      "properties": {
        "title": "Ventura Ave at Seneca",
        "tag": "ventsene_n",
        "stopId": "30820"
      },
      "geometry": {
        "type": "Point",
        "coordinates": [
          -119.2932159,
          34.3062331
        ]
      }
    },
    {
      "type": "Feature",
      "properties": {
        "title": "Ventura Avenue & Willet Street",
        "tag": "ventwill_n",
        "stopId": "30821"
      },
      "geometry": {
        "type": "Point",
        "coordinates": [
          -119.29282,
          34.30753
        ]
      }
    },
    {
      "type": "Feature",
      "properties": {
        "title": "Ventura Avenue & Willet Street",
        "tag": "ventwill_s",
        "stopId": "30821"
      },
      "geometry": {
        "type": "Point",
        "coordinates": [
          -119.2928538,
          34.3078465
        ]
      }
    },
    {
      "type": "Feature",
      "properties": {
        "title": "Ventura Ave at Seneca",
        "tag": "ventsene",
        "stopId": "30820"
      },
      "geometry": {
        "type": "Point",
        "coordinates": [
          -119.2934801,
          34.3057296
        ]
      }
    },
    {
      "type": "Feature",
      "properties": {
        "title": "Ventura Ave at Barry",
        "tag": "ventbary",
        "stopId": "33833"
      },
      "geometry": {
        "type": "Point",
        "coordinates": [
          -119.2942983,
          34.3030457
        ]
      }
    },
    {
      "type": "Feature",
      "properties": {
        "title": "Ventura Ave at De Anza",
        "tag": "ventdean",
        "stopId": "30817"
      },
      "geometry": {
        "type": "Point",
        "coordinates": [
          -119.2948083,
          34.3013854
        ]
      }
    },
    {
      "type": "Feature",
      "properties": {
        "title": "Ventura Ave at James",
        "tag": "ventjame",
        "stopId": "30911"
      },
      "geometry": {
        "type": "Point",
        "coordinates": [
          -119.29564,
          34.2986598
        ]
      }
    },
    {
      "type": "Feature",
      "properties": {
        "title": "Ventura Ave at Pleasant Place",
        "tag": "ventpleas",
        "stopId": "33901"
      },
      "geometry": {
        "type": "Point",
        "coordinates": [
          -119.2962294,
          34.2966918
        ]
      }
    },
    {
      "type": "Feature",
      "properties": {
        "title": "Ventura Ave at Vince",
        "tag": "ventvinc",
        "stopId": "30814"
      },
      "geometry": {
        "type": "Point",
        "coordinates": [
          -119.2971189,
          34.2937835
        ]
      }
    },
    {
      "type": "Feature",
      "properties": {
        "title": "Ventura Ave at Warner",
        "tag": "ventwan",
        "stopId": "33902"
      },
      "geometry": {
        "type": "Point",
        "coordinates": [
          -119.2976201,
          34.2921596
        ]
      }
    },
    {
      "type": "Feature",
      "properties": {
        "title": "Ventura Ave at Ramona",
        "tag": "ventramo",
        "stopId": "30811"
      },
      "geometry": {
        "type": "Point",
        "coordinates": [
          -119.2983202,
          34.2898291
        ]
      }
    },
    {
      "type": "Feature",
      "properties": {
        "title": "Ventura Ave at Center",
        "tag": "ventcent",
        "stopId": "30810"
      },
      "geometry": {
        "type": "Point",
        "coordinates": [
          -119.2990705,
          34.2873312
        ]
      }
    },
    {
      "type": "Feature",
      "properties": {
        "title": "Ventura Ave at Park Row",
        "tag": "ventpark",
        "stopId": "30809"
      },
      "geometry": {
        "type": "Point",
        "coordinates": [
          -119.29996,
          34.2843699
        ]
      }
    },
    {
      "type": "Feature",
      "properties": {
        "title": "Ventura Ave at Fix Way",
        "tag": "ventfix",
        "stopId": "30913"
      },
      "geometry": {
        "type": "Point",
        "coordinates": [
          -119.3003483,
          34.2831253
        ]
      }
    },
    {
      "type": "Feature",
      "properties": {
        "title": "Main St at Ventura",
        "tag": "mainvent",
        "stopId": "32000"
      },
      "geometry": {
        "type": "Point",
        "coordinates": [
          -119.3001903,
          34.28098
        ]
      }
    },
    {
      "type": "Feature",
      "properties": {
        "title": "Main St at Figueroa",
        "tag": "mainfig1",
        "stopId": "32001"
      },
      "geometry": {
        "type": "Point",
        "coordinates": [
          -119.2979965,
          34.28081
        ]
      }
    },
    {
      "type": "Feature",
      "properties": {
        "title": "Main St at Oak",
        "tag": "mainoak",
        "stopId": "32002"
      },
      "geometry": {
        "type": "Point",
        "coordinates": [
          -119.2946231,
          34.28083
        ]
      }
    },
    {
      "type": "Feature",
      "properties": {
        "title": "Main St at Chestnut",
        "tag": "mainches",
        "stopId": "32003"
      },
      "geometry": {
        "type": "Point",
        "coordinates": [
          -119.2918036,
          34.2808299
        ]
      }
    },
    {
      "type": "Feature",
      "properties": {
        "title": "Main St at Ash",
        "tag": "mainash",
        "stopId": "32004"
      },
      "geometry": {
        "type": "Point",
        "coordinates": [
          -119.2889229,
          34.2808499
        ]
      }
    },
    {
      "type": "Feature",
      "properties": {
        "title": "Main St at Laurel",
        "tag": "mainlaur",
        "stopId": "32005"
      },
      "geometry": {
        "type": "Point",
        "coordinates": [
          -119.2858241,
          34.28084
        ]
      }
    },
    {
      "type": "Feature",
      "properties": {
        "title": "Main St at Hemlock",
        "tag": "mainheml",
        "stopId": "32006"
      },
      "geometry": {
        "type": "Point",
        "coordinates": [
          -119.2826729,
          34.2808599
        ]
      }
    },
    {
      "type": "Feature",
      "properties": {
        "title": "Main St at Crimea",
        "tag": "maincrim",
        "stopId": "32007"
      },
      "geometry": {
        "type": "Point",
        "coordinates": [
          -119.2806799,
          34.2805999
        ]
      }
    },
    {
      "type": "Feature",
      "properties": {
        "title": "Main St at Chrisman",
        "tag": "mainchri",
        "stopId": "32008"
      },
      "geometry": {
        "type": "Point",
        "coordinates": [
          -119.2773953,
          34.2797689
        ]
      }
    },
    {
      "type": "Feature",
      "properties": {
        "title": "Main St at Macmillan",
        "tag": "mainmacm",
        "stopId": "32009"
      },
      "geometry": {
        "type": "Point",
        "coordinates": [
          -119.2761019,
          34.2794705
        ]
      }
    },
    {
      "type": "Feature",
      "properties": {
        "title": "Main St at Hurst",
        "tag": "mainhurst",
        "stopId": "32010"
      },
      "geometry": {
        "type": "Point",
        "coordinates": [
          -119.2742129,
          34.2790106
        ]
      }
    },
    {
      "type": "Feature",
      "properties": {
        "title": "Main St at Santa Cruz",
        "tag": "mainsantac",
        "stopId": "32011"
      },
      "geometry": {
        "type": "Point",
        "coordinates": [
          -119.2714249,
          34.2783312
        ]
      }
    },
    {
      "type": "Feature",
      "properties": {
        "title": "Main St at Catalina (Ventura High School)",
        "tag": "maincata",
        "stopId": "32012"
      },
      "geometry": {
        "type": "Point",
        "coordinates": [
          -119.2688788,
          34.2776822
        ]
      }
    },
    {
      "type": "Feature",
      "properties": {
        "title": "Main St at Seaward",
        "tag": "mainseaw",
        "stopId": "32013"
      },
      "geometry": {
        "type": "Point",
        "coordinates": [
          -119.2651843,
          34.2764221
        ]
      }
    },
    {
      "type": "Feature",
      "properties": {
        "title": "Main St at Evergreen",
        "tag": "mainever",
        "stopId": "32014"
      },
      "geometry": {
        "type": "Point",
        "coordinates": [
          -119.2632264,
          34.2755284
        ]
      }
    },
    {
      "type": "Feature",
      "properties": {
        "title": "Loma Vista at Main",
        "tag": "lomamain",
        "stopId": "32015"
      },
      "geometry": {
        "type": "Point",
        "coordinates": [
          -119.2608576,
          34.2748364
        ]
      }
    },
    {
      "type": "Feature",
      "properties": {
        "title": "Loma Vista at Brent",
        "tag": "lomabren",
        "stopId": "32016"
      },
      "geometry": {
        "type": "Point",
        "coordinates": [
          -119.2574176,
          34.2753469
        ]
      }
    },
    {
      "type": "Feature",
      "properties": {
        "title": "Loma Vista at Dos Caminos",
        "tag": "lomadosc",
        "stopId": "32017"
      },
      "geometry": {
        "type": "Point",
        "coordinates": [
          -119.2551099,
          34.2756759
        ]
      }
    },
    {
      "type": "Feature",
      "properties": {
        "title": "Loma Vista at St Paul's",
        "tag": "lomastpa",
        "stopId": "32018"
      },
      "geometry": {
        "type": "Point",
        "coordinates": [
          -119.2513286,
          34.2762518
        ]
      }
    },
    {
      "type": "Feature",
      "properties": {
        "title": "Loma Vista at Mills",
        "tag": "lomamill",
        "stopId": "32019"
      },
      "geometry": {
        "type": "Point",
        "coordinates": [
          -119.2490667,
          34.2766012
        ]
      }
    },
    {
      "type": "Feature",
      "properties": {
        "title": "Mills Rd at Telegraph",
        "tag": "milltele",
        "stopId": "32020"
      },
      "geometry": {
        "type": "Point",
        "coordinates": [
          -119.2478723,
          34.2733821
        ]
      }
    },
    {
      "type": "Feature",
      "properties": {
        "title": "Ventura Transfer Center",
        "tag": "venttrans_d",
        "stopId": "30000"
      },
      "geometry": {
        "type": "Point",
        "coordinates": [
          -119.2496348,
          34.272451
        ]
      }
    },
    {
      "type": "Feature",
      "properties": {
        "title": "Telegraph Rd at College",
        "tag": "telegcoll",
        "stopId": "33903"
      },
      "geometry": {
        "type": "Point",
        "coordinates": [
          -119.2432792,
          34.2737387
        ]
      }
    },
    {
      "type": "Feature",
      "properties": {
        "title": "Telegraph Rd at Ashwood",
        "tag": "telegash",
        "stopId": "33826"
      },
      "geometry": {
        "type": "Point",
        "coordinates": [
          -119.2388993,
          34.2743986
        ]
      }
    },
    {
      "type": "Feature",
      "properties": {
        "title": "Telegraph Rd at Baylor",
        "tag": "telegbayl",
        "stopId": "33904"
      },
      "geometry": {
        "type": "Point",
        "coordinates": [
          -119.2373688,
          34.2746286
        ]
      }
    },
    {
      "type": "Feature",
      "properties": {
        "title": "Telegraph Rd at Claremont",
        "tag": "telegclar",
        "stopId": "33824"
      },
      "geometry": {
        "type": "Point",
        "coordinates": [
          -119.2339026,
          34.275138
        ]
      }
    },
    {
      "type": "Feature",
      "properties": {
        "title": "Telegraph Rd at Estates (Ventura College)",
        "tag": "telegeste",
        "stopId": "33823"
      },
      "geometry": {
        "type": "Point",
        "coordinates": [
          -119.2308928,
          34.2755781
        ]
      }
    },
    {
      "type": "Feature",
      "properties": {
        "title": "Telegraph Rd at Townhouse Driveway",
        "tag": "telegtown",
        "stopId": "33905"
      },
      "geometry": {
        "type": "Point",
        "coordinates": [
          -119.2288627,
          34.275868
        ]
      }
    },
    {
      "type": "Feature",
      "properties": {
        "title": "Telegraph Rd at Day",
        "tag": "telegday",
        "stopId": "33822"
      },
      "geometry": {
        "type": "Point",
        "coordinates": [
          -119.2266439,
          34.276199
        ]
      }
    },
    {
      "type": "Feature",
      "properties": {
        "title": "Telegraph Rd at Mound School Ctr.",
        "tag": "telegduva",
        "stopId": "33906"
      },
      "geometry": {
        "type": "Point",
        "coordinates": [
          -119.2249405,
          34.276458
        ]
      }
    },
    {
      "type": "Feature",
      "properties": {
        "title": "Telegraph Rd at Bryn Mawr",
        "tag": "telegbryn",
        "stopId": "33821"
      },
      "geometry": {
        "type": "Point",
        "coordinates": [
          -119.2217499,
          34.276919
        ]
      }
    },
    {
      "type": "Feature",
      "properties": {
        "title": "Telegraph Rd at Wake Forest",
        "tag": "telegwake",
        "stopId": "33820"
      },
      "geometry": {
        "type": "Point",
        "coordinates": [
          -119.2177572,
          34.2775099
        ]
      }
    },
    {
      "type": "Feature",
      "properties": {
        "title": "Telegraph Rd at Victoria",
        "tag": "telegvict",
        "stopId": "33819"
      },
      "geometry": {
        "type": "Point",
        "coordinates": [
          -119.215373,
          34.2778695
        ]
      }
    },
    {
      "type": "Feature",
      "properties": {
        "title": "Victoria Ave at Telephone",
        "tag": "victtelep",
        "stopId": "33200"
      },
      "geometry": {
        "type": "Point",
        "coordinates": [
          -119.2128009,
          34.266036
        ]
      }
    },
    {
      "type": "Feature",
      "properties": {
        "title": "Victoria Ave at Ralston",
        "tag": "victrals",
        "stopId": "33818"
      },
      "geometry": {
        "type": "Point",
        "coordinates": [
          -119.2114498,
          34.2599292
        ]
      }
    },
    {
      "type": "Feature",
      "properties": {
        "title": "Victoria Ave at Avocet",
        "tag": "victavoc_otc",
        "stopId": "33817"
      },
      "geometry": {
        "type": "Point",
        "coordinates": [
          -119.2110499,
          34.2580299
        ]
      }
    },
    {
      "type": "Feature",
      "properties": {
        "title": "Moon at Victoria Ave",
        "tag": "victmoon",
        "stopId": "33816"
      },
      "geometry": {
        "type": "Point",
        "coordinates": [
          -119.2104896,
          34.2559391
        ]
      }
    },
    {
      "type": "Feature",
      "properties": {
        "title": "Grand at Bristol",
        "tag": "granbris",
        "stopId": "33815"
      },
      "geometry": {
        "type": "Point",
        "coordinates": [
          -119.207179,
          34.253069
        ]
      }
    },
    {
      "type": "Feature",
      "properties": {
        "title": "Bristol at Hill",
        "tag": "bristhill",
        "stopId": "33814"
      },
      "geometry": {
        "type": "Point",
        "coordinates": [
          -119.2035882,
          34.2535703
        ]
      }
    },
    {
      "type": "Feature",
      "properties": {
        "title": "Johnson Dr at Hummingbird",
        "tag": "johnhumm",
        "stopId": "33813"
      },
      "geometry": {
        "type": "Point",
        "coordinates": [
          -119.19743,
          34.25324
        ]
      }
    },
    {
      "type": "Feature",
      "properties": {
        "title": "Johnson Dr at Crescent",
        "tag": "johncres",
        "stopId": "33907"
      },
      "geometry": {
        "type": "Point",
        "coordinates": [
          -119.1965792,
          34.2501868
        ]
      }
    },
    {
      "type": "Feature",
      "properties": {
        "title": "Johnson Dr at Northbank (Toys-R-Us)",
        "tag": "johnnort1_s",
        "stopId": "33908"
      },
      "geometry": {
        "type": "Point",
        "coordinates": [
          -119.1959196,
          34.2479494
        ]
      }
    },
    {
      "type": "Feature",
      "properties": {
        "title": "Johnson Dr at Northbank (Motel 6)",
        "tag": "johnnort2_s",
        "stopId": "33909"
      },
      "geometry": {
        "type": "Point",
        "coordinates": [
          -119.19495,
          34.2469
        ]
      }
    },
    {
      "type": "Feature",
      "properties": {
        "title": "Underpass Road at Spur Road",
        "tag": "undespur",
        "stopId": "33910"
      },
      "geometry": {
        "type": "Point",
        "coordinates": [
          -119.1811407,
          34.235423
        ]
      }
    },
    {
      "type": "Feature",
      "properties": {
        "title": "Esplanade Dr at 24 Hour Fitness",
        "tag": "espl24hr",
        "stopId": "33912"
      },
      "geometry": {
        "type": "Point",
        "coordinates": [
          -119.1785254,
          34.2332002
        ]
      }
    },
    {
      "type": "Feature",
      "properties": {
        "title": "Esplanade at Target",
        "tag": "espl_sb",
        "stopId": "33911"
      },
      "geometry": {
        "type": "Point",
        "coordinates": [
          -119.17615,
          34.2318799
        ]
      }
    },
    {
      "type": "Feature",
      "properties": {
        "title": "Vineyard Ave at Esplanade",
        "tag": "vineespl",
        "stopId": "33913"
      },
      "geometry": {
        "type": "Point",
        "coordinates": [
          -119.1749837,
          34.2298058
        ]
      }
    },
    {
      "type": "Feature",
      "properties": {
        "title": "Oxnard Blvd at Vineyard Ave",
        "tag": "oxnavine",
        "stopId": "33914"
      },
      "geometry": {
        "type": "Point",
        "coordinates": [
          -119.1771893,
          34.2251933
        ]
      }
    },
    {
      "type": "Feature",
      "properties": {
        "title": "Citrus Grove at Oxnard",
        "tag": "citruoxna",
        "stopId": "33808"
      },
      "geometry": {
        "type": "Point",
        "coordinates": [
          -119.1788288,
          34.2211601
        ]
      }
    },
    {
      "type": "Feature",
      "properties": {
        "title": "C St at Citrus Grove",
        "tag": "ccitrus",
        "stopId": "33915"
      },
      "geometry": {
        "type": "Point",
        "coordinates": [
          -119.18086,
          34.22068
        ]
      }
    },
    {
      "type": "Feature",
      "properties": {
        "title": "C St at Ivywood",
        "tag": "civyw",
        "stopId": "33806"
      },
      "geometry": {
        "type": "Point",
        "coordinates": [
          -119.18091,
          34.2160174
        ]
      }
    },
    {
      "type": "Feature",
      "properties": {
        "title": "C St at Glenwood",
        "tag": "cglen",
        "stopId": "33805"
      },
      "geometry": {
        "type": "Point",
        "coordinates": [
          -119.18095,
          34.2143894
        ]
      }
    },
    {
      "type": "Feature",
      "properties": {
        "title": "C St at Devonshire",
        "tag": "cdevon",
        "stopId": "33916"
      },
      "geometry": {
        "type": "Point",
        "coordinates": [
          -119.18097,
          34.2117642
        ]
      }
    },
    {
      "type": "Feature",
      "properties": {
        "title": "C St at Roderick",
        "tag": "croderick",
        "stopId": "33917"
      },
      "geometry": {
        "type": "Point",
        "coordinates": [
          -119.18099,
          34.2098955
        ]
      }
    },
    {
      "type": "Feature",
      "properties": {
        "title": "C St at Doris",
        "tag": "cdoris",
        "stopId": "33803"
      },
      "geometry": {
        "type": "Point",
        "coordinates": [
          -119.18102,
          34.2080097
        ]
      }
    },
    {
      "type": "Feature",
      "properties": {
        "title": "C St at Palm",
        "tag": "cpalm",
        "stopId": "33802"
      },
      "geometry": {
        "type": "Point",
        "coordinates": [
          -119.18105,
          34.2051506
        ]
      }
    },
    {
      "type": "Feature",
      "properties": {
        "title": "C St at First",
        "tag": "cfirst",
        "stopId": "33801"
      },
      "geometry": {
        "type": "Point",
        "coordinates": [
          -119.1810901,
          34.2026449
        ]
      }
    },
    {
      "type": "Feature",
      "properties": {
        "title": "C St at Third",
        "tag": "cthird",
        "stopId": "33800"
      },
      "geometry": {
        "type": "Point",
        "coordinates": [
          -119.18111,
          34.2005445
        ]
      }
    },
    {
      "type": "Feature",
      "properties": {
        "title": "Fourth St at B",
        "tag": "4thb_s",
        "stopId": "35113"
      },
      "geometry": {
        "type": "Point",
        "coordinates": [
          -119.179517,
          34.19897
        ]
      }
    },
    {
      "type": "Feature",
      "properties": {
        "title": "C St Terminal",
        "tag": "155cstte",
        "stopId": "31000"
      },
      "geometry": {
        "type": "Point",
        "coordinates": [
          -119.18119,
          34.1755599
        ]
      }
    },
    {
      "type": "Feature",
      "properties": {
        "title": "Saviers Rd at Laurel",
        "tag": "2savie",
        "stopId": "33101"
      },
      "geometry": {
        "type": "Point",
        "coordinates": [
          -119.1777006,
          34.17731
        ]
      }
    },
    {
      "type": "Feature",
      "properties": {
        "title": "Saviers Rd at Channel Islands",
        "tag": "11savie",
        "stopId": "33102"
      },
      "geometry": {
        "type": "Point",
        "coordinates": [
          -119.1777105,
          34.1727416
        ]
      }
    },