{
  "type": "FeatureCollection",
  "features": [
    {
      "type": "Feature",
      "properties": {
        "title": "Marshak Building",
        "tag": "marshak_d",
        "stopId": "0627"
      },
      "geometry": {
        "type": "Point",
        "coordinates": [
          -73.9497415,
          40.8197902
        ]
      }
    },
    {
      "type": "Feature",
      "properties": {
        "title": "145th Street",
        "tag": "145th",
        "stopId": "0145"
      },
      "geometry": {
        "type": "Point",
        "coordinates": [
          -73.94482,
          40.82405
        ]
      }
    },
    {
      "type": "Feature",
      "properties": {
        "title": "Marshak South",
        "tag": "marshak",
        "stopId": "0627"
      },
      "geometry": {
        "type": "Point",
        "coordinates": [
          -73.950055,
          40.819476
        ]
      }
    },
    {
      "type": "Feature",
      "properties": {
        "title": "Chuckie Cheese",
        "tag": "125th",
        "stopId": "0125"
      },
      "geometry": {
        "type": "Point",
        "coordinates": [
          -73.952902,
          40.8102719
        ]
      }
    },
    {
      "type": "Feature",
      "properties": {
        "title": "Spitzer",
        "tag": "spitzer",
        "stopId": "0772"
      },
      "geometry": {
        "type": "Point",
        "coordinates": [
          -73.95064,
          40.8185427
        ]
      }
    },
    {
      "type": "Feature",
      "properties": {
        "title": "401 West 130th Street",
        "tag": "130th_d",
        "stopId": "0126"
      },
      "geometry": {
        "type": "Point",
        "coordinates": [
          -73.950604,
          40.814579
        ]
      }
    },
    {
      "type": "Feature",
      "properties": {
        "title": "145th and St. Nicholas Ave",
        "tag": "145thnich",
        "stopId": "0145"
      },
      "geometry": {
        "type": "Point",
        "coordinates": [
          -73.9448548,
          40.8238901
        ]
      }
    }
  ],
  "copyright": "All data copyright City College NYC 2020."
}