{
  "data": {
    "batctr": {
      "routes": {
        "1": {
          "": true
        },
        "2": {
          "": true
        },
        "3": {
          "": true
        },
        "4": {
          "": true
        },
        "5": {
          "": true
        },
        "6": {
          "": true
        },
        "8": {
          "": true
        },
        "9": {
          "": true
        },
        "10": {
          "": true
        },
        "11": {
          "": true
        },
        "12": {
          "": true
        },
        "4A": {
          "": true
        },
        "12expr": {
          "": true
        },
        "sun56": {
          "": true
        },
        "sun1011": {
          "": true
        }
      },
      "stopId": "001",
      "lon": "-71.0155155",
      "tag": "batctr",
      "title": "Bat Center",
      "lat": "42.0850102",
      "scheduleRoutes": {
        "1": {
          "walmart": {}
        },
        "2": {
          "kmart": {}
        },
        "3": {
          "vethosp": {}
        },
        "4": {
          "walms": {}
        },
        "5": {
          "walmart": {}
        },
        "6": {
          "masscsu": {}
        },
        "8": {
          "eastbuck": {}
        },
        "9": {
          "110libers": {}
        },
        "11": {
          "ncaramar": {}
        },
        "12": {
          "ashmont": {
            "wkd": [
              "05:00:00",
              "05:15:00",
              "05:30:00",
              "06:00:00",
              "06:00:00",
              "06:30:00",
              "06:40:00",
              "07:00:00",
              "07:00:00",
              "07:00:00",
              "07:30:00",
              "08:00:00",
              "08:00:00",
              "08:30:00",
              "08:45:00",
              "09:00:00",
              "09:30:00",
              "10:00:00",
              "10:30:00",
              "11:00:00",
              "11:30:00",
              "12:00:00",
              "12:30:00",
              "12:40:00",
              "13:00:00",
              "13:30:00",
              "13:30:00",
              "14:00:00",
              "14:30:00",
              "15:00:00",
              "15:10:00",
              "15:30:00",
              "15:35:00",
              "15:45:00",
              "16:00:00",
              "16:30:00",
              "17:00:00",
              "17:15:00",
              "17:30:00",
              "17:40:00",
              "18:00:00",
              "18:30:00",
              "19:00:00",
              "19:30:00",
              "20:00:00",
              "21:00:00",
              "21:45:00",
              "22:45:00"
            ],
            "sat": [
              "05:20:00",
              "06:00:00",
              "06:40:00",
              "07:00:00",
              "08:00:00",
              "08:40:00",
              "09:00:00",
              "10:00:00",
              "11:00:00",
              "12:00:00",
              "13:00:00",
              "14:00:00",
              "14:30:00",
              "15:00:00",
              "16:00:00",
              "17:00:00",
              "18:00:00",
              "19:00:00",
              "20:00:00",
              "21:00:00",
              "22:00:00"
            ],
            "sun": [
              "10:20:00",
              "11:40:00",
              "12:20:00",
              "13:40:00",
              "14:20:00",
              "15:40:00",
              "16:20:00",
              "17:40:00"
            ]
          }
        },
        "4A": {
          "westdent": {}
        },
        "12expr": {
          "ashmont": {}
        },
        "sun56": {
          "walmart": {}
        },
        "sun1011": {
          "stopshop": {}
        }
      }
    },
    "commscho": {
      "routes": {
        "1": {
          "": true
        },
        "3": {
          "": true
        }
      },
      "stopId": "002",
      "lon": "-71.0153692",
      "tag": "commscho",
      "shortTitle": "Commercial & School",
      "title": "Commercial St and School St",
      "lat": "42.0817193"
    },
    "scholinc": {
      "routes": {
        "1": {
          "": true
        }
      },
      "stopId": "003",
      "lon": "-71.0184096",
      "tag": "scholinc",
      "shortTitle": "School & Lincoln",
      "title": "School St and Lincoln St",
      "lat": "42.0829268"
    },
    "maincent": {
      "routes": {
        "1": {
          "": true
        }
      },
      "stopId": "004",
      "lon": "-71.019773",
      "tag": "maincent",
      "shortTitle": "Main & Centre",
      "title": "Main St and Centre St",
      "lat": "42.0840196"
    },
    "mainpetr": {
      "routes": {
        "1": {
          "": true
        }
      },
      "stopId": "005",
      "lon": "-71.0197882",
      "tag": "mainpetr",
      "shortTitle": "Main & Petronelli Way",
      "title": "Main St and Petronelli Way",
      "lat": "42.0847049"
    },
    "maincour": {
      "routes": {
        "1": {
          "": true
        }
      },
      "stopId": "006",
      "lon": "-71.0198083",
      "tag": "maincour",
      "shortTitle": "Main & Court",
      "title": "Main St and Court St",
      "lat": "42.0855044"
    },
    "nmailind": {
      "routes": {
        "1": {
          "": true
        }
      },
      "stopId": "007",
      "lon": "-71.0193349",
      "tag": "nmailind",
      "shortTitle": "North Main & Linden",
      "title": "North Main St and Linden St",
      "lat": "42.0875791"
    },
    "nmaiross": {
      "routes": {
        "1": {
          "": true
        }
      },
      "stopId": "008",
      "lon": "-71.0192358",
      "tag": "nmaiross",
      "shortTitle": "North Main & Rosseter",
      "title": "North Main St and Rosseter St",
      "lat": "42.0897431"
    },
    "nmaielli": {
      "routes": {
        "1": {
          "": true
        }
      },
      "stopId": "009",
      "lon": "-71.0192058",
      "tag": "nmaielli",
      "shortTitle": "North Main & Elliot",
      "title": "North Main St and Elliot St",
      "lat": "42.0908081"
    },
    "nmaileba": {
      "routes": {
        "1": {
          "": true
        }
      },
      "stopId": "010",
      "lon": "-71.0192071",
      "tag": "nmaileba",
      "shortTitle": "North Main & Lebanon",
      "title": "North Main St and Lebanon St",
      "lat": "42.0923808"
    },
    "nmaieash": {
      "routes": {
        "1": {
          "": true
        }
      },
      "stopId": "011",
      "lon": "-71.0192129",
      "tag": "nmaieash",
      "shortTitle": "North Main & East Ashland",
      "title": "North Main St and East Ashland St",
      "lat": "42.0934867"
    },
    "nmaisnow": {
      "routes": {
        "1": {
          "": true
        }
      },
      "stopId": "012",
      "lon": "-71.019223",
      "tag": "nmaisnow",
      "shortTitle": "North Main & Snow",
      "title": "North Main St and Snow Ave",
      "lat": "42.095371"
    },
    "nmaibatt_o": {
      "routes": {
        "1": {
          "": true
        }
      },
      "stopId": "013",
      "lon": "-71.0188573",
      "tag": "nmaibatt_o",
      "shortTitle": "North Main & Battles",
      "title": "North Main St and Battles St",
      "lat": "42.0972358"
    },
    "nmaiemai": {
      "routes": {
        "1": {
          "": true
        }
      },
      "stopId": "014",
      "lon": "-71.0196891",
      "tag": "nmaiemai",
      "shortTitle": "North Main & East Main",
      "title": "North Main St and East Main St",
      "lat": "42.0986698"
    },
    "nmaivine_o": {
      "routes": {
        "1": {
          "": true
        }
      },
      "stopId": "015",
      "lon": "-71.0209584",
      "tag": "nmaivine_o",
      "shortTitle": "North Main & Vine",
      "title": "North Main St and Vine St",
      "lat": "42.100533"
    },
    "nmaiames": {
      "routes": {
        "1": {
          "": true
        }
      },
      "stopId": "016",
      "lon": "-71.0212921",
      "tag": "nmaiames",
      "shortTitle": "North Main & Ames",
      "title": "North Main St and Ames St",
      "lat": "42.1010267"
    },
    "nmaiemer": {
      "routes": {
        "1": {
          "": true
        }
      },
      "stopId": "017",
      "lon": "-71.0232462",
      "tag": "nmaiemer",
      "shortTitle": "North Main & Emerson",
      "title": "North Main St and Emerson Ave",
      "lat": "42.1033771"
    },
    "nmaifiel": {
      "routes": {
        "1": {
          "": true
        }
      },
      "stopId": "018",
      "lon": "-71.0244369",
      "tag": "nmaifiel",
      "shortTitle": "North Main & Field",
      "title": "North Main St and Field St",
      "lat": "42.1043482"
    },
    "nmaihowa": {
      "routes": {
        "1": {
          "": true
        }
      },
      "stopId": "019",
      "lon": "-71.025601",
      "tag": "nmaihowa",
      "shortTitle": "North Main & Howard",
      "title": "North Main St and Howard St",
      "lat": "42.1052281"
    },
    "nmaisnel": {
      "routes": {
        "1": {
          "": true
        }
      },
      "stopId": "020",
      "lon": "-71.0271265",
      "tag": "nmaisnel",
      "shortTitle": "North Main & Snell",
      "title": "North Main St and Snell St",
      "lat": "42.1063999"
    },
    "nmaialbo": {
      "routes": {
        "1": {
          "": true
        }
      },
      "stopId": "021",
      "lon": "-71.0287049",
      "tag": "nmaialbo",
      "shortTitle": "North Main & Albion",
      "title": "North Main St and Albion St",
      "lat": "42.1075861"
    },
    "nmaiwald": {
      "routes": {
        "1": {
          "": true
        },
        "12": {
          "": true
        }
      },
      "stopId": "022",
      "lon": "-71.0319322",
      "tag": "nmaiwald",
      "shortTitle": "North Main & Waldo",
      "title": "North Main St and Waldo St",
      "lat": "42.1103569"
    },
    "nmaifran": {
      "routes": {
        "1": {
          "": true
        }
      },
      "stopId": "023",
      "lon": "-71.0323623",
      "tag": "nmaifran",
      "shortTitle": "North Main & Frankton",
      "title": "North Main St and Frankton St",
      "lat": "42.1110468"
    },
    "nmaiaugu": {
      "routes": {
        "1": {
          "": true
        }
      },
      "stopId": "024",
      "lon": "-71.0332823",
      "tag": "nmaiaugu",
      "shortTitle": "North Main & Augustine",
      "title": "North Main St and Augustine St",
      "lat": "42.1126268"
    },
    "nmaiwild": {
      "routes": {
        "1": {
          "": true
        }
      },
      "stopId": "025",
      "lon": "-71.0337423",
      "tag": "nmaiwild",
      "shortTitle": "North Main & Wilder",
      "title": "North Main St and Wilder St",
      "lat": "42.1134268"
    },
    "emaiflet": {
      "routes": {
        "1": {
          "": true
        }
      },
      "stopId": "026",
      "lon": "-71.0340679",
      "tag": "emaiflet",
      "shortTitle": "East Main & Fletcher",
      "title": "East Main St and Fletcher Rd",
      "lat": "42.1152024"
    },
    "emaiconn": {
      "routes": {
        "1": {
          "": true
        }
      },
      "stopId": "027",
      "lon": "-71.0336722",
      "tag": "emaiconn",
      "shortTitle": "East Main & Connolly",
      "title": "East Main St and Connolly Rd",
      "lat": "42.1170333"
    },
    "emailamb": {
      "routes": {
        "1": {
          "": true
        }
      },
      "stopId": "028",
      "lon": "-71.0333217",
      "tag": "emailamb",
      "shortTitle": "East Main & Lambert Dr",
      "title": "East Main St and Lambert Dr",
      "lat": "42.1188733"
    },
    "emaimemo": {
      "routes": {
        "1": {
          "": true
        }
      },
      "stopId": "029",
      "lon": "-71.0341961",
      "tag": "emaimemo",
      "shortTitle": "East Main & Memorial Dr",
      "title": "East Main St and Memorial Dr",
      "lat": "42.1225519"
    },
    "walmart": {
      "routes": {
        "1": {
          "": true
        },
        "5": {
          "": true
        },
        "sun56": {
          "": true
        }
      },
      "stopId": "030",
      "lon": "-71.0308189",
      "tag": "walmart",
      "title": "Walmart",
      "lat": "42.12128",
      "scheduleRoutes": {
        "1": {
          "batctr": {}
        },
        "5": {
          "cresotis": {}
        },
        "sun56": {
          "batctr": {}
        }
      }
    },
    "wmaisout": {
      "routes": {
        "1": {
          "": true
        }
      },
      "stopId": "031",
      "lon": "-71.0395873",
      "tag": "wmaisout",
      "shortTitle": "West Main & South",
      "title": "West Main St and South St",
      "lat": "42.1197684"
    },
    "wmaiglen": {
      "routes": {
        "1": {
          "": true
        },
        "12": {
          "": true
        }
      },
      "stopId": "032",
      "lon": "-71.0391342",
      "tag": "wmaiglen",
      "shortTitle": "West Main & Glendower",
      "title": "West Main St and Glendower St",
      "lat": "42.1190324"
    },
    "manguire": {
      "routes": {
        "1": {
          "": true
        }
      },
      "stopId": "033",
      "lon": "-71.0351674",
      "tag": "manguire",
      "shortTitle": "Maguire",
      "title": "Maguire Road",
      "lat": "42.1148523"
    },
    "wmaiemai": {
      "routes": {
        "1": {
          "": true
        }
      },
      "stopId": "034",
      "lon": "-71.0344803",
      "tag": "wmaiemai",
      "shortTitle": "West Main & East Main",
      "title": "West Main St and East Main St",
      "lat": "42.1141413"
    },
    "nmaiburk": {
      "routes": {
        "1": {
          "": true
        }
      },
      "stopId": "035",
      "lon": "-71.0340113",
      "tag": "nmaiburk",
      "shortTitle": "North Main & Burkeside",
      "title": "North Main St and Burkeside Ave",
      "lat": "42.1135584"
    },
    "nmaihill": {
      "routes": {
        "1": {
          "": true
        }
      },
      "stopId": "036",
      "lon": "-71.0335393",
      "tag": "nmaihill",
      "shortTitle": "North Main & Hillcrest",
      "title": "North Main St and Hillcrest Ave",
      "lat": "42.1127965"
    },
    "nmaiwood": {
      "routes": {
        "1": {
          "": true
        }
      },
      "stopId": "037",
      "lon": "-71.0327292",
      "tag": "nmaiwood",
      "shortTitle": "North Main & Woodland",
      "title": "North Main St and Woodland Ave",
      "lat": "42.1113384"
    },
    "nmaimann": {
      "routes": {
        "1": {
          "": true
        }
      },
      "stopId": "038",
      "lon": "-71.0318303",
      "tag": "nmaimann",
      "shortTitle": "North Main & Manners",
      "title": "North Main St and Manners Ave",
      "lat": "42.1099894"
    },
    "nmaiwill": {
      "routes": {
        "1": {
          "": true
        }
      },
      "stopId": "039",
      "lon": "-71.0306055",
      "tag": "nmaiwill",
      "shortTitle": "North Main & Willow",
      "title": "North Main St and Willow St",
      "lat": "42.1088453"
    },
    "nmaimay": {
      "routes": {
        "1": {
          "": true
        }
      },
      "stopId": "040",
      "lon": "-71.0290735",
      "tag": "nmaimay",
      "shortTitle": "North Main & May",
      "title": "North Main St and May Ave",
      "lat": "42.1076773"
    },
    "nmaisear": {
      "routes": {
        "1": {
          "": true
        }
      },
      "stopId": "041",
      "lon": "-71.0277535",
      "tag": "nmaisear",
      "shortTitle": "North Main & Searles",
      "title": "North Main St and Searles Ave",
      "lat": "42.1066863"
    },
    "nmaimart": {
      "routes": {
        "1": {
          "": true
        }
      },
      "stopId": "042",
      "lon": "-71.0268795",
      "tag": "nmaimart",
      "shortTitle": "North Main & Martland",
      "title": "North Main St and Martland Ave",
      "lat": "42.1060413"
    },
    "nmaioak": {
      "routes": {
        "1": {
          "": true
        },
        "12": {
          "": true
        }
      },
      "stopId": "043",
      "lon": "-71.0255514",
      "tag": "nmaioak",
      "shortTitle": "North Main & Oak",
      "title": "North Main St and Oak St",
      "lat": "42.1050263"
    },
    "nmaiherr": {
      "routes": {
        "1": {
          "": true
        }
      },
      "stopId": "044",
      "lon": "-71.0238164",
      "tag": "nmaiherr",
      "shortTitle": "North Main & Herrod",
      "title": "North Main St and Herrod Ave",
      "lat": "42.1037363"
    },
    "nmairutl": {
      "routes": {
        "1": {
          "": true
        }
      },
      "stopId": "045",
      "lon": "-71.0229313",
      "tag": "nmairutl",
      "shortTitle": "North Main & Rutland",
      "title": "North Main St and Rutland St",
      "lat": "42.1027854"
    },
    "nmaivine": {
      "routes": {
        "1": {
          "": true
        }
      },
      "stopId": "046",
      "lon": "-71.0211913",
      "tag": "nmaivine",
      "shortTitle": "North Main & Vine",
      "title": "North Main St and Vine St",
      "lat": "42.1006234"
    },
    "nmaiupla": {
      "routes": {
        "1": {
          "": true
        }
      },
      "stopId": "047",
      "lon": "-71.0206992",
      "tag": "nmaiupla",
      "shortTitle": "North Main & Upland",
      "title": "North Main St and Upland Road",
      "lat": "42.0997605"
    },
    "nmailand": {
      "routes": {
        "1": {
          "": true
        }
      },
      "stopId": "048",
      "lon": "-71.0202062",
      "tag": "nmailand",
      "shortTitle": "North Main & Landsdowne",
      "title": "North Main St and Landsdowne St",
      "lat": "42.0989144"
    },
    "nmaibatt": {
      "routes": {
        "1": {
          "": true
        }
      },
      "stopId": "049",
      "lon": "-71.0196519",
      "tag": "nmaibatt",
      "shortTitle": "North Main & Battles",
      "title": "North Main St and Battles St",
      "lat": "42.0972511"
    },
    "nmaidivi": {
      "routes": {
        "1": {
          "": true
        }
      },
      "stopId": "050",
      "lon": "-71.019492",
      "tag": "nmaidivi",
      "shortTitle": "North Main & Division",
      "title": "North Main St and Division St",
      "lat": "42.0963495"
    },
    "nmaiford": {
      "routes": {
        "1": {
          "": true
        }
      },
      "stopId": "051",
      "lon": "-71.0193879",
      "tag": "nmaiford",
      "shortTitle": "North Main & Ford",
      "title": "North Main St and Ford St",
      "lat": "42.0945005"
    },
    "nmaiwash": {
      "routes": {
        "1": {
          "": true
        }
      },
      "stopId": "052",
      "lon": "-71.0193899",
      "tag": "nmaiwash",
      "shortTitle": "North Main & West Ashland",
      "title": "North Main St and West Ashland St",
      "lat": "42.0937305"
    },
    "nmaihunt": {
      "routes": {
        "1": {
          "": true
        }
      },
      "stopId": "053",
      "lon": "-71.0193979",
      "tag": "nmaihunt",
      "shortTitle": "North Main & Huntington",
      "title": "North Main St and Huntington St",
      "lat": "42.0929935"
    },
    "nmaifarr": {
      "routes": {
        "1": {
          "": true
        }
      },
      "stopId": "054",
      "lon": "-71.019383",
      "tag": "nmaifarr",
      "shortTitle": "North Main & Farrington",
      "title": "North Main St and Farrington St",
      "lat": "42.0924395"
    },
    "nmaipros": {
      "routes": {
        "1": {
          "": true
        }
      },
      "stopId": "055",
      "lon": "-71.0193464",
      "tag": "nmaipros",
      "shortTitle": "North Main & Prospect",
      "title": "North Main St and Prospect St",
      "lat": "42.0913823"
    },
    "nmaifalm": {
      "routes": {
        "1": {
          "": true
        }
      },
      "stopId": "056",
      "lon": "-71.019345",
      "tag": "nmaifalm",
      "shortTitle": "North Main & Falmouth",
      "title": "North Main St and Falmouth Ave",
      "lat": "42.0902435"
    },
    "nmaiwyma": {
      "routes": {
        "1": {
          "": true
        }
      },
      "stopId": "057",
      "lon": "-71.019338",
      "tag": "nmaiwyma",
      "shortTitle": "North Main & Wyman",
      "title": "North Main St and Wyman St",
      "lat": "42.0891505"
    },
    "nmaihave": {
      "routes": {
        "1": {
          "": true
        }
      },
      "stopId": "058",
      "lon": "-71.0194042",
      "tag": "nmaihave",
      "shortTitle": "North Main & Haverhill",
      "title": "North Main St and Haverhill St",
      "lat": "42.0878218"
    },
    "lindnmon": {
      "routes": {
        "1": {
          "": true
        }
      },
      "stopId": "059",
      "lon": "-71.0174303",
      "tag": "lindnmon",
      "shortTitle": "Linden & North Montello",
      "title": "Linden St and North Montello St",
      "lat": "42.0871754"
    },
    "nmoncour": {
      "routes": {
        "1": {
          "": true
        }
      },
      "stopId": "060",
      "lon": "-71.0171191",
      "tag": "nmoncour",
      "shortTitle": "North Montello & Court",
      "title": "North Montello St and Court St",
      "lat": "42.0856552"
    },
    "montscho": {
      "routes": {
        "2": {
          "": true
        }
      },
      "stopId": "070",
      "lon": "-71.017279",
      "tag": "montscho",
      "shortTitle": "Montello & School",
      "title": "Montello St and School St",
      "lat": "42.0824277"
    },
    "cresvfwp": {
      "routes": {
        "2": {
          "": true
        }
      },
      "stopId": "071",
      "lon": "-71.0187212",
      "tag": "cresvfwp",
      "shortTitle": "Crescent & VFW Pkwy",
      "title": "Crescent St and VFW Pkwy",
      "lat": "42.0813369"
    },
    "maplmain": {
      "routes": {
        "2": {
          "": true
        }
      },
      "stopId": "072",
      "lon": "-71.0201684",
      "tag": "maplmain",
      "shortTitle": "Maple & Main",
      "title": "Maple Ave and Main St",
      "lat": "42.0799587"
    },
    "mainbarl": {
      "routes": {
        "2": {
          "": true
        }
      },
      "stopId": "073",
      "lon": "-71.0199581",
      "tag": "mainbarl",
      "shortTitle": "Main & Barlett",
      "title": "Main St and Barlett St",
      "lat": "42.0787155"
    },
    "mainpark": {
      "routes": {
        "2": {
          "": true
        }
      },
      "stopId": "074",
      "lon": "-71.0197558",
      "tag": "mainpark",
      "shortTitle": "Main & Park",
      "title": "Main St and Park St",
      "lat": "42.0775613"
    },
    "maindove": {
      "routes": {
        "2": {
          "": true
        }
      },
      "stopId": "075",
      "lon": "-71.019331",
      "tag": "maindove",
      "shortTitle": "Main & Dover",
      "title": "Main St and Dover St",
      "lat": "42.075175"
    },
    "mainwill": {
      "routes": {
        "2": {
          "": true
        }
      },
      "stopId": "076",
      "lon": "-71.0190865",
      "tag": "mainwill",
      "shortTitle": "Main & Williams Pl",
      "title": "Main St and Williams Pl",
      "lat": "42.0740097"
    },
    "mainfore": {
      "routes": {
        "2": {
          "": true
        }
      },
      "stopId": "077",
      "lon": "-71.0189191",
      "tag": "mainfore",
      "shortTitle": "Main & Forest",
      "title": "Main St and Forest Ave",
      "lat": "42.0732605"
    },
    "maindavi": {
      "routes": {
        "2": {
          "": true
        }
      },
      "stopId": "078",
      "lon": "-71.0182786",
      "tag": "maindavi",
      "shortTitle": "Main & David",
      "title": "Main St and David St",
      "lat": "42.0710545"
    },
    "mainshep": {
      "routes": {
        "2": {
          "": true
        }
      },
      "stopId": "079",
      "lon": "-71.0178596",
      "tag": "mainshep",
      "shortTitle": "Main & Sheppard",
      "title": "Main St and Sheppard St",
      "lat": "42.0700511"
    },
    "maintrib": {
      "routes": {
        "2": {
          "": true
        }
      },
      "stopId": "080",
      "lon": "-71.0176718",
      "tag": "maintrib",
      "shortTitle": "Main & Tribou",
      "title": "Main St and Tribou St",
      "lat": "42.0695382"
    },
    "mainnils": {
      "routes": {
        "2": {
          "": true
        }
      },
      "stopId": "081",
      "lon": "-71.0171063",
      "tag": "mainnils",
      "shortTitle": "Main & Nilsson",
      "title": "Main St and Nilsson St",
      "lat": "42.0679839"
    },
    "maincalm": {
      "routes": {
        "2": {
          "": true
        }
      },
      "stopId": "082",
      "lon": "-71.0165005",
      "tag": "maincalm",
      "shortTitle": "Main & Calmar",
      "title": "Main St and Calmar St",
      "lat": "42.0663186"
    },
    "mainwche": {
      "routes": {
        "2": {
          "": true
        }
      },
      "stopId": "083",
      "lon": "-71.0158007",
      "tag": "mainwche",
      "shortTitle": "Main & West Chestnut",
      "title": "Main St and West Chestnut St",
      "lat": "42.0644183"
    },
    "mainsout": {
      "routes": {
        "2": {
          "": true
        }
      },
      "stopId": "084",
      "lon": "-71.0154783",
      "tag": "mainsout",
      "shortTitle": "Main & South",
      "title": "Main St and South St",
      "lat": "42.0635033"
    },
    "mainlyon": {
      "routes": {
        "2": {
          "": true
        }
      },
      "stopId": "085",
      "lon": "-71.0147763",
      "tag": "mainlyon",
      "shortTitle": "Main & Lyon",
      "title": "Main St and Lyon St",
      "lat": "42.0615999"
    },
    "mainclif": {
      "routes": {
        "2": {
          "": true
        }
      },
      "stopId": "086",
      "lon": "-71.0143684",
      "tag": "mainclif",
      "shortTitle": "Main & Clifton",
      "title": "Main St and Clifton Ave",
      "lat": "42.0603677"
    },
    "mainglen": {
      "routes": {
        "2": {
          "": true
        }
      },
      "stopId": "087",
      "lon": "-71.0137841",
      "tag": "mainglen",
      "shortTitle": "Main & Glen",
      "title": "Main St and Glen Ave",
      "lat": "42.0585906"
    },
    "compello": {
      "routes": {
        "2": {
          "": true
        }
      },
      "stopId": "088",
      "lon": "-71.0135772",
      "tag": "compello",
      "title": "Campello Hi Rise",
      "lat": "42.0579291"
    },
    "mainbroo": {
      "routes": {
        "2": {
          "": true
        }
      },
      "stopId": "089",
      "lon": "-71.013323",
      "tag": "mainbroo",
      "shortTitle": "Main & Brookside",
      "title": "Main St and Brookside Ave",
      "lat": "42.057154"
    },
    "mainwats": {
      "routes": {
        "2": {
          "": true
        }
      },
      "stopId": "090",
      "lon": "-71.0129369",
      "tag": "mainwats",
      "shortTitle": "Main & Watson",
      "title": "Main St and Watson St",
      "lat": "42.0560147"
    },
    "mainholm": {
      "routes": {
        "2": {
          "": true
        }
      },
      "stopId": "091",
      "lon": "-71.0126064",
      "tag": "mainholm",
      "shortTitle": "Main & Holmes",
      "title": "Main St and Holmes St",
      "lat": "42.0552773"
    },
    "mainthay": {
      "routes": {
        "2": {
          "": true
        }
      },
      "stopId": "092",
      "lon": "-71.0120529",
      "tag": "mainthay",
      "shortTitle": "Main & Thayer",
      "title": "Main St and Thayer Ave",
      "lat": "42.0539487"
    },
    "mainsylv": {
      "routes": {
        "2": {
          "": true
        }
      },
      "stopId": "093",
      "lon": "-71.0116589",
      "tag": "mainsylv",
      "shortTitle": "Main & Sylvia",
      "title": "Main St and Sylvia Ave",
      "lat": "42.0529065"
    },
    "maincvs": {
      "routes": {
        "2": {
          "": true
        }
      },
      "stopId": "094",
      "lon": "-71.0104758",
      "tag": "maincvs",
      "shortTitle": "Main @ CVS",
      "title": "Main St at CVS",
      "lat": "42.0468788"
    },
    "kmart": {
      "routes": {
        "2": {
          "": true
        }
      },
      "stopId": "095",
      "lon": "-71.011917",
      "tag": "kmart",
      "title": "Kmart Plaza",
      "lat": "42.045514"
    },
    "shawss": {
      "routes": {
        "2": {
          "": true
        },
        "bsu_28": {
          "": true
        }
      },
      "stopId": "096",
      "lon": "-71.009317",
      "tag": "shawss",
      "title": "BAT Centre",
      "lat": "42.042968",
      "scheduleRoutes": {
        "2": {
          "montscho": {}
        }
      }
    },
    "mainauto": {
      "routes": {
        "2": {
          "": true
        }
      },
      "stopId": "097",
      "lon": "-71.0097079",
      "tag": "mainauto",
      "shortTitle": "Main @ Auto Dealers",
      "title": "Main St at Auto Dealers",
      "lat": "42.0443598"
    },
    "mainwend": {
      "routes": {
        "2": {
          "": true
        }
      },
      "stopId": "098",
      "lon": "-71.0105739",
      "tag": "mainwend",
      "shortTitle": "Main @ Wendys",
      "title": "Main St at Wendys",
      "lat": "42.0476108"
    },
    "maindang": {
      "routes": {
        "2": {
          "": true
        }
      },
      "stopId": "099",
      "lon": "-71.0112469",
      "tag": "maindang",
      "shortTitle": "Main @ DAngelos",
      "title": "Main St at DAngelos",
      "lat": "42.0507838"
    },
    "mainsarg": {
      "routes": {
        "2": {
          "": true
        }
      },
      "stopId": "100",
      "lon": "-71.0116549",
      "tag": "mainsarg",
      "shortTitle": "Main & Sargeants Way",
      "title": "Main St and Sargeants Way",
      "lat": "42.0532378"
    },
    "mainmead": {
      "routes": {
        "2": {
          "": true
        }
      },
      "stopId": "101",
      "lon": "-71.0120599",
      "tag": "mainmead",
      "shortTitle": "Main & Meadow Ln",
      "title": "Main St and Meadow Ln",
      "lat": "42.0541938"
    },
    "maingarf": {
      "routes": {
        "2": {
          "": true
        }
      },
      "stopId": "102",
      "lon": "-71.0146799",
      "tag": "maingarf",
      "shortTitle": "Main & Garfield",
      "title": "Main St and Garfield St",
      "lat": "42.0616178"
    },
    "mainperk": {
      "routes": {
        "2": {
          "": true
        }
      },
      "stopId": "103",
      "lon": "-71.0153879",
      "tag": "mainperk",
      "shortTitle": "Main & Perkins",
      "title": "Main St and Perkins Ave",
      "lat": "42.0635668"
    },
    "maineche": {
      "routes": {
        "2": {
          "": true
        }
      },
      "stopId": "104",
      "lon": "-71.0156999",
      "tag": "maineche",
      "shortTitle": "Main & East Chestnut",
      "title": "Main St and East Chestnut St",
      "lat": "42.0644228"
    },
    "mainpink": {
      "routes": {
        "2": {
          "": true
        }
      },
      "stopId": "105",
      "lon": "-71.0161149",
      "tag": "mainpink",
      "shortTitle": "Main & Pinkham",
      "title": "Main St and Pinkham St",
      "lat": "42.0655308"
    },
    "maingran": {
      "routes": {
        "2": {
          "": true
        }
      },
      "stopId": "106",
      "lon": "-71.0173089",
      "tag": "maingran",
      "shortTitle": "Main & Grand",
      "title": "Main St and Grand St",
      "lat": "42.0688918"
    },
    "maintemp": {
      "routes": {
        "2": {
          "": true
        }
      },
      "stopId": "107",
      "lon": "-71.0176419",
      "tag": "maintemp",
      "shortTitle": "Main & Temple",
      "title": "Main St and Temple St",
      "lat": "42.0697433"
    },
    "maingrov": {
      "routes": {
        "2": {
          "": true
        }
      },
      "stopId": "108",
      "lon": "-71.0178861",
      "tag": "maingrov",
      "shortTitle": "Main & Grove",
      "title": "Main St and Grove St",
      "lat": "42.0703952"
    },
    "mainhanc": {
      "routes": {
        "2": {
          "": true
        }
      },
      "stopId": "109",
      "lon": "-71.0182659",
      "tag": "mainhanc",
      "shortTitle": "Main & Hancock",
      "title": "Main St and Hancock St",
      "lat": "42.0712948"
    },
    "mainmain": {
      "routes": {
        "2": {
          "": true
        }
      },
      "stopId": "110",
      "lon": "-71.0184873",
      "tag": "mainmain",
      "shortTitle": "Main & Main Pl",
      "title": "Main St and Main St Pl",
      "lat": "42.071885"
    },
    "packard": {
      "routes": {
        "2": {
          "": true
        }
      },
      "stopId": "111",
      "lon": "-71.0186879",
      "tag": "packard",
      "shortTitle": "Packard",
      "title": "Packard St",
      "lat": "42.0727618"
    },
    "mainunio": {
      "routes": {
        "2": {
          "": true
        }
      },
      "stopId": "112",
      "lon": "-71.0189339",
      "tag": "mainunio",
      "shortTitle": "Main & Union",
      "title": "Main St and Union St",
      "lat": "42.0738508"
    },
    "mainexch": {
      "routes": {
        "2": {
          "": true
        }
      },
      "stopId": "113",
      "lon": "-71.0193069",
      "tag": "mainexch",
      "shortTitle": "Main & Exchange",
      "title": "Main St and Exchange St",
      "lat": "42.0755848"
    },
    "mainlawr": {
      "routes": {
        "2": {
          "": true
        }
      },
      "stopId": "114",
      "lon": "-71.0195729",
      "tag": "mainlawr",
      "shortTitle": "Main & Lawrence",
      "title": "Main St and Lawrence St",
      "lat": "42.0771018"
    },
    "mainalle": {
      "routes": {
        "2": {
          "": true
        }
      },
      "stopId": "115",
      "lon": "-71.0197979",
      "tag": "mainalle",
      "shortTitle": "Main & Allen",
      "title": "Main St and Allen St",
      "lat": "42.0784018"
    },
    "mainwhit": {
      "routes": {
        "2": {
          "": true
        }
      },
      "stopId": "116",
      "lon": "-71.020016",
      "tag": "mainwhit",
      "shortTitle": "Main & White",
      "title": "Main St and White Ave",
      "lat": "42.0796815"
    },
    "mainwest": {
      "routes": {
        "2": {
          "": true
        }
      },
      "stopId": "117",
      "lon": "-71.019967",
      "tag": "mainwest",
      "shortTitle": "Main & West Elm",
      "title": "Main St and West Elm St",
      "lat": "42.0823138"
    },
    "centmont": {
      "routes": {
        "2": {
          "": true
        },
        "4": {
          "": true
        }
      },
      "stopId": "118",
      "lon": "-71.0174237",
      "tag": "centmont",
      "shortTitle": "Centre & Montello",
      "title": "Centre St and Montello St",
      "lat": "42.084025"
    },
    "legimain": {
      "routes": {
        "3": {
          "": true
        },
        "4": {
          "": true
        },
        "8": {
          "": true
        }
      },
      "stopId": "148",
      "lon": "-71.0200265",
      "tag": "legimain",
      "shortTitle": "Legion Parkway & Main",
      "title": "Legion Parkway and Main St",
      "lat": "42.0841406"
    },
    "legiwarr": {
      "routes": {
        "3": {
          "": true
        },
        "8": {
          "": true
        }
      },
      "stopId": "149",
      "lon": "-71.0228174",
      "tag": "legiwarr",
      "shortTitle": "Legion Parkway & Warren",
      "title": "Legion Parkway and Warren Ave",
      "lat": "42.084006"
    },
    "warrwelm": {
      "routes": {
        "3": {
          "": true
        },
        "8": {
          "": true
        }
      },
      "stopId": "150",
      "lon": "-71.023003",
      "tag": "warrwelm",
      "shortTitle": "Warren & West Elm",
      "title": "Warren Ave and West Elm St",
      "lat": "42.0819946"
    },
    "warrarno": {
      "routes": {
        "3": {
          "": true
        }
      },
      "stopId": "130",
      "lon": "-71.02292",
      "tag": "warrarno",
      "shortTitle": "Warren @ Arnone School",
      "title": "Warren Ave at Arnone School",
      "lat": "42.0806286"
    },
    "belmnewb_o": {
      "routes": {
        "3": {
          "": true
        }
      },
      "stopId": "151",
      "lon": "-71.0252932",
      "tag": "belmnewb_o",
      "shortTitle": "Belmont & Newbury",
      "title": "Belmont St and Newbury St",
      "lat": "42.0794971"
    },
    "belmwall": {
      "routes": {
        "3": {
          "": true
        }
      },
      "stopId": "152",
      "lon": "-71.0275462",
      "tag": "belmwall",
      "shortTitle": "Belmont & Wall",
      "title": "Belmont St and Wall St",
      "lat": "42.0789202"
    },
    "belmmino_o": {
      "routes": {
        "3": {
          "": true
        }
      },
      "stopId": "153",
      "lon": "-71.0294741",
      "tag": "belmmino_o",
      "shortTitle": "Belmont & Minot",
      "title": "Belmont St and Minot Ave",
      "lat": "42.078578"
    },
    "belmelm": {
      "routes": {
        "3": {
          "": true
        }
      },
      "stopId": "131",
      "lon": "-71.0307911",
      "tag": "belmelm",
      "shortTitle": "Belmont & Elm",
      "title": "Belmont St and Elm Ave",
      "lat": "42.0783511"
    },
    "belmbelm": {
      "routes": {
        "3": {
          "": true
        }
      },
      "stopId": "132",
      "lon": "-71.032173",
      "tag": "belmbelm",
      "shortTitle": "Belmont & Belmont",
      "title": "Belmont St and Belmont Ave",
      "lat": "42.0781221"
    },
    "belmash_o": {
      "routes": {
        "3": {
          "": true
        }
      },
      "stopId": "133",
      "lon": "-71.0343291",
      "tag": "belmash_o",
      "shortTitle": "Belmont & Ash",
      "title": "Belmont St and Ash St",
      "lat": "42.0776762"
    },
    "belmmora": {
      "routes": {
        "3": {
          "": true
        }
      },
      "stopId": "134",
      "lon": "-71.0361581",
      "tag": "belmmora",
      "shortTitle": "Belmont & Moraine",
      "title": "Belmont St and Moraine St",
      "lat": "42.0769153"
    },
    "belmthur_o": {
      "routes": {
        "3": {
          "": true
        }
      },
      "stopId": "135",
      "lon": "-71.0369181",
      "tag": "belmthur_o",
      "shortTitle": "Belmont & Thurber",
      "title": "Belmont St and Thurber Ave",
      "lat": "42.0766333"
    },
    "belmkene": {
      "routes": {
        "3": {
          "": true
        }
      },
      "stopId": "136",
      "lon": "-71.0376771",
      "tag": "belmkene",
      "shortTitle": "Belmont & Kenelworth",
      "title": "Belmont St and Kenelworth Ave",
      "lat": "42.0763283"
    },
    "torrbelm": {
      "routes": {
        "3": {
          "": true
        }
      },
      "stopId": "137",
      "lon": "-71.0391871",
      "tag": "torrbelm",
      "shortTitle": "Torrey & Belmont Pl",
      "title": "Torrey St and Belmont Pl",
      "lat": "42.0757013"
    },
    "torrwest_o": {
      "routes": {
        "3": {
          "": true
        }
      },
      "stopId": "138",
      "lon": "-71.0425478",
      "tag": "torrwest_o",
      "shortTitle": "Torrey & West",
      "title": "Torrey St and West St",
      "lat": "42.0745321"
    },
    "westbelm": {
      "routes": {
        "3": {
          "": true
        }
      },
      "stopId": "139",
      "lon": "-71.0427417",
      "tag": "westbelm",
      "shortTitle": "West & Belmont",
      "title": "West St and Belmont St",
      "lat": "42.0735497"
    },
    "stapoff": {
      "routes": {
        "3": {
          "": true
        }
      },
      "stopId": "140",
      "lon": "-71.0441515",
      "tag": "stapoff",
      "title": "Staples Office",
      "lat": "42.0731724"
    },
    "shawwpla": {
      "routes": {
        "3": {
          "": true
        }
      },
      "stopId": "141",
      "lon": "-71.0453854",
      "tag": "shawwpla",
      "title": "Shaws West Plaza",
      "lat": "42.0720734"
    },
    "brockhs_o": {
      "routes": {
        "3": {
          "": true
        }
      },
      "stopId": "142",
      "lon": "-71.0468241",
      "tag": "brockhs_o",
      "title": "Brockton High School",
      "lat": "42.0700452"
    },
    "stopshop": {
      "routes": {
        "3": {
          "": true
        },
        "11": {
          "": true
        },
        "13": {
          "": true
        },
        "sun1011": {
          "": true
        }
      },
      "stopId": "143",
      "lon": "-71.0469941",
      "tag": "stopshop",
      "shortTitle": "Stop & Shop Plaza",
      "title": "Stop and Shop Plaza",
      "lat": "42.0697931",
      "scheduleRoutes": {
        "sun1011": {
          "batctr": {}
        }
      }
    },
    "dangcvs": {
      "routes": {
        "3": {
          "": true
        }
      },
      "stopId": "154",
      "lon": "-71.0482105",
      "tag": "dangcvs",
      "title": "DAngelos CVS",
      "lat": "42.0690732"
    },
    "belmtorr": {
      "routes": {
        "3": {
          "": true
        }
      },
      "stopId": "144",
      "lon": "-71.0495615",
      "tag": "belmtorr",
      "shortTitle": "Belmont & Torrey",
      "title": "Belmont St and Torrey Ave",
      "lat": "42.0682662"
    },
    "belmlorr_o": {
      "routes": {
        "3": {
          "": true
        }
      },
      "stopId": "145",
      "lon": "-71.0507525",
      "tag": "belmlorr_o",
      "shortTitle": "Belmont & Lorraine",
      "title": "Belmont St and Lorraine Ave",
      "lat": "42.0676532"
    },
    "belmedin_o": {
      "routes": {
        "3": {
          "": true
        }
      },
      "stopId": "146",
      "lon": "-71.0539687",
      "tag": "belmedin_o",
      "shortTitle": "Belmont & Edinboro",
      "title": "Belmont St and Edinboro Ave",
      "lat": "42.0656919"
    },
    "vethosp": {
      "routes": {
        "3": {
          "": true
        }
      },
      "stopId": "147",
      "lon": "-71.0536701",
      "tag": "vethosp",
      "title": "Veterans Hospital",
      "lat": "42.0636298",
      "scheduleRoutes": {
        "3": {
          "batctr": {}
        }
      }
    },
    "belmvaen": {
      "routes": {
        "3": {
          "": true
        }
      },
      "stopId": "155",
      "lon": "-71.0549129",
      "tag": "belmvaen",
      "shortTitle": "Belmont @ VA Entrance",
      "title": "Belmont St at VA Entrance",
      "lat": "42.0649611"
    },
    "belmedin": {
      "routes": {
        "3": {
          "": true
        }
      },
      "stopId": "156",
      "lon": "-71.0539179",
      "tag": "belmedin",
      "shortTitle": "Belmont & Edinboro",
      "title": "Belmont St and Edinboro Ave",
      "lat": "42.065618"
    },
    "belmlorr": {
      "routes": {
        "3": {
          "": true
        }
      },
      "stopId": "157",
      "lon": "-71.0508118",
      "tag": "belmlorr",
      "shortTitle": "Belmont & Lorraine",
      "title": "Belmont St and Lorraine Ave",
      "lat": "42.067458"
    },
    "belmdunk": {
      "routes": {
        "3": {
          "": true
        }
      },
      "stopId": "158",
      "lon": "-71.0495556",
      "tag": "belmdunk",
      "shortTitle": "Belmont @ Dunkin Donuts",
      "title": "Belmont St at Dunkin Donuts",
      "lat": "42.0681332"
    },
    "dangcvsp": {
      "routes": {
        "3": {
          "": true
        }
      },
      "stopId": "159",
      "lon": "-71.0485298",
      "tag": "dangcvsp",
      "title": "DAngelos CVS Plaza",
      "lat": "42.06872"
    },
    "brockhs": {
      "routes": {
        "3": {
          "": true
        }
      },
      "stopId": "160",
      "lon": "-71.0461409",
      "tag": "brockhs",
      "title": "Brockton High School",
      "lat": "42.0701439"
    },
    "torrbat": {
      "routes": {
        "3": {
          "": true
        }
      },
      "stopId": "161",
      "lon": "-71.0447354",
      "tag": "torrbat",
      "shortTitle": "Torrey @ Bat Shelter",
      "title": "Torrey St at Bat Shelter",
      "lat": "42.0740419"
    },
    "torrwest": {
      "routes": {
        "3": {
          "": true
        }
      },
      "stopId": "162",
      "lon": "-71.0429564",
      "tag": "torrwest",
      "shortTitle": "Torrey & West",
      "title": "Torrey St and West St",
      "lat": "42.0743469"
    },
    "belmbats": {
      "routes": {
        "3": {
          "": true
        }
      },
      "stopId": "163",
      "lon": "-71.0391976",
      "tag": "belmbats",
      "shortTitle": "Belmont @ Bat Shelter",
      "title": "Belmont St at Bat Shelter",
      "lat": "42.0755862"
    },
    "belmfair": {
      "routes": {
        "3": {
          "": true
        }
      },
      "stopId": "164",
      "lon": "-71.0371889",
      "tag": "belmfair",
      "shortTitle": "Belmont @ Fairgrounds",
      "title": "Belmont St at Fairgrounds",
      "lat": "42.0764116"
    },
    "belmthur": {
      "routes": {
        "3": {
          "": true
        }
      },
      "stopId": "165",
      "lon": "-71.0367006",
      "tag": "belmthur",
      "shortTitle": "Belmont & Thurber",
      "title": "Belmont St and Thurber Ave",
      "lat": "42.0766147"
    },
    "belmash": {
      "routes": {
        "3": {
          "": true
        }
      },
      "stopId": "166",
      "lon": "-71.0339507",
      "tag": "belmash",
      "shortTitle": "Belmont & Ash",
      "title": "Belmont St and Ash St",
      "lat": "42.0776815"
    },
    "belmmano": {
      "routes": {
        "3": {
          "": true
        }
      },
      "stopId": "167",
      "lon": "-71.0319399",
      "tag": "belmmano",
      "shortTitle": "Belmont & Manomet",
      "title": "Belmont St and Manomet St",
      "lat": "42.0780802"
    },
    "belmgraf": {
      "routes": {
        "3": {
          "": true
        }
      },
      "stopId": "168",
      "lon": "-71.0307384",
      "tag": "belmgraf",
      "shortTitle": "Belmont & Grafton",
      "title": "Belmont St and Grafton St",
      "lat": "42.0782802"
    },
    "belmmino": {
      "routes": {
        "3": {
          "": true
        }
      },
      "stopId": "169",
      "lon": "-71.0295028",
      "tag": "belmmino",
      "shortTitle": "Belmont & Minot",
      "title": "Belmont St and Minot Ave",
      "lat": "42.0784967"
    },
    "belmnewb": {
      "routes": {
        "3": {
          "": true
        }
      },
      "stopId": "170",
      "lon": "-71.025495",
      "tag": "belmnewb",
      "shortTitle": "Belmont & Newbury",
      "title": "Belmont St and Newbury St",
      "lat": "42.0793471"
    },
    "belmcott": {
      "routes": {
        "3": {
          "": true
        }
      },
      "stopId": "172",
      "lon": "-71.0220336",
      "tag": "belmcott",
      "shortTitle": "Belmont & Cottage",
      "title": "Belmont St and Cottage St",
      "lat": "42.0801948"
    },
    "cresmapl": {
      "routes": {
        "3": {
          "": true
        }
      },
      "stopId": "173",
      "lon": "-71.0185559",
      "tag": "cresmapl",
      "shortTitle": "Crescent & Maple",
      "title": "Crescent St and Maple Ave",
      "lat": "42.081221"
    },
    "commcent": {
      "routes": {
        "3": {
          "": true
        }
      },
      "stopId": "175",
      "lon": "-71.0154049",
      "tag": "commcent",
      "shortTitle": "Commercial @ Centre",
      "title": "Commercial St at Centre St",
      "lat": "42.0838029"
    },
    "pleamain": {
      "routes": {
        "4": {
          "": true
        },
        "14": {
          "": true
        }
      },
      "stopId": "190",
      "lon": "-71.0200937",
      "tag": "pleamain",
      "shortTitle": "Pleasant @ Main",
      "title": "Pleasant St at Main St",
      "lat": "42.0855602"
    },
    "pleahere": {
      "routes": {
        "4": {
          "": true
        },
        "14": {
          "": true
        }
      },
      "stopId": "191",
      "lon": "-71.0223944",
      "tag": "pleahere",
      "shortTitle": "Pleasant @ Hereford",
      "title": "Pleasant St at Hereford St",
      "lat": "42.0856958"
    },
    "pleaspri": {
      "routes": {
        "4": {
          "": true
        }
      },
      "stopId": "192",
      "lon": "-71.0243963",
      "tag": "pleaspri",
      "shortTitle": "Pleasant & Spring",
      "title": "Pleasant St and Spring St",
      "lat": "42.08612"
    },
    "pleaoakl": {
      "routes": {
        "4": {
          "": true
        }
      },
      "stopId": "193",
      "lon": "-71.0276624",
      "tag": "pleaoakl",
      "shortTitle": "Pleasant & Oakland",
      "title": "Pleasant St and Oakland Ave",
      "lat": "42.0868205"
    },
    "pleacolo": {
      "routes": {
        "4": {
          "": true
        }
      },
      "stopId": "194",
      "lon": "-71.0283917",
      "tag": "pleacolo",
      "shortTitle": "Pleasant & Colonial",
      "title": "Pleasant St and Colonial St",
      "lat": "42.0869735"
    },
    "pleawesto": {
      "routes": {
        "4": {
          "": true
        }
      },
      "stopId": "195",
      "lon": "-71.0304058",
      "tag": "pleawesto",
      "shortTitle": "Pleasant & Weston",
      "title": "Pleasant St and Weston St",
      "lat": "42.0873992"
    },
    "pleaelli": {
      "routes": {
        "4": {
          "": true
        },
        "14": {
          "": true
        }
      },
      "stopId": "196",
      "lon": "-71.0318869",
      "tag": "pleaelli",
      "shortTitle": "Pleasant @ Ellis",
      "title": "Pleasant St at Ellis St",
      "lat": "42.0877179"
    },
    "pleaaugu": {
      "routes": {
        "4": {
          "": true
        },
        "14": {
          "": true
        }
      },
      "stopId": "197",
      "lon": "-71.033368",
      "tag": "pleaaugu",
      "shortTitle": "Pleasant @ Augusta",
      "title": "Pleasant St at Augusta Ave",
      "lat": "42.0880279"
    },
    "pleanash": {
      "routes": {
        "4": {
          "": true
        },
        "14": {
          "": true
        }
      },
      "stopId": "198",
      "lon": "-71.0354031",
      "tag": "pleanash",
      "shortTitle": "Pleasant @ North Ash",
      "title": "Pleasant St at North Ash St",
      "lat": "42.0884559"
    },
    "pleabela": {
      "routes": {
        "4": {
          "": true
        }
      },
      "stopId": "199",
      "lon": "-71.0372262",
      "tag": "pleabela",
      "shortTitle": "Pleasant & Belair",
      "title": "Pleasant St and Belair St",
      "lat": "42.0888512"
    },
    "pleafiel": {
      "routes": {
        "4": {
          "": true
        }
      },
      "stopId": "200",
      "lon": "-71.0386647",
      "tag": "pleafiel",
      "shortTitle": "Plesant & Fields",
      "title": "Plesant St and Fields Ave",
      "lat": "42.0891427"
    },
    "pleaelmw": {
      "routes": {
        "4": {
          "": true
        }
      },
      "stopId": "201",
      "lon": "-71.0411355",
      "tag": "pleaelmw",
      "shortTitle": "Pleasant & Elmwood",
      "title": "Pleasant St and Elmwood Ave",
      "lat": "42.0895485"
    },
    "pennsylv": {
      "routes": {
        "4": {
          "": true
        }
      },
      "stopId": "202",
      "lon": "-71.0444096",
      "tag": "pennsylv",
      "shortTitle": "Pennsylvania",
      "title": "Pennsylvania Ave",
      "lat": "42.0892933"
    },
    "pleawest_o": {
      "routes": {
        "4": {
          "": true
        }
      },
      "stopId": "203",
      "lon": "-71.0467218",
      "tag": "pleawest_o",
      "shortTitle": "Pleasant & West",
      "title": "Pleasant St and West St",
      "lat": "42.0888838"
    },
    "westlane": {
      "routes": {
        "4": {
          "": true
        }
      },
      "stopId": "204",
      "lon": "-71.0485839",
      "tag": "westlane",
      "title": "Westgate Lanes",
      "lat": "42.0903732"
    },
    "mallentr": {
      "routes": {
        "4": {
          "": true
        }
      },
      "stopId": "205",
      "lon": "-71.049599",
      "tag": "mallentr",
      "title": "Mall Entrance",
      "lat": "42.0915527"
    },
    "acmoore": {
      "routes": {
        "4": {
          "": true
        }
      },
      "stopId": "206",
      "lon": "-71.0514665",
      "tag": "acmoore",
      "title": "AC Moore",
      "lat": "42.0921718"
    },
    "macys": {
      "routes": {
        "4": {
          "": true
        }
      },
      "stopId": "207",
      "lon": "-71.0505306",
      "tag": "macys",
      "title": "Macys",
      "lat": "42.0961303"
    },
    "westmall": {
      "routes": {
        "4": {
          "": true
        }
      },
      "stopId": "208",
      "lon": "-71.049742",
      "tag": "westmall",
      "title": "Westgate Mall",
      "lat": "42.0958769"
    },
    "campself": {
      "routes": {
        "4": {
          "": true
        }
      },
      "stopId": "209",
      "lon": "-71.0523669",
      "tag": "campself",
      "shortTitle": "Campanelli Dr @ Self Storage",
      "title": "Campanelli Dr At Self Storage",
      "lat": "42.0980193"
    },
    "camptoys": {
      "routes": {
        "4": {
          "": true
        },
        "13": {
          "": true
        }
      },
      "stopId": "210",
      "lon": "-71.0525109",
      "tag": "camptoys",
      "shortTitle": "Campanelli Dr @ ToysRUs",
      "title": "Campanelli Dr at ToysRUs",
      "lat": "42.0994861"
    },
    "oakchatw": {
      "routes": {
        "4": {
          "": true
        },
        "13": {
          "": true
        },
        "4A": {
          "": true
        }
      },
      "stopId": "211",
      "lon": "-71.0531244",
      "tag": "oakchatw",
      "shortTitle": "Oak & Chatham West Dr",
      "title": "Oak St and Chatham West Dr",
      "lat": "42.1017051"
    },
    "oakwalms": {
      "routes": {
        "4": {
          "": true
        },
        "13": {
          "": true
        },
        "14": {
          "": true
        }
      },
      "stopId": "866",
      "lon": "-71.0560252",
      "tag": "oakwalms",
      "shortTitle": "Oak & Walmart Service",
      "title": "Oak St and Walmart Service Rd",
      "lat": "42.098481",
      "scheduleRoutes": {
        "4": {
          "batctr": {}
        }
      }
    },
    "oakpine": {
      "routes": {
        "4": {
          "": true
        },
        "14": {
          "": true
        }
      },
      "stopId": "213",
      "lon": "-71.0585903",
      "tag": "oakpine",
      "shortTitle": "Oak @ Pine Estates",
      "title": "Oak St at Pine Estates",
      "lat": "42.1010828"
    },
    "oakrese": {
      "routes": {
        "4": {
          "": true
        }
      },
      "stopId": "214",
      "lon": "-71.0623118",
      "tag": "oakrese",
      "shortTitle": "Oak & Reservoir",
      "title": "Oak St and Reservoir St",
      "lat": "42.100407"
    },
    "goodsamh": {
      "routes": {
        "4": {
          "": true
        }
      },
      "stopId": "215",
      "lon": "-71.062512",
      "tag": "goodsamh",
      "title": "Good Samaritan Hospital",
      "lat": "42.0979329"
    },
    "oakxrese": {
      "routes": {
        "4": {
          "": true
        }
      },
      "stopId": "216",
      "lon": "-71.0632287",
      "tag": "oakxrese",
      "shortTitle": "Oak Ext & Reservoir",
      "title": "Oak St Ext and Reservoir St",
      "lat": "42.100266"
    },
    "oakxpear": {
      "routes": {
        "4": {
          "": true
        }
      },
      "stopId": "217",
      "lon": "-71.0654047",
      "tag": "oakxpear",
      "shortTitle": "Oak Ext & Pearl",
      "title": "Oak St Ext and Pearl St",
      "lat": "42.099968"
    },
    "npeareyn": {
      "routes": {
        "4": {
          "": true
        }
      },
      "stopId": "218",
      "lon": "-71.0660309",
      "tag": "npeareyn",
      "shortTitle": "North Pearl & Reynolds Hwy",
      "title": "North Pearl St and Reynolds Hwy",
      "lat": "42.0981429"
    },
    "fentpear": {
      "routes": {
        "4": {
          "": true
        }
      },
      "stopId": "219",
      "lon": "-71.065183",
      "tag": "fentpear",
      "shortTitle": "First Entrance on Pearl",
      "title": "First Entrance on Pearl St",
      "lat": "42.09511"
    },
    "entmelpe": {
      "routes": {
        "4": {
          "": true
        }
      },
      "stopId": "220",
      "lon": "-71.0648139",
      "tag": "entmelpe",
      "shortTitle": "Entrance - Melrose on Pearl",
      "title": "Entrance - Melrose on Pearl St",
      "lat": "42.0933508"
    },
    "lastentp": {
      "routes": {
        "4": {
          "": true
        }
      },
      "stopId": "221",
      "lon": "-71.064525",
      "tag": "lastentp",
      "shortTitle": "Last Entrance on Pearl",
      "title": "Last Entrance on Pearl St",
      "lat": "42.0918172"
    },
    "pearbrae": {
      "routes": {
        "4": {
          "": true
        }
      },
      "stopId": "222",
      "lon": "-71.0643749",
      "tag": "pearbrae",
      "shortTitle": "Pearl @ Braemoor Nursing Home",
      "title": "Pearl St at Braemoor Nursing Home",
      "lat": "42.0900974"
    },
    "pearplea": {
      "routes": {
        "4": {
          "": true
        },
        "13": {
          "": true
        }
      },
      "stopId": "223",
      "lon": "-71.0636947",
      "tag": "pearplea",
      "shortTitle": "Pearl & Pleasant",
      "title": "Pearl St and Pleasant St",
      "lat": "42.0890619"
    },
    "pleahanc": {
      "routes": {
        "4": {
          "": true
        }
      },
      "stopId": "224",
      "lon": "-71.0631167",
      "tag": "pleahanc",
      "shortTitle": "Pleasant & Hancock",
      "title": "Pleasant St and Hancock Ave",
      "lat": "42.0889271"
    },
    "pleairvi": {
      "routes": {
        "4": {
          "": true
        }
      },
      "stopId": "225",
      "lon": "-71.061998",
      "tag": "pleairvi",
      "shortTitle": "Pleasant & Irving",
      "title": "Pleasant St and Irving Ave",
      "lat": "42.088653"
    },
    "plearock": {
      "routes": {
        "4": {
          "": true
        }
      },
      "stopId": "226",
      "lon": "-71.059962",
      "tag": "plearock",
      "shortTitle": "Pleasant & Rockland",
      "title": "Pleasant St and Rockland St",
      "lat": "42.088118"
    },
    "810plegs": {
      "routes": {
        "4": {
          "": true
        }
      },
      "stopId": "227",
      "lon": "-71.0556009",
      "tag": "810plegs",
      "shortTitle": "810 Pleasant & Gerrys Stand",
      "title": "810 Pleasant St and Gerrys Stand",
      "lat": "42.087503"
    },
    "pleawanh": {
      "routes": {
        "4": {
          "": true
        }
      },
      "stopId": "228",
      "lon": "-71.0524899",
      "tag": "pleawanh",
      "shortTitle": "Pleasant @ West Acres Nursing Home",
      "title": "Pleasant St at West Acres Nursing Home",
      "lat": "42.087885"
    },
    "pleatroy": {
      "routes": {
        "4": {
          "": true
        }
      },
      "stopId": "229",
      "lon": "-71.0498832",
      "tag": "pleatroy",
      "shortTitle": "Pleasant & Troy",
      "title": "Pleasant St and Troy St",
      "lat": "42.0882059"
    },
    "pleafern": {
      "routes": {
        "4": {
          "": true
        }
      },
      "stopId": "230",
      "lon": "-71.048127",
      "tag": "pleafern",
      "shortTitle": "Pleasant & Fern",
      "title": "Pleasant St and Fern St",
      "lat": "42.0884229"
    },
    "pleawest": {
      "routes": {
        "4": {
          "": true
        }
      },
      "stopId": "231",
      "lon": "-71.045698",
      "tag": "pleawest",
      "shortTitle": "Pleasant @ West",
      "title": "Pleasant St at West St",
      "lat": "42.0889459"
    },
    "plealenn": {
      "routes": {
        "4": {
          "": true
        }
      },
      "stopId": "232",
      "lon": "-71.0430462",
      "tag": "plealenn",
      "shortTitle": "Pleasant @ Lennox",
      "title": "Pleasant St at Lennox St",
      "lat": "42.0894649"
    },
    "pleawhee": {
      "routes": {
        "4": {
          "": true
        }
      },
      "stopId": "233",
      "lon": "-71.0401549",
      "tag": "pleawhee",
      "shortTitle": "Pleasant @ Wheeler",
      "title": "Pleasant St at Wheeler Ave",
      "lat": "42.0894149"
    },
    "pleamorr": {
      "routes": {
        "4": {
          "": true
        }
      },
      "stopId": "234",
      "lon": "-71.0373284",
      "tag": "pleamorr",
      "shortTitle": "Pleasant & Morraine",
      "title": "Pleasant St and Morraine St",
      "lat": "42.088817"
    },
    "pleaash": {
      "routes": {
        "4": {
          "": true
        }
      },
      "stopId": "235",
      "lon": "-71.0355001",
      "tag": "pleaash",
      "shortTitle": "Pleasant @ Ash",
      "title": "Pleasant St at Ash St",
      "lat": "42.088436"
    },
    "pleabelm": {
      "routes": {
        "4": {
          "": true
        }
      },
      "stopId": "236",
      "lon": "-71.0330982",
      "tag": "pleabelm",
      "shortTitle": "Pleasant & Belmont",
      "title": "Pleasant St and Belmont Ave",
      "lat": "42.087927"
    },
    "pleafeci": {
      "routes": {
        "4": {
          "": true
        }
      },
      "stopId": "237",
      "lon": "-71.0312949",
      "tag": "pleafeci",
      "shortTitle": "Pleasant & Fenway Cir",
      "title": "Pleasant St and Fenway Cir",
      "lat": "42.0875459"
    },
    "pleasimm": {
      "routes": {
        "4": {
          "": true
        }
      },
      "stopId": "238",
      "lon": "-71.0304506",
      "tag": "pleasimm",
      "shortTitle": "Pleasant & Simmons",
      "title": "Pleasant St and Simmons Ave",
      "lat": "42.0873649"
    },
    "pleanye": {
      "routes": {
        "4": {
          "": true
        }
      },
      "stopId": "239",
      "lon": "-71.0288173",
      "tag": "pleanye",
      "shortTitle": "Pleasant & Nye",
      "title": "Pleasant St and Nye Ave",
      "lat": "42.087017"
    },
    "pleaglen": {
      "routes": {
        "4": {
          "": true
        },
        "14": {
          "": true
        }
      },
      "stopId": "240",
      "lon": "-71.0263245",
      "tag": "pleaglen",
      "shortTitle": "Pleasant @ Glenwood",
      "title": "Pleasant St at Glenwood St",
      "lat": "42.0864911"
    },
    "pleawarr": {
      "routes": {
        "4": {
          "": true
        }
      },
      "stopId": "241",
      "lon": "-71.0233749",
      "tag": "pleawarr",
      "shortTitle": "Pleasant & Warren",
      "title": "Pleasant St and Warren Ave",
      "lat": "42.0852968"
    },
    "warrhigh": {
      "routes": {
        "4": {
          "": true
        }
      },
      "stopId": "242",
      "lon": "-71.023099",
      "tag": "warrhigh",
      "shortTitle": "Warren & Highland",
      "title": "Warren Ave and Highland St",
      "lat": "42.0841363"
    },
    "legipadd": {
      "routes": {
        "4": {
          "": true
        }
      },
      "stopId": "243",
      "lon": "-71.0224717",
      "tag": "legipadd",
      "shortTitle": "Legion Parkway & Paddy Ln",
      "title": "Legion Parkway and Paddy Ln",
      "lat": "42.083814"
    },
    "nmaicour": {
      "routes": {
        "4A": {
          "": true
        }
      },
      "stopId": "250",
      "lon": "-71.0197783",
      "tag": "nmaicour",
      "shortTitle": "North Main & Court",
      "title": "North Main St and Court St",
      "lat": "42.0857298"
    },
    "sprinmai": {
      "routes": {
        "4A": {
          "": true
        }
      },
      "stopId": "251",
      "lon": "-71.0199135",
      "tag": "sprinmai",
      "shortTitle": "Spring & North Main",
      "title": "Spring St and North Main St",
      "lat": "42.0868974"
    },
    "spriwaln": {
      "routes": {
        "4A": {
          "": true
        }
      },
      "stopId": "252",
      "lon": "-71.0221984",
      "tag": "spriwaln",
      "shortTitle": "Spring & Walnut",
      "title": "Spring St and Walnut St",
      "lat": "42.0866397"
    },
    "nwarspri": {
      "routes": {
        "4A": {
          "": true
        }
      },
      "stopId": "253",
      "lon": "-71.0236941",
      "tag": "nwarspri",
      "shortTitle": "North Warren & Spring",
      "title": "North Warren Ave and Spring St",
      "lat": "42.0865608"
    },
    "nwarwyma": {
      "routes": {
        "4A": {
          "": true
        }
      },
      "stopId": "254",
      "lon": "-71.0246189",
      "tag": "nwarwyma",
      "shortTitle": "North Warren & Wyman",
      "title": "North Warren Ave and Wyman St",
      "lat": "42.0890601"
    },
    "nwarwaln": {
      "routes": {
        "4A": {
          "": true
        }
      },
      "stopId": "255",
      "lon": "-71.0249492",
      "tag": "nwarwaln",
      "shortTitle": "North Warren & Walnut",
      "title": "North Warren Ave and Walnut Ave",
      "lat": "42.0899464"
    },
    "nwarpros_o": {
      "routes": {
        "4A": {
          "": true
        }
      },
      "stopId": "256",
      "lon": "-71.0253696",
      "tag": "nwarpros_o",
      "shortTitle": "North Warren & Prospect",
      "title": "North Warren Ave and Prospect St",
      "lat": "42.0910753"
    },
    "nwarhunn": {
      "routes": {
        "4A": {
          "": true
        }
      },
      "stopId": "257",
      "lon": "-71.0260081",
      "tag": "nwarhunn",
      "shortTitle": "North Warren & Hunnington",
      "title": "North Warren Ave and Hunnington St",
      "lat": "42.0926768"
    },
    "nwarford_o": {
      "routes": {
        "4A": {
          "": true
        }
      },
      "stopId": "258",
      "lon": "-71.0265581",
      "tag": "nwarford_o",
      "shortTitle": "North Warren & Ford",
      "title": "North Warren Ave and Ford St",
      "lat": "42.0940002"
    },
    "nwarrich_o": {
      "routes": {
        "4A": {
          "": true
        }
      },
      "stopId": "259",
      "lon": "-71.027366",
      "tag": "nwarrich_o",
      "shortTitle": "North Warren & Richmond",
      "title": "North Warren Ave and Richmond St",
      "lat": "42.0959616"
    },
    "nwarbatt": {
      "routes": {
        "4A": {
          "": true
        }
      },
      "stopId": "260",
      "lon": "-71.0279635",
      "tag": "nwarbatt",
      "shortTitle": "North Warren & Battles",
      "title": "North Warren Ave and Battles St",
      "lat": "42.0974063"
    },
    "battfarm": {
      "routes": {
        "4A": {
          "": true
        }
      },
      "stopId": "261",
      "lon": "-71.029339",
      "tag": "battfarm",
      "title": "Battles Farm Drive",
      "lat": "42.0982436"
    },
    "batttint": {
      "routes": {
        "4A": {
          "": true
        }
      },
      "stopId": "262",
      "lon": "-71.0287614",
      "tag": "batttint",
      "shortTitle": "Battles Farm Dr & T Intersection",
      "title": "Battles Farm Dr and T Intersection",
      "lat": "42.099179"
    },
    "nwarxken_o": {
      "routes": {
        "4A": {
          "": true
        }
      },
      "stopId": "263",
      "lon": "-71.0294313",
      "tag": "nwarxken_o",
      "shortTitle": "North Warren Ext @ Kennedy Dr",
      "title": "North Warren Ave Ext at Kennedy Dr",
      "lat": "42.1006979"
    },
    "nwarxoak_o": {
      "routes": {
        "4A": {
          "": true
        }
      },
      "stopId": "264",
      "lon": "-71.030103",
      "tag": "nwarxoak_o",
      "shortTitle": "North Warren Ext & Oak",
      "title": "North Warren Ave Ext and Oak St",
      "lat": "42.1022116"
    },
    "fairooak": {
      "routes": {
        "4A": {
          "": true
        }
      },
      "stopId": "265",
      "lon": "-71.0334755",
      "tag": "fairooak",
      "shortTitle": "Fairway Oaks & Oak",
      "title": "Fairway Oaks and Oak St",
      "lat": "42.1015358"
    },
    "oakcola": {
      "routes": {
        "4A": {
          "": true
        }
      },
      "stopId": "266",
      "lon": "-71.0367522",
      "tag": "oakcola",
      "shortTitle": "Oak & Colantha",
      "title": "Oak St and Colantha Ave",
      "lat": "42.1009996"
    },
    "dwfgolf": {
      "routes": {
        "4A": {
          "": true
        }
      },
      "stopId": "267",
      "lon": "-71.0395695",
      "tag": "dwfgolf",
      "title": "DW Field Golf Course",
      "lat": "42.1012152"
    },
    "fullmuse": {
      "routes": {
        "4A": {
          "": true
        }
      },
      "stopId": "268",
      "lon": "-71.044984",
      "tag": "fullmuse",
      "title": "Fuller Art Museum",
      "lat": "42.1016521"
    },
    "greekoch": {
      "routes": {
        "4A": {
          "": true
        }
      },
      "stopId": "269",
      "lon": "-71.0482187",
      "tag": "greekoch",
      "title": "Greek Orthodox Church",
      "lat": "42.1017833"
    },
    "campoak": {
      "routes": {
        "13": {
          "": true
        },
        "4A": {
          "": true
        }
      },
      "stopId": "271",
      "lon": "-71.0528127",
      "tag": "campoak",
      "shortTitle": "Campanelli Dr & Oak",
      "title": "Campanelli Dr and Oak St",
      "lat": "42.1015211"
    },
    "campauto": {
      "routes": {
        "4A": {
          "": true
        }
      },
      "stopId": "272",
      "lon": "-71.0524799",
      "tag": "campauto",
      "shortTitle": "Campanelli Dr @ Auto Zone Warehouse",
      "title": "Campanelli Dr at Auto Zone Warehouse",
      "lat": "42.098395"
    },
    "westdent": {
      "routes": {
        "4A": {
          "": true
        }
      },
      "stopId": "273",
      "lon": "-71.0549987",
      "tag": "westdent",
      "shortTitle": "Westgate Dr @ Dentist Building",
      "title": "Westgate Dr at Dentist Building",
      "lat": "42.0932555"
    },
    "searmacy": {
      "routes": {
        "13": {
          "": true
        },
        "4A": {
          "": true
        }
      },
      "stopId": "873",
      "lon": "-71.049742",
      "tag": "searmacy",
      "shortTitle": "Sears & Macys",
      "title": "Sears and Macys",
      "lat": "42.0958769",
      "scheduleRoutes": {
        "4A": {
          "batctr": {}
        }
      }
    },
    "oakoakri": {
      "routes": {
        "4A": {
          "": true
        }
      },
      "stopId": "274",
      "lon": "-71.037578",
      "tag": "oakoakri",
      "shortTitle": "Oak & Oakridge Dr",
      "title": "Oak St and Oakridge Dr",
      "lat": "42.1010065"
    },
    "oakvilla": {
      "routes": {
        "4A": {
          "": true
        }
      },
      "stopId": "275",
      "lon": "-71.0328742",
      "tag": "oakvilla",
      "shortTitle": "Oak across from Village Way",
      "title": "Oak St across from Village Way",
      "lat": "42.1017336"
    },
    "nwarxoak": {
      "routes": {
        "4A": {
          "": true
        }
      },
      "stopId": "276",
      "lon": "-71.0301933",
      "tag": "nwarxoak",
      "shortTitle": "North Warren Ext & Oak",
      "title": "North Warren Ave Ext and Oak St",
      "lat": "42.1023186"
    },
    "nwarxken": {
      "routes": {
        "4A": {
          "": true
        }
      },
      "stopId": "277",
      "lon": "-71.0294647",
      "tag": "nwarxken",
      "shortTitle": "North Warren Ext @ Kennedy Dr",
      "title": "North Warren Ave Ext at Kennedy Dr",
      "lat": "42.1006735"
    },
    "battrutl": {
      "routes": {
        "4A": {
          "": true
        }
      },
      "stopId": "278",
      "lon": "-71.0290167",
      "tag": "battrutl",
      "shortTitle": "Battles Farm Dr @ Rutland",
      "title": "Battles Farm Dr at Rutland St",
      "lat": "42.1002853"
    },
    "battrent": {
      "routes": {
        "4A": {
          "": true
        }
      },
      "stopId": "279",
      "lon": "-71.0293765",
      "tag": "battrent",
      "shortTitle": "Battles Farm Dr @ Rental Office",
      "title": "Battles Farm Dr at Rental Office",
      "lat": "42.0981795"
    },
    "nwarrich": {
      "routes": {
        "4A": {
          "": true
        }
      },
      "stopId": "280",
      "lon": "-71.0274586",
      "tag": "nwarrich",
      "shortTitle": "North Warren @ Richmond",
      "title": "North Warren Ave at Richmond St",
      "lat": "42.0960547"
    },
    "nwarford": {
      "routes": {
        "4A": {
          "": true
        }
      },
      "stopId": "281",
      "lon": "-71.0266011",
      "tag": "nwarford",
      "shortTitle": "North Warren @ Ford",
      "title": "North Warren Ave at Ford St",
      "lat": "42.0939856"
    },
    "nwarpros": {
      "routes": {
        "4A": {
          "": true
        }
      },
      "stopId": "282",
      "lon": "-71.0254298",
      "tag": "nwarpros",
      "shortTitle": "North Warren @ Prospect",
      "title": "North Warren Ave at Prospect St",
      "lat": "42.0911014"
    },
    "nwarmilt": {
      "routes": {
        "4A": {
          "": true
        }
      },
      "stopId": "283",
      "lon": "-71.0249888",
      "tag": "nwarmilt",
      "shortTitle": "North Warren @ Milton",
      "title": "North Warren Ave at Milton St",
      "lat": "42.0899288"
    },
    "warrwyma": {
      "routes": {
        "4A": {
          "": true
        }
      },
      "stopId": "284",
      "lon": "-71.024669",
      "tag": "warrwyma",
      "shortTitle": "North Warren across from Wyman",
      "title": "North Warren Ave across from Wyman St",
      "lat": "42.089064"
    },
    "warrspri": {
      "routes": {
        "4A": {
          "": true
        }
      },
      "stopId": "285",
      "lon": "-71.0236755",
      "tag": "warrspri",
      "shortTitle": "North Warren @ Spring",
      "title": "North Warren Ave at Spring St",
      "lat": "42.086363"
    },
    "cresotis": {
      "routes": {
        "5": {
          "": true
        },
        "sun56": {
          "": true
        }
      },
      "stopId": "061",
      "lon": "-71.0140663",
      "tag": "cresotis",
      "shortTitle": "Crescent & Otis",
      "title": "Crescent St and Otis St",
      "lat": "42.0805951"
    },
    "cressumm": {
      "routes": {
        "5": {
          "": true
        },
        "sun56": {
          "": true
        }
      },
      "stopId": "062",
      "lon": "-71.0119539",
      "tag": "cressumm",
      "shortTitle": "Crescent & Summer",
      "title": "Crescent St and Summer St",
      "lat": "42.0802098"
    },
    "lymaerie": {
      "routes": {
        "5": {
          "": true
        },
        "sun56": {
          "": true
        }
      },
      "stopId": "063",
      "lon": "-71.0076813",
      "tag": "lymaerie",
      "shortTitle": "Lyman & Erie",
      "title": "Lyman St and Erie Ave",
      "lat": "42.0807749"
    },
    "lymawend_o": {
      "routes": {
        "5": {
          "": true
        },
        "sun56": {
          "": true
        }
      },
      "stopId": "064",
      "lon": "-71.0055535",
      "tag": "lymawend_o",
      "shortTitle": "Lyman & Wendell",
      "title": "Lyman St and Wendell Ave",
      "lat": "42.0822206"
    },
    "lymacent_o": {
      "routes": {
        "5": {
          "": true
        },
        "sun56": {
          "": true
        }
      },
      "stopId": "065",
      "lon": "-71.005015",
      "tag": "lymacent_o",
      "shortTitle": "Lyman & Centre",
      "title": "Lyman St and Centre St",
      "lat": "42.083485"
    },
    "centking": {
      "routes": {
        "5": {
          "": true
        },
        "sun56": {
          "": true
        }
      },
      "stopId": "066",
      "lon": "-71.0029262",
      "tag": "centking",
      "shortTitle": "Centre & Kingman",
      "title": "Centre St and Kingman St",
      "lat": "42.0841035"
    },
    "centhill": {
      "routes": {
        "5": {
          "": true
        },
        "sun56": {
          "": true
        }
      },
      "stopId": "067",
      "lon": "-70.9999013",
      "tag": "centhill",
      "shortTitle": "Centre & Hill",
      "title": "Centre St and Hill St",
      "lat": "42.0846572"
    },
    "centglad": {
      "routes": {
        "5": {
          "": true
        },
        "sun56": {
          "": true
        }
      },
      "stopId": "068",
      "lon": "-70.9971216",
      "tag": "centglad",
      "shortTitle": "Centre & Gladstone",
      "title": "Centre St and Gladstone St",
      "lat": "42.0852282"
    },
    "centplaz": {
      "routes": {
        "5": {
          "": true
        },
        "sun56": {
          "": true
        }
      },
      "stopId": "069",
      "lon": "-70.994815",
      "tag": "centplaz",
      "shortTitle": "Centre @ Plaza",
      "title": "Centre St at Plaza",
      "lat": "42.0845624"
    },
    "centgale": {
      "routes": {
        "5": {
          "": true
        },
        "sun56": {
          "": true
        }
      },
      "stopId": "119",
      "lon": "-70.9945048",
      "tag": "centgale",
      "shortTitle": "Centre & Galen",
      "title": "Centre St and Galen St",
      "lat": "42.0856933"
    },
    "centbroc": {
      "routes": {
        "5": {
          "": true
        },
        "sun56": {
          "": true
        }
      },
      "stopId": "120",
      "lon": "-70.9928855",
      "tag": "centbroc",
      "shortTitle": "Centre & Brockton",
      "title": "Centre St and Brockton Ave",
      "lat": "42.0859299"
    },
    "brockhos": {
      "routes": {
        "5": {
          "": true
        },
        "sun56": {
          "": true
        }
      },
      "stopId": "121",
      "lon": "-70.9918341",
      "tag": "brockhos",
      "title": "Brockton Hospital",
      "lat": "42.0875152"
    },
    "centster_o": {
      "routes": {
        "5": {
          "": true
        },
        "sun56": {
          "": true
        }
      },
      "stopId": "122",
      "lon": "-70.9903238",
      "tag": "centster_o",
      "shortTitle": "Centre & Sterling",
      "title": "Centre St and Sterling Rd",
      "lat": "42.0862619"
    },
    "libbcent": {
      "routes": {
        "5": {
          "": true
        },
        "sun56": {
          "": true
        }
      },
      "stopId": "123",
      "lon": "-70.9896097",
      "tag": "libbcent",
      "shortTitle": "Libby & Centre",
      "title": "Libby St and Centre St",
      "lat": "42.0867254"
    },
    "libbquin": {
      "routes": {
        "5": {
          "": true
        },
        "sun56": {
          "": true
        }
      },
      "stopId": "124",
      "lon": "-70.9898829",
      "tag": "libbquin",
      "shortTitle": "Libby & Quincy",
      "title": "Libby St and Quincy Ave",
      "lat": "42.0886514"
    },
    "quindocb": {
      "routes": {
        "5": {
          "": true
        },
        "sun56": {
          "": true
        }
      },
      "stopId": "126",
      "lon": "-70.988035",
      "tag": "quindocb",
      "shortTitle": "Quincy @ Doctors Building",
      "title": "Quincy St at Doctors Building",
      "lat": "42.0880975"
    },
    "centguil": {
      "routes": {
        "5": {
          "": true
        },
        "sun56": {
          "": true
        }
      },
      "stopId": "127",
      "lon": "-70.9845067",
      "tag": "centguil",
      "shortTitle": "Centre @ Guild",
      "title": "Centre St at Guild Rd",
      "lat": "42.0870379"
    },
    "centhasa": {
      "routes": {
        "5": {
          "": true
        },
        "sun56": {
          "": true
        }
      },
      "stopId": "128",
      "lon": "-70.9827067",
      "tag": "centhasa",
      "shortTitle": "Centre @ Harold St-Ames",
      "title": "Centre St at Harold St-Ames Rd",
      "lat": "42.0872729"
    },
    "centedwa": {
      "routes": {
        "5": {
          "": true
        },
        "sun56": {
          "": true
        }
      },
      "stopId": "129",
      "lon": "-70.9803377",
      "tag": "centedwa",
      "shortTitle": "Centre & Edward",
      "title": "Centre St and Edward St",
      "lat": "42.0876488"
    },
    "brocline": {
      "routes": {
        "5": {
          "": true
        }
      },
      "stopId": "177",
      "lon": "-70.9761016",
      "tag": "brocline",
      "shortTitle": "Brockton @ Line",
      "title": "Brockton Ave at Line",
      "lat": "42.0893968"
    },
    "centbate": {
      "routes": {
        "5": {
          "": true
        },
        "sun56": {
          "": true
        }
      },
      "stopId": "987",
      "lon": "-70.9815238",
      "tag": "centbate",
      "shortTitle": "Centre & Bates",
      "title": "Centre St and Bates Rd",
      "lat": "42.0875545"
    },
    "centquin": {
      "routes": {
        "5": {
          "": true
        },
        "sun56": {
          "": true
        }
      },
      "stopId": "988",
      "lon": "-70.9864378",
      "tag": "centquin",
      "shortTitle": "Centre & Quincy",
      "title": "Centre St and Quincy St",
      "lat": "42.0868695"
    },
    "centster": {
      "routes": {
        "5": {
          "": true
        }
      },
      "stopId": "989",
      "lon": "-70.9906459",
      "tag": "centster",
      "shortTitle": "Centre & Sterling",
      "title": "Centre St and Sterling Rd",
      "lat": "42.0863135"
    },
    "centadam": {
      "routes": {
        "5": {
          "": true
        }
      },
      "stopId": "990",
      "lon": "-70.9928053",
      "tag": "centadam",
      "shortTitle": "Centre & Adams",
      "title": "Centre St and Adams St",
      "lat": "42.0860491"
    },
    "centprin": {
      "routes": {
        "5": {
          "": true
        }
      },
      "stopId": "991",
      "lon": "-70.9938724",
      "tag": "centprin",
      "shortTitle": "Centre & Prince",
      "title": "Centre St and Prince St",
      "lat": "42.0858807"
    },
    "centhowl": {
      "routes": {
        "5": {
          "": true
        }
      },
      "stopId": "992",
      "lon": "-70.9959114",
      "tag": "centhowl",
      "shortTitle": "Centre & Howland",
      "title": "Centre St and Howland St",
      "lat": "42.0855637"
    },
    "centsher": {
      "routes": {
        "5": {
          "": true
        }
      },
      "stopId": "993",
      "lon": "-70.9974395",
      "tag": "centsher",
      "shortTitle": "Centre & Sheridan",
      "title": "Centre St and Sheridan St",
      "lat": "42.0852569"
    },
    "eastjhs": {
      "routes": {
        "5": {
          "": true
        }
      },
      "stopId": "994",
      "lon": "-71.0002916",
      "tag": "eastjhs",
      "title": "East Junior High School",
      "lat": "42.0846442"
    },
    "lymacent": {
      "routes": {
        "5": {
          "": true
        }
      },
      "stopId": "996",
      "lon": "-71.0046174",
      "tag": "lymacent",
      "shortTitle": "Lyman & Centre",
      "title": "Lyman St and Centre St",
      "lat": "42.0839235"
    },
    "centcary": {
      "routes": {
        "5": {
          "": true
        }
      },
      "stopId": "995",
      "lon": "-71.0050585",
      "tag": "centcary",
      "shortTitle": "Centre & Cary",
      "title": "Centre St and Cary St",
      "lat": "42.0835205"
    },
    "lymawend": {
      "routes": {
        "5": {
          "": true
        }
      },
      "stopId": "997",
      "lon": "-71.0052279",
      "tag": "lymawend",
      "shortTitle": "Lyman & Wendell",
      "title": "Lyman St and Wendell Ave",
      "lat": "42.0825329"
    },
    "lymacres": {
      "routes": {
        "5": {
          "": true
        }
      },
      "stopId": "998",
      "lon": "-71.0078034",
      "tag": "lymacres",
      "shortTitle": "Lyman & Crescent",
      "title": "Lyman and Crescent Ave",
      "lat": "42.0806889"
    },
    "cresplym": {
      "routes": {
        "5": {
          "": true
        }
      },
      "stopId": "999",
      "lon": "-71.0120423",
      "tag": "cresplym",
      "shortTitle": "Crescent & Plymouth",
      "title": "Crescent Ave and Plymouth St",
      "lat": "42.0803563"
    },
    "perkcres_o": {
      "routes": {
        "6": {
          "": true
        }
      },
      "stopId": "350",
      "lon": "-71.0155476",
      "tag": "perkcres_o",
      "shortTitle": "Perkins & Crescent",
      "title": "Perkins St and Crescent St",
      "lat": "42.0810023"
    },
    "perklawr": {
      "routes": {
        "6": {
          "": true
        }
      },
      "stopId": "351",
      "lon": "-71.0155525",
      "tag": "perklawr",
      "shortTitle": "Perkins & Lawrence",
      "title": "Perkins St and Lawrence St",
      "lat": "42.0770066"
    },
    "lawrsski": {
      "routes": {
        "6": {
          "": true
        }
      },
      "stopId": "352",
      "lon": "-71.0145988",
      "tag": "lawrsski",
      "shortTitle": "Lawrence & South Skinner",
      "title": "Lawrence St and South Skinner St",
      "lat": "42.0769801"
    },
    "lawrshea": {
      "routes": {
        "6": {
          "": true
        }
      },
      "stopId": "353",
      "lon": "-71.0130981",
      "tag": "lawrshea",
      "shortTitle": "Lawrence & Shealey",
      "title": "Lawrence St and Shealey Ave",
      "lat": "42.0770197"
    },
    "lawrgrov": {
      "routes": {
        "6": {
          "": true
        }
      },
      "stopId": "354",
      "lon": "-71.0116725",
      "tag": "lawrgrov",
      "shortTitle": "Lawrence & Grove",
      "title": "Lawrence St and Grove St",
      "lat": "42.0770519"
    },
    "grovtrin": {
      "routes": {
        "6": {
          "": true
        }
      },
      "stopId": "355",
      "lon": "-71.011264",
      "tag": "grovtrin",
      "shortTitle": "Grove & Trinity Village",
      "title": "Grove St and Trinity Village",
      "lat": "42.0776265"
    },
    "cresspra": {
      "routes": {
        "6": {
          "": true
        }
      },
      "stopId": "356",
      "lon": "-71.0071144",
      "tag": "cresspra",
      "shortTitle": "Crescent & Sprague",
      "title": "Crescent St and Sprague Ave",
      "lat": "42.0800645"
    },
    "crescres": {
      "routes": {
        "6": {
          "": true
        }
      },
      "stopId": "357",
      "lon": "-71.0055344",
      "tag": "crescres",
      "shortTitle": "Crescent & Crescent",
      "title": "Crescent St and Crescent Ave",
      "lat": "42.0801173"
    },
    "crestayl": {
      "routes": {
        "6": {
          "": true
        }
      },
      "stopId": "358",
      "lon": "-71.0022083",
      "tag": "crestayl",
      "shortTitle": "Crescent & Taylor",
      "title": "Crescent St and Taylor Ave",
      "lat": "42.0801989"
    },
    "cresperr": {
      "routes": {
        "6": {
          "": true
        }
      },
      "stopId": "359",
      "lon": "-71.0005563",
      "tag": "cresperr",
      "shortTitle": "Crescent & Perry",
      "title": "Crescent St and Perry Ave",
      "lat": "42.0802328"
    },
    "cresjaco": {
      "routes": {
        "6": {
          "": true
        }
      },
      "stopId": "360",
      "lon": "-70.9989011",
      "tag": "cresjaco",
      "shortTitle": "Crescent & Jacob",
      "title": "Crescent St and Jacob St",
      "lat": "42.0802786"
    },
    "creswash": {
      "routes": {
        "6": {
          "": true
        }
      },
      "stopId": "361",
      "lon": "-70.9968983",
      "tag": "creswash",
      "shortTitle": "Crescent & Washington",
      "title": "Crescent St and Washington Ave",
      "lat": "42.0803597"
    },
    "creselec": {
      "routes": {
        "6": {
          "": true
        }
      },
      "stopId": "362",
      "lon": "-70.9945638",
      "tag": "creselec",
      "shortTitle": "Crescent & Electric",
      "title": "Crescent St and Electric Ave",
      "lat": "42.0805119"
    },
    "cresplaz": {
      "routes": {
        "6": {
          "": true
        }
      },
      "stopId": "363",
      "lon": "-70.992248",
      "tag": "cresplaz",
      "title": "Crescent Plaza",
      "lat": "42.080923"
    },
    "cafftohr": {
      "routes": {
        "6": {
          "": true
        }
      },
      "stopId": "364",
      "lon": "-70.9901361",
      "tag": "cafftohr",
      "title": "Caffrey Towers High Rise",
      "lat": "42.0812448"
    },
    "suprdonu": {
      "routes": {
        "6": {
          "": true
        }
      },
      "stopId": "365",
      "lon": "-70.98887",
      "tag": "suprdonu",
      "title": "Supreme Donut",
      "lat": "42.0813699"
    },
    "massplaz": {
      "routes": {
        "6": {
          "": true
        }
      },
      "stopId": "366",
      "lon": "-70.987639",
      "tag": "massplaz",
      "title": "Massasoit Plaza",
      "lat": "42.0815202"
    },
    "massthat": {
      "routes": {
        "6": {
          "": true
        }
      },
      "stopId": "367",
      "lon": "-70.9911241",
      "tag": "massthat",
      "shortTitle": "Massasoit & Thatcher",
      "title": "Massasoit Road and Thatcher St",
      "lat": "42.075747"
    },
    "masscsu": {
      "routes": {
        "6": {
          "": true
        }
      },
      "stopId": "368",
      "lon": "-70.9903787",
      "tag": "masscsu",
      "title": "Massasoit College Student Union",
      "lat": "42.0749465",
      "scheduleRoutes": {
        "6": {
          "batctr": {}
        }
      }
    },
    "creschri": {
      "routes": {
        "6": {
          "": true
        },
        "sun56": {
          "": true
        }
      },
      "stopId": "369",
      "lon": "-70.9868301",
      "tag": "creschri",
      "shortTitle": "Crescent & Christos",
      "title": "Crescent St and Christos",
      "lat": "42.0817229"
    },
    "creseast": {
      "routes": {
        "6": {
          "": true
        },
        "sun56": {
          "": true
        }
      },
      "stopId": "370",
      "lon": "-70.9895703",
      "tag": "creseast",
      "shortTitle": "Crescent & Eastway Plaza",
      "title": "Crescent St and Eastway Plaza",
      "lat": "42.0813549"
    },
    "cresdunh": {
      "routes": {
        "6": {
          "": true
        },
        "sun56": {
          "": true
        }
      },
      "stopId": "371",
      "lon": "-70.9942424",
      "tag": "cresdunh",
      "shortTitle": "Crescent & Dunham",
      "title": "Crescent St and Dunham St",
      "lat": "42.0806679"
    },
    "cresglad": {
      "routes": {
        "6": {
          "": true
        },
        "sun56": {
          "": true
        }
      },
      "stopId": "372",
      "lon": "-70.9961445",
      "tag": "cresglad",
      "shortTitle": "Crescent & Gladstone",
      "title": "Crescent St and Gladstone St",
      "lat": "42.0804649"
    },
    "creshill": {
      "routes": {
        "6": {
          "": true
        },
        "sun56": {
          "": true
        }
      },
      "stopId": "373",
      "lon": "-70.9985175",
      "tag": "creshill",
      "shortTitle": "Crescent & Hill",
      "title": "Crescent St and Hill St",
      "lat": "42.0804009"
    },
    "cresdrap": {
      "routes": {
        "6": {
          "": true
        },
        "sun56": {
          "": true
        }
      },
      "stopId": "374",
      "lon": "-71.0004575",
      "tag": "cresdrap",
      "shortTitle": "Crescent & Draper",
      "title": "Crescent St and Draper St",
      "lat": "42.0803469"
    },
    "creshenr": {
      "routes": {
        "6": {
          "": true
        },
        "sun56": {
          "": true
        }
      },
      "stopId": "375",
      "lon": "-71.0021895",
      "tag": "creshenr",
      "shortTitle": "Crescent & Henry",
      "title": "Crescent St and Henry St",
      "lat": "42.0803059"
    },
    "creswend": {
      "routes": {
        "6": {
          "": true
        },
        "sun56": {
          "": true
        }
      },
      "stopId": "376",
      "lon": "-71.0057195",
      "tag": "creswend",
      "shortTitle": "Crescent & Wendell",
      "title": "Crescent St and Wendell Ave",
      "lat": "42.0801939"
    },
    "creslyma": {
      "routes": {
        "6": {
          "": true
        },
        "sun56": {
          "": true
        }
      },
      "stopId": "377",
      "lon": "-71.0073615",
      "tag": "creslyma",
      "shortTitle": "Crescent & Lyman",
      "title": "Crescent St and Lyman St",
      "lat": "42.0801559"
    },
    "grovsumm": {
      "routes": {
        "6": {
          "": true
        },
        "sun56": {
          "": true
        }
      },
      "stopId": "378",
      "lon": "-71.0098044",
      "tag": "grovsumm",
      "shortTitle": "Grove & Summer",
      "title": "Grove St and Summer St",
      "lat": "42.0790077"
    },
    "grovlawr": {
      "routes": {
        "6": {
          "": true
        },
        "sun56": {
          "": true
        }
      },
      "stopId": "379",
      "lon": "-71.0113222",
      "tag": "grovlawr",
      "shortTitle": "Grove & Lawrence",
      "title": "Grove St and Lawrence St",
      "lat": "42.0775775"
    },
    "lawrotis": {
      "routes": {
        "6": {
          "": true
        },
        "sun56": {
          "": true
        }
      },
      "stopId": "380",
      "lon": "-71.0123845",
      "tag": "lawrotis",
      "shortTitle": "Lawrence & Otis",
      "title": "Lawrence St and Otis St",
      "lat": "42.0770889"
    },
    "lawrperk": {
      "routes": {
        "6": {
          "": true
        },
        "sun56": {
          "": true
        }
      },
      "stopId": "381",
      "lon": "-71.015533",
      "tag": "lawrperk",
      "shortTitle": "Lawrence & Perkins",
      "title": "Lawrence St and Perkins St",
      "lat": "42.0771582"
    },
    "perkmidd": {
      "routes": {
        "6": {
          "": true
        },
        "sun56": {
          "": true
        }
      },
      "stopId": "382",
      "lon": "-71.015576",
      "tag": "perkmidd",
      "shortTitle": "Perkins & Middle",
      "title": "Perkins St and Middle St",
      "lat": "42.0786692"
    },
    "perkcres": {
      "routes": {
        "6": {
          "": true
        },
        "sun56": {
          "": true
        }
      },
      "stopId": "383",
      "lon": "-71.0155389",
      "tag": "perkcres",
      "shortTitle": "Perkins & Crescent",
      "title": "Perkins St and Crescent St",
      "lat": "42.0807282"
    },
    "warrbelm_o": {
      "routes": {
        "8": {
          "": true
        }
      },
      "stopId": "400",
      "lon": "-71.0225752",
      "tag": "warrbelm_o",
      "shortTitle": "Warren & Belmont",
      "title": "Warren Ave and Belmont St",
      "lat": "42.0795785"
    },
    "warrwpar": {
      "routes": {
        "8": {
          "": true
        }
      },
      "stopId": "401",
      "lon": "-71.0220491",
      "tag": "warrwpar",
      "shortTitle": "Warren & West Park",
      "title": "Warren Ave and West Park St",
      "lat": "42.0768636"
    },
    "warrharv": {
      "routes": {
        "8": {
          "": true
        }
      },
      "stopId": "402",
      "lon": "-71.021896",
      "tag": "warrharv",
      "shortTitle": "Warren & Harvard",
      "title": "Warren Ave and Harvard St",
      "lat": "42.0758896"
    },
    "warrdove": {
      "routes": {
        "8": {
          "": true
        }
      },
      "stopId": "403",
      "lon": "-71.0217521",
      "tag": "warrdove",
      "shortTitle": "Warren & Dover",
      "title": "Warren Ave and Dover St",
      "lat": "42.0751766"
    },
    "warrfost": {
      "routes": {
        "8": {
          "": true
        }
      },
      "stopId": "404",
      "lon": "-71.021459",
      "tag": "warrfost",
      "shortTitle": "Warren & Foster",
      "title": "Warren Ave and Foster St",
      "lat": "42.0733535"
    },
    "warrflor": {
      "routes": {
        "8": {
          "": true
        }
      },
      "stopId": "405",
      "lon": "-71.021194",
      "tag": "warrflor",
      "shortTitle": "Warren & Florence",
      "title": "Warren Ave and Florence St",
      "lat": "42.0718085"
    },
    "warrmyrt": {
      "routes": {
        "8": {
          "": true
        }
      },
      "stopId": "406",
      "lon": "-71.021012",
      "tag": "warrmyrt",
      "shortTitle": "Warren & Myrtle",
      "title": "Warren Ave and Myrtle St",
      "lat": "42.0706425"
    },
    "warrmenl": {
      "routes": {
        "8": {
          "": true
        }
      },
      "stopId": "407",
      "lon": "-71.0207541",
      "tag": "warrmenl",
      "shortTitle": "Warren & Menlo",
      "title": "Warren Ave and Menlo St",
      "lat": "42.0692155"
    },
    "warrtrib": {
      "routes": {
        "8": {
          "": true
        }
      },
      "stopId": "408",
      "lon": "-71.0205261",
      "tag": "warrtrib",
      "shortTitle": "Warren & Tribou",
      "title": "Warren Ave and Tribou St",
      "lat": "42.0681864"
    },
    "warrhill": {
      "routes": {
        "8": {
          "": true
        }
      },
      "stopId": "409",
      "lon": "-71.0202231",
      "tag": "warrhill",
      "shortTitle": "Warren & Hillberg",
      "title": "Warren Ave and Hillberg Ave",
      "lat": "42.0668985"
    },
    "warrcalm": {
      "routes": {
        "8": {
          "": true
        }
      },
      "stopId": "410",
      "lon": "-71.0198741",
      "tag": "warrcalm",
      "shortTitle": "Warren & Calmar",
      "title": "Warren Ave and Calmar St",
      "lat": "42.0654125"
    },
    "warrtrem": {
      "routes": {
        "8": {
          "": true
        }
      },
      "stopId": "411",
      "lon": "-71.0196651",
      "tag": "warrtrem",
      "shortTitle": "Warren & Tremont",
      "title": "Warren Ave and Tremont St",
      "lat": "42.0645105"
    },
    "warrwche": {
      "routes": {
        "8": {
          "": true
        }
      },
      "stopId": "412",
      "lon": "-71.0194351",
      "tag": "warrwche",
      "shortTitle": "Warren & West Chestnut",
      "title": "Warren Ave and West Chestnut St",
      "lat": "42.0636095"
    },
    "warrleac": {
      "routes": {
        "8": {
          "": true
        }
      },
      "stopId": "413",
      "lon": "-71.0185223",
      "tag": "warrleac",
      "shortTitle": "Warren & Leach",
      "title": "Warren Ave and Leach Ave",
      "lat": "42.0615135"
    },
    "warrclif": {
      "routes": {
        "8": {
          "": true
        }
      },
      "stopId": "414",
      "lon": "-71.0175782",
      "tag": "warrclif",
      "shortTitle": "Warren & Clifton",
      "title": "Warren Ave and Clifton St",
      "lat": "42.0598155"
    },
    "plaimonx": {
      "routes": {
        "8": {
          "": true
        }
      },
      "stopId": "415",
      "lon": "-71.0131717",
      "tag": "plaimonx",
      "shortTitle": "Plain & Montello Ext",
      "title": "Plain St and Montello St Ext",
      "lat": "42.0604004"
    },
    "plaicamp": {
      "routes": {
        "8": {
          "": true
        }
      },
      "stopId": "416",
      "lon": "-71.0115997",
      "tag": "plaicamp",
      "shortTitle": "Plain & Campello Hi Rise",
      "title": "Plain St and Campello Hi Rise",
      "lat": "42.0595634"
    },
    "ottosumm": {
      "routes": {
        "8": {
          "": true
        }
      },
      "stopId": "417",
      "lon": "-71.006725",
      "tag": "ottosumm",
      "shortTitle": "Otto & Summer",
      "title": "Otto St and Summer St",
      "lat": "42.058415"
    },
    "summsley_o": {
      "routes": {
        "8": {
          "": true
        }
      },
      "stopId": "418",
      "lon": "-71.0064974",
      "tag": "summsley_o",
      "shortTitle": "Summer & South Leyden",
      "title": "Summer St and South Leyden St",
      "lat": "42.0592042"
    },
    "summfact": {
      "routes": {
        "8": {
          "": true
        }
      },
      "stopId": "419",
      "lon": "-71.0045103",
      "tag": "summfact",
      "shortTitle": "Summer @ Factory",
      "title": "Summer St at Factory",
      "lat": "42.0613797"
    },
    "summperk": {
      "routes": {
        "8": {
          "": true
        }
      },
      "stopId": "420",
      "lon": "-71.0037465",
      "tag": "summperk",
      "shortTitle": "Summer & Perkins",
      "title": "Summer St and Perkins Ave",
      "lat": "42.0629562"
    },