{
  "type": "FeatureCollection",
  "features": [
    {
      "type": "Feature",
      "properties": {
        "title": "Weiner St at Severin St",
        "tag": "weinseve",
        "stopId": "3096"
      },
      "geometry": {
        "type": "Point",
        "coordinates": [
          -79.0634097,
          35.9267633
        ]
      }
    },
    {
      "type": "Feature",
      "properties": {
        "title": "Severin St at #223",
        "tag": "seve223",
        "stopId": "3097"
      },
      "geometry": {
        "type": "Point",
        "coordinates": [
          -79.0600706,
          35.9275371
        ]
      }
    },
    {
      "type": "Feature",
      "properties": {
        "title": "Severin St at #224",
        "tag": "seven224",
        "stopId": "3455"
      },
      "geometry": {
        "type": "Point",
        "coordinates": [
          -79.0598821,
          35.9276009
        ]
      }
    },
    {
      "type": "Feature",
      "properties": {
        "title": "Bradley Rd at Williams Cir",
        "tag": "bradwill",
        "stopId": "3446"
      },
      "geometry": {
        "type": "Point",
        "coordinates": [
          -79.0580545,
          35.9264737
        ]
      }
    },
    {
      "type": "Feature",
      "properties": {
        "title": "Bradley Rd at Reade Rd",
        "tag": "bradread_s",
        "stopId": "3090"
      },
      "geometry": {
        "type": "Point",
        "coordinates": [
          -79.0578872,
          35.9249634
        ]
      }
    },
    {
      "type": "Feature",
      "properties": {
        "title": "Umstead Dr at Pritchard Ave",
        "tag": "umstprit",
        "stopId": "3089"
      },
      "geometry": {
        "type": "Point",
        "coordinates": [
          -79.060302,
          35.922577
        ]
      }
    },
    {
      "type": "Feature",
      "properties": {
        "title": "Pritchard Ave at Longview St",
        "tag": "pritlong",
        "stopId": "3047"
      },
      "geometry": {
        "type": "Point",
        "coordinates": [
          -79.0608665,
          35.9194649
        ]
      }
    },
    {
      "type": "Feature",
      "properties": {
        "title": "Longview St at N Columbia St",
        "tag": "longcolu",
        "stopId": "3048"
      },
      "geometry": {
        "type": "Point",
        "coordinates": [
          -79.0597929,
          35.9196021
        ]
      }
    },
    {
      "type": "Feature",
      "properties": {
        "title": "N Columbia St at Isley St",
        "tag": "coluisle",
        "stopId": "3049"
      },
      "geometry": {
        "type": "Point",
        "coordinates": [
          -79.0593041,
          35.9188048
        ]
      }
    },
    {
      "type": "Feature",
      "properties": {
        "title": "Caldwell Street at Housing Authority",
        "tag": "caldnorth",
        "stopId": "3414"
      },
      "geometry": {
        "type": "Point",
        "coordinates": [
          -79.0630222,
          35.9169155
        ]
      }
    },
    {
      "type": "Feature",
      "properties": {
        "title": "Mitchell Lane at Caldwell Street",
        "tag": "mitchcald",
        "stopId": "3564"
      },
      "geometry": {
        "type": "Point",
        "coordinates": [
          -79.0636303,
          35.9151107
        ]
      }
    },
    {
      "type": "Feature",
      "properties": {
        "title": "Mitchell Lane at Robertson St",
        "tag": "mitcrobe",
        "stopId": "3566"
      },
      "geometry": {
        "type": "Point",
        "coordinates": [
          -79.0628798,
          35.9135886
        ]
      }
    },
    {
      "type": "Feature",
      "properties": {
        "title": "Mitchell Lane at #211",
        "tag": "mitch211",
        "stopId": "3582"
      },
      "geometry": {
        "type": "Point",
        "coordinates": [
          -79.0624969,
          35.9120929
        ]
      }
    },
    {
      "type": "Feature",
      "properties": {
        "title": "W Rosemary St at Mini-Mart",
        "tag": "rosemini",
        "stopId": "3567"
      },
      "geometry": {
        "type": "Point",
        "coordinates": [
          -79.0606307,
          35.9123597
        ]
      }
    },
    {
      "type": "Feature",
      "properties": {
        "title": "W Rosemary St at Pritchard Ave",
        "tag": "roseprit",
        "stopId": "3568"
      },
      "geometry": {
        "type": "Point",
        "coordinates": [
          -79.0580646,
          35.9133597
        ]
      }
    },
    {
      "type": "Feature",
      "properties": {
        "title": "N Columbia St at W Franklin St",
        "tag": "colufank",
        "stopId": "3421"
      },
      "geometry": {
        "type": "Point",
        "coordinates": [
          -79.0560431,
          35.9134031
        ]
      }
    },
    {
      "type": "Feature",
      "properties": {
        "title": "S Columbia St at Frat Ct",
        "tag": "colufrat",
        "stopId": "3179"
      },
      "geometry": {
        "type": "Point",
        "coordinates": [
          -79.055059,
          35.911699
        ]
      }
    },
    {
      "type": "Feature",
      "properties": {
        "title": "South Rd at Coker Hall",
        "tag": "southcoke",
        "stopId": "3214"
      },
      "geometry": {
        "type": "Point",
        "coordinates": [
          -79.0514981,
          35.908599
        ]
      }
    },
    {
      "type": "Feature",
      "properties": {
        "title": "South Rd at Fetzer Gym",
        "tag": "soutfetz",
        "stopId": "3359"
      },
      "geometry": {
        "type": "Point",
        "coordinates": [
          -79.0477169,
          35.909643
        ]
      }
    },
    {
      "type": "Feature",
      "properties": {
        "title": "South Rd at Woollen Gym",
        "tag": "soutwool",
        "stopId": "3397"
      },
      "geometry": {
        "type": "Point",
        "coordinates": [
          -79.0451508,
          35.910175
        ]
      }
    },
    {
      "type": "Feature",
      "properties": {
        "title": "South Rd at Country Club",
        "tag": "soutcoun",
        "stopId": "3430"
      },
      "geometry": {
        "type": "Point",
        "coordinates": [
          -79.0425469,
          35.910643
        ]
      }
    },
    {
      "type": "Feature",
      "properties": {
        "title": "Raleigh Rd at Greenwood Rd",
        "tag": "ralegreen",
        "stopId": "3105"
      },
      "geometry": {
        "type": "Point",
        "coordinates": [
          -79.0316449,
          35.9095509
        ]
      }
    },
    {
      "type": "Feature",
      "properties": {
        "title": "Raleigh Rd at UNC Administration",
        "tag": "raleunc",
        "stopId": "3386"
      },
      "geometry": {
        "type": "Point",
        "coordinates": [
          -79.0302369,
          35.9093129
        ]
      }
    },
    {
      "type": "Feature",
      "properties": {
        "title": "Hamilton Rd at Maxwell Rd 1",
        "tag": "hamimax1",
        "stopId": "3390"
      },
      "geometry": {
        "type": "Point",
        "coordinates": [
          -79.0235662,
          35.9093955
        ]
      }
    },
    {
      "type": "Feature",
      "properties": {
        "title": "Hamilton Rd at Berkley Rd",
        "tag": "hamiberk",
        "stopId": "3392"
      },
      "geometry": {
        "type": "Point",
        "coordinates": [
          -79.0232569,
          35.9109233
        ]
      }
    },
    {
      "type": "Feature",
      "properties": {
        "title": "Hamilton Rd at Maxwell Rd 2",
        "tag": "hamimax2",
        "stopId": "3393"
      },
      "geometry": {
        "type": "Point",
        "coordinates": [
          -79.0233871,
          35.9130834
        ]
      }
    },
    {
      "type": "Feature",
      "properties": {
        "title": "Brandon Rd at Hamilton Rd",
        "tag": "branhami",
        "stopId": "3362"
      },
      "geometry": {
        "type": "Point",
        "coordinates": [
          -79.0233882,
          35.915143
        ]
      }
    },
    {
      "type": "Feature",
      "properties": {
        "title": "Brandon Rd at Hayes Rd",
        "tag": "branhaye",
        "stopId": "3364"
      },
      "geometry": {
        "type": "Point",
        "coordinates": [
          -79.0259282,
          35.915233
        ]
      }
    },
    {
      "type": "Feature",
      "properties": {
        "title": "Estes Dr at Fordham Blvd (Texaco)",
        "tag": "esteford",
        "stopId": "3374"
      },
      "geometry": {
        "type": "Point",
        "coordinates": [
          -79.0255474,
          35.925273
        ]
      }
    },
    {
      "type": "Feature",
      "properties": {
        "title": "University Place",
        "tag": "univplac",
        "stopId": "3377"
      },
      "geometry": {
        "type": "Point",
        "coordinates": [
          -79.029326,
          35.928326
        ]
      }
    },
    {
      "type": "Feature",
      "properties": {
        "title": "Willow Dr at Estes Dr",
        "tag": "willeste",
        "stopId": "3597"
      },
      "geometry": {
        "type": "Point",
        "coordinates": [
          -79.030184,
          35.9279611
        ]
      }
    },
    {
      "type": "Feature",
      "properties": {
        "title": "Estes Dr at Camelot Apartments",
        "tag": "estecame",
        "stopId": "3375"
      },
      "geometry": {
        "type": "Point",
        "coordinates": [
          -79.0297676,
          35.9272979
        ]
      }
    },
    {
      "type": "Feature",
      "properties": {
        "title": "Estes Dr at US 15-501 Bypass",
        "tag": "este15by",
        "stopId": "3373"
      },
      "geometry": {
        "type": "Point",
        "coordinates": [
          -79.0260063,
          35.9251995
        ]
      }
    },
    {
      "type": "Feature",
      "properties": {
        "title": "Brandon Rd at Hayes Rd",
        "tag": "branhay",
        "stopId": "3363"
      },
      "geometry": {
        "type": "Point",
        "coordinates": [
          -79.0258383,
          35.9151284
        ]
      }
    },
    {
      "type": "Feature",
      "properties": {
        "title": "Brandon Rd at Hamilton Rd",
        "tag": "branhamil",
        "stopId": "3361"
      },
      "geometry": {
        "type": "Point",
        "coordinates": [
          -79.0235154,
          35.9150682
        ]
      }
    },
    {
      "type": "Feature",
      "properties": {
        "title": "Hamilton Rd at Maxwell Rd 2",
        "tag": "hamimaxw2",
        "stopId": "3394"
      },
      "geometry": {
        "type": "Point",
        "coordinates": [
          -79.0236823,
          35.9132815
        ]
      }
    },
    {
      "type": "Feature",
      "properties": {
        "title": "Hamilton Rd at Berkley Rd",
        "tag": "hamiberkl",
        "stopId": "3391"
      },
      "geometry": {
        "type": "Point",
        "coordinates": [
          -79.0234399,
          35.9109383
        ]
      }
    },
    {
      "type": "Feature",
      "properties": {
        "title": "Hamilton Rd at Maxwell Rd 1",
        "tag": "hamimax",
        "stopId": "3389"
      },
      "geometry": {
        "type": "Point",
        "coordinates": [
          -79.0238109,
          35.9094945
        ]
      }
    },
    {
      "type": "Feature",
      "properties": {
        "title": "Hamilton Rd at Raleigh Rd",
        "tag": "hamirale",
        "stopId": "3388"
      },
      "geometry": {
        "type": "Point",
        "coordinates": [
          -79.0239014,
          35.9083476
        ]
      }
    },
    {
      "type": "Feature",
      "properties": {
        "title": "Raleigh Rd at Glen Lennox Shop Ctr",
        "tag": "ralelenn",
        "stopId": "3387"
      },
      "geometry": {
        "type": "Point",
        "coordinates": [
          -79.024729,
          35.908357
        ]
      }
    },
    {
      "type": "Feature",
      "properties": {
        "title": "Raleigh Rd at UNC Administration",
        "tag": "raleuncad",
        "stopId": "3114"
      },
      "geometry": {
        "type": "Point",
        "coordinates": [
          -79.029107,
          35.909283
        ]
      }
    },
    {
      "type": "Feature",
      "properties": {
        "title": "Raleigh Rd at Greenwood Rd",
        "tag": "ralegree",
        "stopId": "3106"
      },
      "geometry": {
        "type": "Point",
        "coordinates": [
          -79.032447,
          35.909933
        ]
      }
    },
    {
      "type": "Feature",
      "properties": {
        "title": "South Rd at Country Club Rd",
        "tag": "soutcount",
        "stopId": "3431"
      },
      "geometry": {
        "type": "Point",
        "coordinates": [
          -79.042793,
          35.9107919
        ]
      }
    },
    {
      "type": "Feature",
      "properties": {
        "title": "South Rd at Raleigh St",
        "tag": "soutrale",
        "stopId": "3398"
      },
      "geometry": {
        "type": "Point",
        "coordinates": [
          -79.046327,
          35.9100829
        ]
      }
    },
    {
      "type": "Feature",
      "properties": {
        "title": "South Road at Student Union",
        "tag": "soutstud",
        "stopId": "3360"
      },
      "geometry": {
        "type": "Point",
        "coordinates": [
          -79.0482882,
          35.9095912
        ]
      }
    },
    {
      "type": "Feature",
      "properties": {
        "title": "South Rd at Kenan Labs",
        "tag": "soutkena",
        "stopId": "3215"
      },
      "geometry": {
        "type": "Point",
        "coordinates": [
          -79.0511129,
          35.9086919
        ]
      }
    },
    {
      "type": "Feature",
      "properties": {
        "title": "S Columbia St at Sitterson Hall & ROTC",
        "tag": "scolsitt",
        "stopId": "3437"
      },
      "geometry": {
        "type": "Point",
        "coordinates": [
          -79.0532369,
          35.9092808
        ]
      }
    },
    {
      "type": "Feature",
      "properties": {
        "title": "S Columbia St at Abernethy Hall",
        "tag": "scolaber",
        "stopId": "3178"
      },
      "geometry": {
        "type": "Point",
        "coordinates": [
          -79.0546869,
          35.9113728
        ]
      }
    },
    {
      "type": "Feature",
      "properties": {
        "title": "N Columbia St and W Rosemary St",
        "tag": "colurose",
        "stopId": "3383"
      },
      "geometry": {
        "type": "Point",
        "coordinates": [
          -79.0560369,
          35.9137428
        ]
      }
    },
    {
      "type": "Feature",
      "properties": {
        "title": "W Rosemary St at Pritchard Ave",
        "tag": "rosepritch",
        "stopId": "3560"
      },
      "geometry": {
        "type": "Point",
        "coordinates": [
          -79.0578672,
          35.9135629
        ]
      }
    },
    {
      "type": "Feature",
      "properties": {
        "title": "W Rosemary St at Breadmans",
        "tag": "rosebrea",
        "stopId": "3409"
      },
      "geometry": {
        "type": "Point",
        "coordinates": [
          -79.0604222,
          35.9125568
        ]
      }
    },
    {
      "type": "Feature",
      "properties": {
        "title": "Mitchell Ln at W Rosemary",
        "tag": "mitcrose",
        "stopId": "3410"
      },
      "geometry": {
        "type": "Point",
        "coordinates": [
          -79.062387,
          35.9120227
        ]
      }
    },
    {
      "type": "Feature",
      "properties": {
        "title": "Mitchell Ln at Lindsay St",
        "tag": "mitclind",
        "stopId": "3411"
      },
      "geometry": {
        "type": "Point",
        "coordinates": [
          -79.0626291,
          35.9133159
        ]
      }
    },
    {
      "type": "Feature",
      "properties": {
        "title": "Mitchell Ln at McDade St",
        "tag": "mitcmcda",
        "stopId": "3412"
      },
      "geometry": {
        "type": "Point",
        "coordinates": [
          -79.0631348,
          35.9144805
        ]
      }
    },
    {
      "type": "Feature",
      "properties": {
        "title": "Mitchell Ln at Caldwell St",
        "tag": "mitccald",
        "stopId": "3413"
      },
      "geometry": {
        "type": "Point",
        "coordinates": [
          -79.0640089,
          35.9158858
        ]
      }
    },
    {
      "type": "Feature",
      "properties": {
        "title": "Caldwell St at Housing Authority",
        "tag": "caldhous",
        "stopId": "3619"
      },
      "geometry": {
        "type": "Point",
        "coordinates": [
          -79.0625298,
          35.916976
        ]
      }
    },
    {
      "type": "Feature",
      "properties": {
        "title": "Caldwell St at Church St",
        "tag": "caldchur",
        "stopId": "3415"
      },
      "geometry": {
        "type": "Point",
        "coordinates": [
          -79.0609507,
          35.9173871
        ]
      }
    },
    {
      "type": "Feature",
      "properties": {
        "title": "Caldwell St at N Columbia St",
        "tag": "caldcolu",
        "stopId": "3051"
      },
      "geometry": {
        "type": "Point",
        "coordinates": [
          -79.0593837,
          35.9180331
        ]
      }
    },
    {
      "type": "Feature",
      "properties": {
        "title": "N Columbia St at Isley St",
        "tag": "colyisle",
        "stopId": "3050"
      },
      "geometry": {
        "type": "Point",
        "coordinates": [
          -79.0591281,
          35.9187371
        ]
      }
    },
    {
      "type": "Feature",
      "properties": {
        "title": "Columbia at Longview",
        "tag": "colulong_n",
        "stopId": "3046"
      },
      "geometry": {
        "type": "Point",
        "coordinates": [
          -79.0599983,
          35.9197622
        ]
      }
    },
    {
      "type": "Feature",
      "properties": {
        "title": "Pritchard Ave at Trinity Ct",
        "tag": "prittrin",
        "stopId": "3033"
      },
      "geometry": {
        "type": "Point",
        "coordinates": [
          -79.0609304,
          35.919822
        ]
      }
    },
    {
      "type": "Feature",
      "properties": {
        "title": "Bradley Rd at Reade Rd",
        "tag": "bradread_n",
        "stopId": "3608"
      },
      "geometry": {
        "type": "Point",
        "coordinates": [
          -79.0576574,
          35.9247776
        ]
      }
    },
    {
      "type": "Feature",
      "properties": {
        "title": "Bradley Rd at Williams Circle",
        "tag": "bradwill_n",
        "stopId": "3088"
      },
      "geometry": {
        "type": "Point",
        "coordinates": [
          -79.0579888,
          35.9263723
        ]
      }
    },
    {
      "type": "Feature",
      "properties": {
        "title": "Severin St at Bradley Rd",
        "tag": "sevebrad",
        "stopId": "3098"
      },
      "geometry": {
        "type": "Point",
        "coordinates": [
          -79.0581269,
          35.9282134
        ]
      }
    },
    {
      "type": "Feature",
      "properties": {
        "title": "Barclay Rd at Williams Circle",
        "tag": "barcwill",
        "stopId": "3093"
      },
      "geometry": {
        "type": "Point",
        "coordinates": [
          -79.0583178,
          35.9294827
        ]
      }
    },
    {
      "type": "Feature",
      "properties": {
        "title": "Barclay Rd at Wyrick St",
        "tag": "barcwyri",
        "stopId": "3328"
      },
      "geometry": {
        "type": "Point",
        "coordinates": [
          -79.0600478,
          35.9289127
        ]
      }
    },
    {
      "type": "Feature",
      "properties": {
        "title": "Barclay Rd at Hartig St",
        "tag": "barchart",
        "stopId": "3297"
      },
      "geometry": {
        "type": "Point",
        "coordinates": [
          -79.0627476,
          35.9280525
        ]
      }
    },
    {
      "type": "Feature",
      "properties": {
        "title": "Weiner St at Barclay Rd",
        "tag": "weinbarc",
        "stopId": "3095"
      },
      "geometry": {
        "type": "Point",
        "coordinates": [
          -79.0631071,
          35.9272527
        ]
      }
    },
    {
      "type": "Feature",
      "properties": {
        "title": "East Dr at Jackson Circle",
        "tag": "eastjack",
        "stopId": "3237"
      },
      "geometry": {
        "type": "Point",
        "coordinates": [
          -79.0507305,
          35.9018682
        ]
      }
    },
    {
      "type": "Feature",
      "properties": {
        "title": "Manning Dr at Gravely",
        "tag": "manngrav",
        "stopId": "3703"
      },
      "geometry": {
        "type": "Point",
        "coordinates": [
          -79.0505992,
          35.9031719
        ]
      }
    },
    {
      "type": "Feature",
      "properties": {
        "title": "Manning Dr at UNC Hospitals",
        "tag": "mannunch_d",
        "stopId": "3239"
      },
      "geometry": {
        "type": "Point",
        "coordinates": [
          -79.051856,
          35.903559
        ]
      }
    },
    {
      "type": "Feature",
      "properties": {
        "title": "S Columbia St at Health Sciences Library",
        "tag": "coluheal",
        "stopId": "3223"
      },
      "geometry": {
        "type": "Point",
        "coordinates": [
          -79.0534682,
          35.905412
        ]
      }
    },
    {
      "type": "Feature",
      "properties": {
        "title": "S Columbia St at Carrington Hall",
        "tag": "colucarr",
        "stopId": "3222"
      },
      "geometry": {
        "type": "Point",
        "coordinates": [
          -79.0527798,
          35.9069413
        ]
      }
    },
    {
      "type": "Feature",
      "properties": {
        "title": "E Franklin St at Coffee Shop",
        "tag": "francoffe",
        "stopId": "3427"
      },
      "geometry": {
        "type": "Point",
        "coordinates": [
          -79.05407,
          35.9136999
        ]
      }
    },
    {
      "type": "Feature",
      "properties": {
        "title": "E Franklin St at Planetarium",
        "tag": "franplan_n",
        "stopId": "3257"
      },
      "geometry": {
        "type": "Point",
        "coordinates": [
          -79.0509297,
          35.91493
        ]
      }
    },
    {
      "type": "Feature",
      "properties": {
        "title": "E Franklin St at Raleigh St",
        "tag": "franralei",
        "stopId": "3254"
      },
      "geometry": {
        "type": "Point",
        "coordinates": [
          -79.0486095,
          35.9158301
        ]
      }
    },
    {
      "type": "Feature",
      "properties": {
        "title": "E Franklin St at S Boundary St",
        "tag": "franboun_n",
        "stopId": "3255"
      },
      "geometry": {
        "type": "Point",
        "coordinates": [
          -79.0461092,
          35.9167702
        ]
      }
    },
    {
      "type": "Feature",
      "properties": {
        "title": "E Franklin St at Park Pl",
        "tag": "franpark",
        "stopId": "3250"
      },
      "geometry": {
        "type": "Point",
        "coordinates": [
          -79.0437467,
          35.9167999
        ]
      }
    },
    {
      "type": "Feature",
      "properties": {
        "title": "E Franklin St at Glendale Dr",
        "tag": "franglen",
        "stopId": "3269"
      },
      "geometry": {
        "type": "Point",
        "coordinates": [
          -79.0399968,
          35.9181015
        ]
      }
    },
    {
      "type": "Feature",
      "properties": {
        "title": "E Franklin St at Howell Ln",
        "tag": "franhowe_n",
        "stopId": "3268"
      },
      "geometry": {
        "type": "Point",
        "coordinates": [
          -79.0386691,
          35.9222868
        ]
      }
    },
    {
      "type": "Feature",
      "properties": {
        "title": "E Franklin St at Elizabeth St",
        "tag": "franeliz_n",
        "stopId": "3266"
      },
      "geometry": {
        "type": "Point",
        "coordinates": [
          -79.0382395,
          35.9240107
        ]
      }
    },
    {
      "type": "Feature",
      "properties": {
        "title": "E Franklin St at Plant Rd",
        "tag": "franplant",
        "stopId": "3264"
      },
      "geometry": {
        "type": "Point",
        "coordinates": [
          -79.0357598,
          35.9268101
        ]
      }
    },
    {
      "type": "Feature",
      "properties": {
        "title": "E Franklin St at Estes Dr",
        "tag": "franeste_n",
        "stopId": "3260"
      },
      "geometry": {
        "type": "Point",
        "coordinates": [
          -79.03443,
          35.9288
        ]
      }
    },
    {
      "type": "Feature",
      "properties": {
        "title": "E Franklin St at #1512",
        "tag": "fran1512",
        "stopId": "3370"
      },
      "geometry": {
        "type": "Point",
        "coordinates": [
          -79.0330403,
          35.9311696
        ]
      }
    },
    {
      "type": "Feature",
      "properties": {
        "title": "E Franklin St at #1520",
        "tag": "fran1520",
        "stopId": "3367"
      },
      "geometry": {
        "type": "Point",
        "coordinates": [
          -79.0318602,
          35.9324097
        ]
      }
    },
    {
      "type": "Feature",
      "properties": {
        "title": "E Franklin St at Elliott Rd",
        "tag": "franelli_n",
        "stopId": "3365"
      },
      "geometry": {
        "type": "Point",
        "coordinates": [
          -79.02959,
          35.9347299
        ]
      }
    },
    {
      "type": "Feature",
      "properties": {
        "title": "E Franklin St at Eastgate Shopping Center",
        "tag": "franeast",
        "stopId": "3453"
      },
      "geometry": {
        "type": "Point",
        "coordinates": [
          -79.0261665,
          35.9366922
        ]
      }
    },
    {
      "type": "Feature",
      "properties": {
        "title": "Eastowne Rd at Pinegate",
        "tag": "eastpine",
        "stopId": "3296"
      },
      "geometry": {
        "type": "Point",
        "coordinates": [
          -79.0079289,
          35.9485004
        ]
      }
    },
    {
      "type": "Feature",
      "properties": {
        "title": "Old Sterling Rd at Eastowne Rd",
        "tag": "oldsterl"
      },
      "geometry": {
        "type": "Point",
        "coordinates": [
          -79.008236,
          35.95044
        ]
      }
    },
    {
      "type": "Feature",
      "properties": {
        "title": "Old Sterling Rd at Notting Hill Apts",
        "tag": "oldsternot"
      },
      "geometry": {
        "type": "Point",
        "coordinates": [
          -79.0114496,
          35.9512304
        ]
      }
    },
    {
      "type": "Feature",
      "properties": {
        "title": "Old Sterling Rd at Bible Church",
        "tag": "oldbible"
      },
      "geometry": {
        "type": "Point",
        "coordinates": [
          -79.0141266,
          35.9507716
        ]
      }
    },
    {
      "type": "Feature",
      "properties": {
        "title": "Coleridge Rd at Presque Isle",
        "tag": "colepres",
        "stopId": "3285"
      },
      "geometry": {
        "type": "Point",
        "coordinates": [
          -79.0164399,
          35.94943
        ]
      }
    },
    {
      "type": "Feature",
      "properties": {
        "title": "Coleridge Rd at Sage Rd",
        "tag": "colewald_d",
        "stopId": "3286"
      },
      "geometry": {
        "type": "Point",
        "coordinates": [
          -79.0150614,
          35.94719
        ]
      }
    },
    {
      "type": "Feature",
      "properties": {
        "title": "Sage Rd at Lowe's/Borders",
        "tag": "sagelowe_s",
        "stopId": "3126"
      },
      "geometry": {
        "type": "Point",
        "coordinates": [
          -79.0132809,
          35.9457118
        ]
      }
    },
    {
      "type": "Feature",
      "properties": {
        "title": "Dobbins Dr at Cosgrove Hills",
        "tag": "dobbcosg",
        "stopId": "3113"
      },
      "geometry": {
        "type": "Point",
        "coordinates": [
          -79.0141634,
          35.9443197
        ]
      }
    },
    {
      "type": "Feature",
      "properties": {
        "title": "Old Oxford Rd at Kirkwood",
        "tag": "oxfokirk_s",
        "stopId": "3468"
      },
      "geometry": {
        "type": "Point",
        "coordinates": [
          -79.0209918,
          35.94666
        ]
      }
    },
    {
      "type": "Feature",
      "properties": {
        "title": "Old Oxford Rd at Booker Creek Rd",
        "tag": "oxfobook_s",
        "stopId": "3462"
      },
      "geometry": {
        "type": "Point",
        "coordinates": [
          -79.0236692,
          35.9457505
        ]
      }
    },
    {
      "type": "Feature",
      "properties": {
        "title": "Summerfield Crossing at Grist Mill Ln",
        "tag": "summgrist_s",
        "stopId": "3001"
      },
      "geometry": {
        "type": "Point",
        "coordinates": [
          -79.025334,
          35.9436486
        ]
      }
    },
    {
      "type": "Feature",
      "properties": {
        "title": "Summerfield Crossing at Berry Patch",
        "tag": "summberry",
        "stopId": "3116"
      },
      "geometry": {
        "type": "Point",
        "coordinates": [
          -79.0221521,
          35.9436422
        ]
      }
    },
    {
      "type": "Feature",
      "properties": {
        "title": "Summerfield Crossing at Beaver Dam C",
        "tag": "summbeav",
        "stopId": "3117"
      },
      "geometry": {
        "type": "Point",
        "coordinates": [
          -79.0212624,
          35.9415314
        ]
      }
    },
    {
      "type": "Feature",
      "properties": {
        "title": "Dobbins Dr at Foxcroft",
        "tag": "dobbfoxc",
        "stopId": "3120"
      },
      "geometry": {
        "type": "Point",
        "coordinates": [
          -79.02202,
          35.94081
        ]
      }
    },
    {
      "type": "Feature",
      "properties": {
        "title": "Dobbins Dr at Franklin Square",
        "tag": "dobbfrank",
        "stopId": "3121"
      },
      "geometry": {
        "type": "Point",
        "coordinates": [
          -79.0245604,
          35.9386793
        ]
      }
    },
    {
      "type": "Feature",
      "properties": {
        "title": "E Franklin St at Booker Ck Greenway",
        "tag": "franbook",
        "stopId": "3273"
      },
      "geometry": {
        "type": "Point",
        "coordinates": [
          -79.0263501,
          35.9368299
        ]
      }
    },
    {
      "type": "Feature",
      "properties": {
        "title": "E Franklin St at Elliott Rd",
        "tag": "franelli_s",
        "stopId": "3366"
      },
      "geometry": {
        "type": "Point",
        "coordinates": [
          -79.0298525,
          35.9347474
        ]
      }
    },
    {
      "type": "Feature",
      "properties": {
        "title": "E Franklin St at Franklin Woods",
        "tag": "franfran",
        "stopId": "3368"
      },
      "geometry": {
        "type": "Point",
        "coordinates": [
          -79.0321902,
          35.9323497
        ]
      }
    },
    {
      "type": "Feature",
      "properties": {
        "title": "E Franklin St at Etna Gas Station",
        "tag": "franetna"
      },
      "geometry": {
        "type": "Point",
        "coordinates": [
          -79.0330402,
          35.9314596
        ]
      }
    },
    {
      "type": "Feature",
      "properties": {
        "title": "E Franklin St at Estes Dr",
        "tag": "franeste_s",
        "stopId": "3259"
      },
      "geometry": {
        "type": "Point",
        "coordinates": [
          -79.0346545,
          35.9287083
        ]
      }
    },
    {
      "type": "Feature",
      "properties": {
        "title": "E Franklin St at Vet Hospital",
        "tag": "franveth",
        "stopId": "3263"
      },
      "geometry": {
        "type": "Point",
        "coordinates": [
          -79.0360097,
          35.9267802
        ]
      }
    },
    {
      "type": "Feature",
      "properties": {
        "title": "E Franklin St at Elizabeth St",
        "tag": "franeliz_s",
        "stopId": "3265"
      },
      "geometry": {
        "type": "Point",
        "coordinates": [
          -79.0383796,
          35.9242205
        ]
      }
    },
    {
      "type": "Feature",
      "properties": {
        "title": "E Franklin St at Howell Ln",
        "tag": "franhowe_s",
        "stopId": "3267"
      },
      "geometry": {
        "type": "Point",
        "coordinates": [
          -79.03888,
          35.9225264
        ]
      }
    },
    {
      "type": "Feature",
      "properties": {
        "title": "E Franklin St at Carolina Ave",
        "tag": "francaro",
        "stopId": "3251"
      },
      "geometry": {
        "type": "Point",
        "coordinates": [
          -79.0402195,
          35.9182103
        ]
      }
    },
    {
      "type": "Feature",
      "properties": {
        "title": "E Franklin St at N Boundary St",
        "tag": "franboun_s",
        "stopId": "3256"
      },
      "geometry": {
        "type": "Point",
        "coordinates": [
          -79.0467931,
          35.9166887
        ]
      }
    },
    {
      "type": "Feature",
      "properties": {
        "title": "E Franklin St at Hillsborough St",
        "tag": "franhill",
        "stopId": "3253"
      },
      "geometry": {
        "type": "Point",
        "coordinates": [
          -79.0490394,
          35.9158301
        ]
      }
    },
    {
      "type": "Feature",
      "properties": {
        "title": "E Franklin St at Planetarium",
        "tag": "franplan_s",
        "stopId": "3258"
      },
      "geometry": {
        "type": "Point",
        "coordinates": [
          -79.0508205,
          35.9151497
        ]
      }
    },
    {
      "type": "Feature",
      "properties": {
        "title": "E Franklin St at Henderson St",
        "tag": "franhend",
        "stopId": "3447"
      },
      "geometry": {
        "type": "Point",
        "coordinates": [
          -79.0527808,
          35.9143996
        ]
      }
    },
    {
      "type": "Feature",
      "properties": {
        "title": "E Franklin St at Varsity Theatre",
        "tag": "franvars",
        "stopId": "3428"
      },
      "geometry": {
        "type": "Point",
        "coordinates": [
          -79.0548588,
          35.91358
        ]
      }
    },
    {
      "type": "Feature",
      "properties": {
        "title": "Pittsboro St at McCauley St (Newman Center)",
        "tag": "pittnewm",
        "stopId": "3211"
      },
      "geometry": {
        "type": "Point",
        "coordinates": [
          -79.0548105,
          35.9089109
        ]
      }
    },
    {
      "type": "Feature",
      "properties": {
        "title": "Pittsboro St at Vance St (Credit Union)",
        "tag": "pittcred",
        "stopId": "3226"
      },
      "geometry": {
        "type": "Point",
        "coordinates": [
          -79.0548699,
          35.9068908
        ]
      }
    },
    {
      "type": "Feature",
      "properties": {
        "title": "Pittsboro at University Dr",
        "tag": "pittuniv",
        "stopId": "3224"
      },
      "geometry": {
        "type": "Point",
        "coordinates": [
          -79.0551398,
          35.9052806
        ]
      }
    },
    {
      "type": "Feature",
      "properties": {
        "title": "Mason Farm Rd at Ambulatory Care Center",
        "tag": "masoambu_n",
        "stopId": "3221"
      },
      "geometry": {
        "type": "Point",
        "coordinates": [
          -79.0559485,
          35.90205
        ]
      }
    },
    {
      "type": "Feature",
      "properties": {
        "title": "Mason Farm Rd at Odum Village",
        "tag": "masoodum",
        "stopId": "3436"
      },
      "geometry": {
        "type": "Point",
        "coordinates": [
          -79.0522805,
          35.9015603
        ]
      }
    },
    {
      "type": "Feature",
      "properties": {
        "title": "Jones Ferry Park and Ride",
        "tag": "jonespr_d",
        "stopId": "3138"
      },
      "geometry": {
        "type": "Point",
        "coordinates": [
          -79.0902903,
          35.9014842
        ]
      }
    },
    {
      "type": "Feature",
      "properties": {
        "title": "Old Fayetteville Rd at Poplar Place",
        "tag": "ofaypopl",
        "stopId": "3139"
      },
      "geometry": {
        "type": "Point",
        "coordinates": [
          -79.0909301,
          35.9031883
        ]
      }
    },
    {
      "type": "Feature",
      "properties": {
        "title": "Old Fayetteville Rd at Autumn Woods",
        "tag": "autoldf_n",
        "stopId": "3404"
      },
      "geometry": {
        "type": "Point",
        "coordinates": [
          -79.0916499,
          35.9055988
        ]
      }
    },
    {
      "type": "Feature",
      "properties": {
        "title": "Old Fayetteville Rd at Autumn Woods",
        "tag": "oldfaut_n",
        "stopId": "3137"
      },
      "geometry": {
        "type": "Point",
        "coordinates": [
          -79.0921599,
          35.9072889
        ]
      }
    },
    {
      "type": "Feature",
      "properties": {
        "title": "Old Fayetteville Rd at The Crest",
        "tag": "oldframg_n",
        "stopId": "3595"
      },
      "geometry": {
        "type": "Point",
        "coordinates": [
          -79.0933801,
          35.9106592
        ]
      }
    },
    {
      "type": "Feature",
      "properties": {
        "title": "W Poplar Av at The Crest",
        "tag": "popldomi_n",
        "stopId": "3589"
      },
      "geometry": {
        "type": "Point",
        "coordinates": [
          -79.092881,
          35.9123499
        ]
      }
    },
    {
      "type": "Feature",
      "properties": {
        "title": "NC 54 East at Poplar Ave",
        "tag": "nc54domi",
        "stopId": "3488"
      },
      "geometry": {
        "type": "Point",
        "coordinates": [
          -79.09177,
          35.91221
        ]
      }
    },
    {
      "type": "Feature",
      "properties": {
        "title": "NC 54 at Harris Inc (Fenway Park)",
        "tag": "nc54harr",
        "stopId": "3592"
      },
      "geometry": {
        "type": "Point",
        "coordinates": [
          -79.0902886,
          35.9093485
        ]
      }
    },
    {
      "type": "Feature",
      "properties": {
        "title": "NC 54 East at Westbrook Dr",
        "tag": "nc54west",
        "stopId": "3458"
      },
      "geometry": {
        "type": "Point",
        "coordinates": [
          -79.081252,
          35.9032093
        ]
      }
    },
    {
      "type": "Feature",
      "properties": {
        "title": "NC 54 East at Canterbury Apts",
        "tag": "nc54cante",
        "stopId": "3457"
      },
      "geometry": {
        "type": "Point",
        "coordinates": [
          -79.0769153,
          35.9023783
        ]
      }
    },
    {
      "type": "Feature",
      "properties": {
        "title": "Smith Level Rd at FPG School",
        "tag": "smithfpg",
        "stopId": "3133"
      },
      "geometry": {
        "type": "Point",
        "coordinates": [
          -79.0734251,
          35.9007809
        ]
      }
    },
    {
      "type": "Feature",
      "properties": {
        "title": "Merritt Mill Rd at Greensboro",
        "tag": "merrgreen",
        "stopId": "3708"
      },
      "geometry": {
        "type": "Point",
        "coordinates": [
          -79.0722863,
          35.9011696
        ]
      }
    },
    {
      "type": "Feature",
      "properties": {
        "title": "Merritt Mill Rd at Manley Estates",
        "tag": "merrmanl_e",
        "stopId": "3087"
      },
      "geometry": {
        "type": "Point",
        "coordinates": [
          -79.0680088,
          35.901901
        ]
      }
    },
    {
      "type": "Feature",
      "properties": {
        "title": "Merritt Mill Rd at Lincoln Center",
        "tag": "merrlinc_e",
        "stopId": "3157"
      },
      "geometry": {
        "type": "Point",
        "coordinates": [
          -79.0668007,
          35.9028495
        ]
      }
    },
    {
      "type": "Feature",
      "properties": {
        "title": "Merritt Mill Rd at Locust Ct",
        "tag": "merrlocu_e",
        "stopId": "3181"
      },
      "geometry": {
        "type": "Point",
        "coordinates": [
          -79.064021,
          35.9054989
        ]
      }
    },
    {
      "type": "Feature",
      "properties": {
        "title": "Cameron Ave at Railroad Tracks",
        "tag": "camerail",
        "stopId": "3204"
      },
      "geometry": {
        "type": "Point",
        "coordinates": [
          -79.0632899,
          35.907234
        ]
      }
    },
    {
      "type": "Feature",
      "properties": {
        "title": "Cameron Ave at S Roberson St",
        "tag": "camerobe_e",
        "stopId": "3203"
      },
      "geometry": {
        "type": "Point",
        "coordinates": [
          -79.062021,
          35.90775
        ]
      }
    },
    {
      "type": "Feature",
      "properties": {
        "title": "Cameron Av at Cameron Glen",
        "tag": "camecame",
        "stopId": "3206"
      },
      "geometry": {
        "type": "Point",
        "coordinates": [
          -79.0603698,
          35.90835
        ]
      }
    },
    {
      "type": "Feature",
      "properties": {
        "title": "Cameron Ave at Wilson St",
        "tag": "camewils",
        "stopId": "3208"
      },
      "geometry": {
        "type": "Point",
        "coordinates": [
          -79.0570106,
          35.9096097
        ]
      }
    },
    {
      "type": "Feature",
      "properties": {
        "title": "Cameron Ave at Pittsboro St",
        "tag": "camepitt",
        "stopId": "3210"
      },
      "geometry": {
        "type": "Point",
        "coordinates": [
          -79.0557095,
          35.9101102
        ]
      }
    },
    {
      "type": "Feature",
      "properties": {
        "title": "Cameron Av at Granville Towers",
        "tag": "camegran",
        "stopId": "3209"
      },
      "geometry": {
        "type": "Point",
        "coordinates": [
          -79.0569018,
          35.909837
        ]
      }
    },
    {
      "type": "Feature",
      "properties": {
        "title": "Cameron Av at Kenan St",
        "tag": "camekena",
        "stopId": "3207"
      },
      "geometry": {
        "type": "Point",
        "coordinates": [
          -79.0598281,
          35.9087339
        ]
      }
    },
    {
      "type": "Feature",
      "properties": {
        "title": "Cameron Av at S Roberson St",
        "tag": "camerobe_w",
        "stopId": "3205"
      },
      "geometry": {
        "type": "Point",
        "coordinates": [
          -79.0615642,
          35.9081229
        ]
      }
    },
    {
      "type": "Feature",
      "properties": {
        "title": "Cameron Ave at Merrit Mill RdCameron Ave at Merrit Mill RdCameron Ave at Merritt Mill Rd",
        "tag": "camemerr",
        "stopId": "3333"
      },
      "geometry": {
        "type": "Point",
        "coordinates": [
          -79.0630986,
          35.9075111
        ]
      }
    },
    {
      "type": "Feature",
      "properties": {
        "title": "Merritt Mill Rd at Locust Ct",
        "tag": "merrlocu_w",
        "stopId": "3570"
      },
      "geometry": {
        "type": "Point",
        "coordinates": [
          -79.064419,
          35.9050509
        ]
      }
    },
    {
      "type": "Feature",
      "properties": {
        "title": "Merritt Mill Rd at Lincoln Center",
        "tag": "merrlinc_w",
        "stopId": "3585"
      },
      "geometry": {
        "type": "Point",
        "coordinates": [
          -79.0668681,
          35.9030509
        ]
      }
    },
    {
      "type": "Feature",
      "properties": {
        "title": "Merritt Mill Rd at Manley Estates",
        "tag": "merrmanl_w",
        "stopId": "3586"
      },
      "geometry": {
        "type": "Point",
        "coordinates": [
          -79.0682919,
          35.901939
        ]
      }
    },
    {
      "type": "Feature",
      "properties": {
        "title": "Merritt Mill Rd at Roberts St",
        "tag": "merrrobe",
        "stopId": "3146"
      },
      "geometry": {
        "type": "Point",
        "coordinates": [
          -79.0723208,
          35.9013602
        ]
      }
    },
    {
      "type": "Feature",
      "properties": {
        "title": "NC 54 West at Royal Park",
        "tag": "nc54roya",
        "stopId": "3465"
      },
      "geometry": {
        "type": "Point",
        "coordinates": [
          -79.0779681,
          35.9029496
        ]
      }
    },
    {
      "type": "Feature",
      "properties": {
        "title": "NC 54 West at Carolina Apartments",
        "tag": "nc54caro",
        "stopId": "3143"
      },
      "geometry": {
        "type": "Point",
        "coordinates": [
          -79.08212,
          35.90348
        ]
      }
    },
    {
      "type": "Feature",
      "properties": {
        "title": "Jones Ferry Rd at Willow Creek Professional Center",
        "tag": "jonewill_w",
        "stopId": "3140"
      },
      "geometry": {
        "type": "Point",
        "coordinates": [
          -79.0890603,
          35.9049698
        ]
      }
    },
    {
      "type": "Feature",
      "properties": {
        "title": "Old Fayetteville Rd at Poplar Place",
        "tag": "ofaypopl_w",
        "stopId": "3572"
      },
      "geometry": {
        "type": "Point",
        "coordinates": [
          -79.0910608,
          35.9029835
        ]
      }
    },
    {
      "type": "Feature",
      "properties": {
        "title": "Old Fayetteville Rd at NC-54 (SECU)",
        "tag": "fayenc54",
        "stopId": "3132"
      },
      "geometry": {
        "type": "Point",
        "coordinates": [
          -79.098766,
          35.9187269
        ]
      }
    },
    {
      "type": "Feature",
      "properties": {
        "title": "W Main St at James St",
        "tag": "mainjame",
        "stopId": "3519"
      },
      "geometry": {
        "type": "Point",
        "coordinates": [
          -79.0932406,
          35.9176101
        ]
      }
    },
    {
      "type": "Feature",
      "properties": {
        "title": "W Main St at Simpson St",
        "tag": "mainsimp_o",
        "stopId": "3604"
      },
      "geometry": {
        "type": "Point",
        "coordinates": [
          -79.0915079,
          35.9171632
        ]
      }
    },
    {
      "type": "Feature",
      "properties": {
        "title": "W Main St at Westview Dr",
        "tag": "mainwest_o",
        "stopId": "3575"
      },
      "geometry": {
        "type": "Point",
        "coordinates": [
          -79.0889203,
          35.9163764
        ]
      }
    },
    {
      "type": "Feature",
      "properties": {
        "title": "High St at Goldston Av",
        "tag": "highgold_o",
        "stopId": "3576"
      },
      "geometry": {
        "type": "Point",
        "coordinates": [
          -79.0859716,
          35.9161697
        ]
      }
    },
    {
      "type": "Feature",
      "properties": {
        "title": "High St at Hillsborough Rd",
        "tag": "hihillp",
        "stopId": "3577"
      },
      "geometry": {
        "type": "Point",
        "coordinates": [
          -79.0837015,
          35.9175497
        ]
      }
    },
    {
      "type": "Feature",
      "properties": {
        "title": "Hillsborough Rd at Pine St",
        "tag": "hillpine_o",
        "stopId": "3578"
      },
      "geometry": {
        "type": "Point",
        "coordinates": [
          -79.0816914,
          35.9160224
        ]
      }
    },
    {
      "type": "Feature",
      "properties": {
        "title": "Hillsborough Rd at W Main St",
        "tag": "hillmain_o",
        "stopId": "3579"
      },
      "geometry": {
        "type": "Point",
        "coordinates": [
          -79.0797374,
          35.9139415
        ]
      }
    },
    {
      "type": "Feature",
      "properties": {
        "title": "W Main St at Carrboro Town Hall",
        "tag": "maincarr_o",
        "stopId": "3580"
      },
      "geometry": {
        "type": "Point",
        "coordinates": [
          -79.0775522,
          35.9120401
        ]
      }
    },
    {
      "type": "Feature",
      "properties": {
        "title": "Weaver St at Lindsay St",
        "tag": "weavlind_o",
        "stopId": "3581"
      },
      "geometry": {
        "type": "Point",
        "coordinates": [
          -79.0758052,
          35.9111769
        ]
      }
    },
    {
      "type": "Feature",
      "properties": {
        "title": "Weaver St at Carrboro Century Center",
        "tag": "weavcarr",
        "stopId": "3508"
      },
      "geometry": {
        "type": "Point",
        "coordinates": [
          -79.0718305,
          35.9108503
        ]
      }
    },
    {
      "type": "Feature",
      "properties": {
        "title": "E Main St at Arts Center Plaza",
        "tag": "maincent",
        "stopId": "3510"
      },
      "geometry": {
        "type": "Point",
        "coordinates": [
          -79.068133,
          35.9107399
        ]
      }
    },
    {
      "type": "Feature",
      "properties": {
        "title": "W Franklin St at Chapel Hill News",
        "tag": "wfrachap",
        "stopId": "3481"
      },
      "geometry": {
        "type": "Point",
        "coordinates": [
          -79.063804,
          35.9100089
        ]
      }
    },
    {
      "type": "Feature",
      "properties": {
        "title": "W Franklin St at Municipal Parking Lot",
        "tag": "wframuni",
        "stopId": "3482"
      },
      "geometry": {
        "type": "Point",
        "coordinates": [
          -79.0617411,
          35.9107849
        ]
      }
    },
    {
      "type": "Feature",
      "properties": {
        "title": "W Franklin St at Kenan St",
        "tag": "wfrakena",
        "stopId": "3000"
      },
      "geometry": {
        "type": "Point",
        "coordinates": [
          -79.0601415,
          35.9113792
        ]
      }
    },
    {
      "type": "Feature",
      "properties": {
        "title": "W Franklin St at University Square",
        "tag": "wfrauniv_s",
        "stopId": "3470"
      },
      "geometry": {
        "type": "Point",
        "coordinates": [
          -79.058287,
          35.9121169
        ]
      }
    },
    {
      "type": "Feature",
      "properties": {
        "title": "W Franklin St at University Baptist",
        "tag": "wfraunib",
        "stopId": "3423"
      },
      "geometry": {
        "type": "Point",
        "coordinates": [
          -79.056702,
          35.9126889
        ]
      }
    },
    {
      "type": "Feature",
      "properties": {
        "title": "Pittsboro Credit Union",
        "tag": "pittcred_d",
        "stopId": "3226"
      },
      "geometry": {
        "type": "Point",
        "coordinates": [
          -79.0548699,
          35.906788
        ]
      }
    },
    {
      "type": "Feature",
      "properties": {
        "title": "W Franklin St at Columbia St",
        "tag": "wfracarb",
        "stopId": "3422"
      },
      "geometry": {
        "type": "Point",
        "coordinates": [
          -79.0564596,
          35.9129701
        ]
      }
    },
    {
      "type": "Feature",
      "properties": {
        "title": "W Franklin St at Church St",
        "tag": "wfrachur",
        "stopId": "3424"
      },
      "geometry": {
        "type": "Point",
        "coordinates": [
          -79.0584505,
          35.9121997
        ]
      }
    },
    {
      "type": "Feature",
      "properties": {
        "title": "W Franklin St at Kenan St (Westbound)",
        "tag": "wfrahams",
        "stopId": "3484"
      },
      "geometry": {
        "type": "Point",
        "coordinates": [
          -79.0605907,
          35.9113697
        ]
      }
    },
    {
      "type": "Feature",
      "properties": {
        "title": "W Franklin St at UNC Business Office",
        "tag": "wfrauncb",
        "stopId": "3483"
      },
      "geometry": {
        "type": "Point",
        "coordinates": [
          -79.0621554,
          35.9107818
        ]
      }
    },
    {
      "type": "Feature",
      "properties": {
        "title": "W Franklin St at N Graham St",
        "tag": "wfrangra",
        "stopId": "3045"
      },
      "geometry": {
        "type": "Point",
        "coordinates": [
          -79.0641793,
          35.9100008
        ]
      }
    },
    {
      "type": "Feature",
      "properties": {
        "title": "E Main St at Lloyd St",
        "tag": "mainlloy",
        "stopId": "3509"
      },
      "geometry": {
        "type": "Point",
        "coordinates": [
          -79.0694094,
          35.9107249
        ]
      }
    },
    {
      "type": "Feature",
      "properties": {
        "title": "Weaver St at Weaver St Market",
        "tag": "weavweav",
        "stopId": "3507"
      },
      "geometry": {
        "type": "Point",
        "coordinates": [
          -79.07164,
          35.91098
        ]
      }
    },
    {
      "type": "Feature",
      "properties": {
        "title": "Weaver St at Lindsay St",
        "tag": "weavlind",
        "stopId": "3503"
      },
      "geometry": {
        "type": "Point",
        "coordinates": [
          -79.0755319,
          35.9112499
        ]
      }
    },
    {
      "type": "Feature",
      "properties": {
        "title": "W Main St at Carrboro Town Hall",
        "tag": "maincarr",
        "stopId": "3502"
      },
      "geometry": {
        "type": "Point",
        "coordinates": [
          -79.0773696,
          35.9120396
        ]
      }
    },
    {
      "type": "Feature",
      "properties": {
        "title": "Hillsborough Rd at W Main St",
        "tag": "hillmain",
        "stopId": "3513"
      },
      "geometry": {
        "type": "Point",
        "coordinates": [
          -79.0798508,
          35.9141908
        ]
      }
    },
    {
      "type": "Feature",
      "properties": {
        "title": "Hillsborough Rd at Pine St",
        "tag": "hillpine",
        "stopId": "3514"
      },
      "geometry": {
        "type": "Point",
        "coordinates": [
          -79.08161,
          35.91613
        ]
      }
    },
    {
      "type": "Feature",
      "properties": {
        "title": "High St at Hillsborough Rd",
        "tag": "hihillj",
        "stopId": "3515"
      },
      "geometry": {
        "type": "Point",
        "coordinates": [
          -79.083818,
          35.9176209
        ]
      }
    },
    {
      "type": "Feature",
      "properties": {
        "title": "High St at Goldston Av",
        "tag": "highgold",
        "stopId": "3516"
      },
      "geometry": {
        "type": "Point",
        "coordinates": [
          -79.0861305,
          35.9162292
        ]
      }
    },
    {
      "type": "Feature",
      "properties": {
        "title": "W Main St at Westview Dr",
        "tag": "mainwest",
        "stopId": "3517"
      },
      "geometry": {
        "type": "Point",
        "coordinates": [
          -79.0888155,
          35.9165288
        ]
      }
    },
    {
      "type": "Feature",
      "properties": {
        "title": "W Main St at Simpson St",
        "tag": "mainsimp",
        "stopId": "3518"
      },
      "geometry": {
        "type": "Point",
        "coordinates": [
          -79.091353,
          35.917241
        ]
      }
    },
    {
      "type": "Feature",
      "properties": {
        "title": "W Main St at Carrboro Post Office",
        "tag": "maincarr2",
        "stopId": "3520"
      },
      "geometry": {
        "type": "Point",
        "coordinates": [
          -79.0933798,
          35.9177999
        ]
      }
    },
    {
      "type": "Feature",
      "properties": {
        "title": "NC 54 East at Carrboro Plaza (ABC St)",
        "tag": "nc54carr",
        "stopId": "3131"
      },
      "geometry": {
        "type": "Point",
        "coordinates": [
          -79.0936032,
          35.9165853
        ]
      }
    },
    {
      "type": "Feature",
      "properties": {
        "title": "NC 54 East at Berkshire Manor West",
        "tag": "nc54berk",
        "stopId": "3130"
      },
      "geometry": {
        "type": "Point",
        "coordinates": [
          -79.0929809,
          35.9150029
        ]
      }
    },
    {
      "type": "Feature",
      "properties": {
        "title": "W Poplar Av at NC 54",
        "tag": "poplnc54",
        "stopId": "3487"
      },
      "geometry": {
        "type": "Point",
        "coordinates": [
          -79.092191,
          35.913087
        ]
      }
    },
    {
      "type": "Feature",
      "properties": {
        "title": "Carolina Spring Senior Apartments",
        "tag": "carospri",
        "stopId": "3555"
      },
      "geometry": {
        "type": "Point",
        "coordinates": [
          -79.0933346,
          35.91238
        ]
      }
    },
    {
      "type": "Feature",
      "properties": {
        "title": "Old Fayetteville Rd at W Poplar Ave",
        "tag": "fayepopl",
        "stopId": "3136"
      },
      "geometry": {
        "type": "Point",
        "coordinates": [
          -79.0941389,
          35.9123794
        ]
      }
    },
    {
      "type": "Feature",
      "properties": {
        "title": "Old Fayetteville Rd at Berkshire Manor West",
        "tag": "fayeberk",
        "stopId": "3135"
      },
      "geometry": {
        "type": "Point",
        "coordinates": [
          -79.0957735,
          35.9144384
        ]
      }
    },
    {
      "type": "Feature",
      "properties": {
        "title": "Carrboro Plaza Park and Ride Lot",
        "tag": "carrplaza",
        "stopId": "3134"
      },
      "geometry": {
        "type": "Point",
        "coordinates": [
          -79.0968294,
          35.9159569
        ]
      }
    },
    {
      "type": "Feature",
      "properties": {
        "title": "Manning Dr at Gravely (UNCH Parking Deck)",
        "tag": "mannpark",
        "stopId": "3703"
      },
      "geometry": {
        "type": "Point",
        "coordinates": [
          -79.0506012,
          35.903168
        ]
      }
    },
    {
      "type": "Feature",
      "properties": {
        "title": "E Franklin St at Elliott Rd",
        "tag": "efraelli",
        "stopId": "3365"
      },
      "geometry": {
        "type": "Point",
        "coordinates": [
          -79.02959,
          35.9347299
        ]
      }
    },
    {
      "type": "Feature",
      "properties": {
        "title": "Elliott Rd at First Citizens Bank",
        "tag": "ellifirs",
        "stopId": "3272"
      },
      "geometry": {
        "type": "Point",
        "coordinates": [
          -79.0287896,
          35.9343296
        ]
      }
    },
    {
      "type": "Feature",
      "properties": {
        "title": "Elliott Rd at Plaza Theatres",
        "tag": "elliplaz",
        "stopId": "3271"
      },
      "geometry": {
        "type": "Point",
        "coordinates": [
          -79.0281597,
          35.9330887
        ]
      }
    },
    {
      "type": "Feature",
      "properties": {
        "title": "Elliott Rd at Burger King",
        "tag": "elliburg",
        "stopId": "3070"
      },
      "geometry": {
        "type": "Point",
        "coordinates": [
          -79.0254194,
          35.9323704
        ]
      }
    },
    {
      "type": "Feature",
      "properties": {
        "title": "Ephesus Church Rd at Holiday Inn",
        "tag": "epheholi",
        "stopId": "3068"
      },
      "geometry": {
        "type": "Point",
        "coordinates": [
          -79.0221523,
          35.9351843
        ]
      }
    },
    {
      "type": "Feature",
      "properties": {
        "title": "Europa Dr at Legion Rd (Britthaven Shelter)",
        "tag": "legibritt",
        "stopId": "3101"
      },
      "geometry": {
        "type": "Point",
        "coordinates": [
          -79.0166991,
          35.9396209
        ]
      }
    },
    {
      "type": "Feature",
      "properties": {
        "title": "Legion Rd at #1718",
        "tag": "legi1718",
        "stopId": "3593"
      },
      "geometry": {
        "type": "Point",
        "coordinates": [
          -79.0154188,
          35.9404906
        ]
      }
    },
    {
      "type": "Feature",
      "properties": {
        "title": "Legion Rd at Forsyth Dr",
        "tag": "legifors",
        "stopId": "3104"
      },
      "geometry": {
        "type": "Point",
        "coordinates": [
          -79.0135919,
          35.9415289
        ]
      }
    },
    {
      "type": "Feature",
      "properties": {
        "title": "Legion Rd at Scarlet Dr",
        "tag": "legiscar",
        "stopId": "3123"
      },
      "geometry": {
        "type": "Point",
        "coordinates": [
          -79.0116733,
          35.9426788
        ]
      }
    },
    {
      "type": "Feature",
      "properties": {
        "title": "Legion Rd Ext at Cooper St",
        "tag": "legicoop",
        "stopId": "3644"
      },
      "geometry": {
        "type": "Point",
        "coordinates": [
          -79.0087156,
          35.94274
        ]
      }
    },
    {
      "type": "Feature",
      "properties": {
        "title": "Old Durham Rd at Cooper St",
        "tag": "durhcoop",
        "stopId": "3555"
      },
      "geometry": {
        "type": "Point",
        "coordinates": [
          -79.0084082,
          35.94416
        ]
      }
    },
    {
      "type": "Feature",
      "properties": {
        "title": "Old Durham Rd at Bluefield St",
        "tag": "olddblue",
        "stopId": "3556"
      },
      "geometry": {
        "type": "Point",
        "coordinates": [
          -79.0034441,
          35.9443509
        ]
      }
    },
    {
      "type": "Feature",
      "properties": {
        "title": "Old Chapel Hill Rd at Pope Rd",
        "tag": "chappope",
        "stopId": "3444"
      },
      "geometry": {
        "type": "Point",
        "coordinates": [
          -78.995965,
          35.945476
        ]
      }
    },
    {
      "type": "Feature",
      "properties": {
        "title": "Old Durham Rd at Bluefield St",
        "tag": "durhblue",
        "stopId": "3556"
      },
      "geometry": {
        "type": "Point",
        "coordinates": [
          -79.0034533,
          35.9443968
        ]
      }
    },
    {
      "type": "Feature",
      "properties": {
        "title": "Old Durham Rd at Cooper St",
        "tag": "olddcoop",
        "stopId": "3555"
      },
      "geometry": {
        "type": "Point",
        "coordinates": [
          -79.0084102,
          35.9443189
        ]
      }
    },
    {
      "type": "Feature",
      "properties": {
        "title": "Legion Rd Ext at Cooper St",
        "tag": "legiocoop",
        "stopId": "3644"
      },
      "geometry": {
        "type": "Point",
        "coordinates": [
          -79.0087611,
          35.9428727
        ]
      }
    },
    {
      "type": "Feature",
      "properties": {
        "title": "Legion Rd at Scarlet Dr",
        "tag": "legscar",
        "stopId": "3123"
      },
      "geometry": {
        "type": "Point",
        "coordinates": [
          -79.0117465,
          35.9428296
        ]
      }
    },
    {
      "type": "Feature",
      "properties": {
        "title": "Legion Rd at Cemetery",
        "tag": "legceme",
        "stopId": "3125"
      },
      "geometry": {
        "type": "Point",
        "coordinates": [
          -79.013532,
          35.9417069
        ]
      }
    },
    {
      "type": "Feature",
      "properties": {
        "title": "Legion Rd at Wooded Area (#1719)",
        "tag": "legwood",
        "stopId": "3103"
      },
      "geometry": {
        "type": "Point",
        "coordinates": [
          -79.0157189,
          35.9403913
        ]
      }
    },
    {
      "type": "Feature",
      "properties": {
        "title": "Europa Rd at Legion Rd",
        "tag": "eurolegi",
        "stopId": "3101"
      },
      "geometry": {
        "type": "Point",
        "coordinates": [
          -79.016887,
          35.939652
        ]
      }
    },
    {
      "type": "Feature",
      "properties": {
        "title": "Elliott Rd at Plaza Theatres",
        "tag": "elliplaza",
        "stopId": "3065"
      },
      "geometry": {
        "type": "Point",
        "coordinates": [
          -79.027954,
          35.9330232
        ]
      }
    },
    {
      "type": "Feature",
      "properties": {
        "title": "Elliott Rd at Whole Foods Market",
        "tag": "elliwhol",
        "stopId": "3454"
      },
      "geometry": {
        "type": "Point",
        "coordinates": [
          -79.0284299,
          35.9343349
        ]
      }
    },
    {
      "type": "Feature",
      "properties": {
        "title": "S Columbia St at Mason Farm Rd",
        "tag": "columaso",
        "stopId": "3219"
      },
      "geometry": {
        "type": "Point",
        "coordinates": [
          -79.0567812,
          35.9023884
        ]
      }
    },
    {
      "type": "Feature",
      "properties": {
        "title": "Mason Farm Rd at Ambulatory Care Ct",
        "tag": "masoambu",
        "stopId": "3221"
      },
      "geometry": {
        "type": "Point",
        "coordinates": [
          -79.0544183,
          35.902127
        ]
      }
    },
    {
      "type": "Feature",
      "properties": {
        "title": "Friday Center Park & Ride (UNC)",
        "tag": "fridpark_d",
        "stopId": "3588"
      },
      "geometry": {
        "type": "Point",
        "coordinates": [
          -79.01227,
          35.90142
        ]
      }
    },
    {
      "type": "Feature",
      "properties": {
        "title": "Friday Center at Park-Ride Lot",
        "tag": "fridpark",
        "stopId": "3358"
      },
      "geometry": {
        "type": "Point",
        "coordinates": [
          -79.0115031,
          35.90058
        ]
      }
    },
    {
      "type": "Feature",
      "properties": {
        "title": "Friday Ctr Dr at NC 54",
        "tag": "fridnc54",
        "stopId": "3609"
      },
      "geometry": {
        "type": "Point",
        "coordinates": [
          -79.0109413,
          35.9021473
        ]
      }
    },
    {
      "type": "Feature",
      "properties": {
        "title": "Raleigh Rd at Burning Tree Dr",
        "tag": "raleburn",
        "stopId": "3014"
      },
      "geometry": {
        "type": "Point",
        "coordinates": [
          -79.019194,
          35.9065873
        ]
      }
    },
    {
      "type": "Feature",
      "properties": {
        "title": "Raleigh Rd at Oakwood Dr",
        "tag": "raleoak",
        "stopId": "3395"
      },
      "geometry": {
        "type": "Point",
        "coordinates": [
          -79.0223738,
          35.907828
        ]
      }
    },
    {
      "type": "Feature",
      "properties": {
        "title": "Raleigh Rd at Glen Lennox Shop Center",
        "tag": "raleglen",
        "stopId": "3387"
      },
      "geometry": {
        "type": "Point",
        "coordinates": [
          -79.0247268,
          35.9083592
        ]
      }
    },
    {
      "type": "Feature",
      "properties": {
        "title": "Manning Dr at Public Safety",
        "tag": "mannpubl",
        "stopId": "3234"
      },
      "geometry": {
        "type": "Point",
        "coordinates": [
          -79.0468049,
          35.9035884
        ]
      }
    },
    {
      "type": "Feature",
      "properties": {
        "title": "Manning Dr at Hibbard Dr",
        "tag": "mannhibb",
        "stopId": "3235"
      },
      "geometry": {
        "type": "Point",
        "coordinates": [
          -79.0490052,
          35.9030095
        ]
      }
    },
    {
      "type": "Feature",
      "properties": {
        "title": "Manning Dr at Gravely",
        "tag": "manngrav_u",
        "stopId": "3703"
      },
      "geometry": {
        "type": "Point",
        "coordinates": [
          -79.0502428,
          35.9030205
        ]
      }
    },
    {
      "type": "Feature",
      "properties": {
        "title": "Manning Dr at UNC Hospitals",
        "tag": "mannunch",
        "stopId": "3239"
      },
      "geometry": {
        "type": "Point",
        "coordinates": [
          -79.0518599,
          35.9035599
        ]
      }
    },
    {
      "type": "Feature",
      "properties": {
        "title": "South Rd at Coker Hall",
        "tag": "soutcoke",
        "stopId": "3214"
      },
      "geometry": {
        "type": "Point",
        "coordinates": [
          -79.0514996,
          35.90861
        ]
      }
    },
    {
      "type": "Feature",
      "properties": {
        "title": "South Rd at Woollen Gym",
        "tag": "soutwoll",
        "stopId": "3397"
      },
      "geometry": {
        "type": "Point",
        "coordinates": [
          -79.045153,
          35.9101794
        ]
      }
    },
    {
      "type": "Feature",
      "properties": {
        "title": "Raleigh Rd at St Thomas More",
        "tag": "ralestth",
        "stopId": "3384"
      },
      "geometry": {
        "type": "Point",
        "coordinates": [
          -79.0387634,
          35.9110101
        ]
      }
    },
    {
      "type": "Feature",
      "properties": {
        "title": "Raleigh Rd at UNC Administration",
        "tag": "raleunca"
      },
      "geometry": {
        "type": "Point",
        "coordinates": [
          -79.0302383,
          35.9093096
        ]
      }
    },
    {
      "type": "Feature",
      "properties": {
        "title": "Raleigh Rd at Hamilton Rd",
        "tag": "ralehami",
        "stopId": "3396"
      },
      "geometry": {
        "type": "Point",
        "coordinates": [
          -79.023297,
          35.907759
        ]
      }
    },
    {
      "type": "Feature",
      "properties": {
        "title": "Raleigh Rd at Best Western",
        "tag": "ralebest",
        "stopId": "3013"
      },
      "geometry": {
        "type": "Point",
        "coordinates": [
          -79.0200214,
          35.906582
        ]
      }
    },
    {
      "type": "Feature",
      "properties": {
        "title": "Friday Ctr Drive at NC 54",
        "tag": "firdnc54",
        "stopId": "3587"
      },
      "geometry": {
        "type": "Point",
        "coordinates": [
          -79.01132,
          35.9013391
        ]
      }
    },
    {
      "type": "Feature",
      "properties": {
        "title": "Morris Grove Elementary",
        "tag": "morrgrove_d",
        "stopId": "3698"
      },
      "geometry": {
        "type": "Point",
        "coordinates": [
          -79.101279,
          35.966157
        ]
      }
    },
    {
      "type": "Feature",
      "properties": {
        "title": "Rogers Rd. at Meadow Run",
        "tag": "rogemead_s",
        "stopId": "3697"
      },
      "geometry": {
        "type": "Point",
        "coordinates": [
          -79.0889576,
          35.9641252
        ]
      }
    },
    {
      "type": "Feature",
      "properties": {
        "title": "Rogers Rd. at Purefoy",
        "tag": "rogepure_s",
        "stopId": "3695"
      },
      "geometry": {
        "type": "Point",
        "coordinates": [
          -79.0842862,
          35.9591982
        ]
      }
    },
    {
      "type": "Feature",
      "properties": {
        "title": "Rogers Rd. at Rusch",
        "tag": "rogerusc_s",
        "stopId": "3693"
      },
      "geometry": {
        "type": "Point",
        "coordinates": [
          -79.0824632,
          35.9574913
        ]
      }
    },
    {
      "type": "Feature",
      "properties": {
        "title": "Rogers Rd. at Tallyho",
        "tag": "rogetall_s",
        "stopId": "3691"
      },
      "geometry": {
        "type": "Point",
        "coordinates": [
          -79.0816711,
          35.9556214
        ]
      }
    },
    {
      "type": "Feature",
      "properties": {
        "title": "Rogers Rd. at Claymore",
        "tag": "rogeclay_s",
        "stopId": "3688"
      },
      "geometry": {
        "type": "Point",
        "coordinates": [
          -79.0808615,
          35.9527173
        ]
      }
    },
    {
      "type": "Feature",
      "properties": {
        "title": "Homestead at Sterling Bridge",
        "tag": "homester_s",
        "stopId": "3687"
      },
      "geometry": {
        "type": "Point",
        "coordinates": [
          -79.0813972,
          35.9501051
        ]
      }
    },
    {
      "type": "Feature",
      "properties": {
        "title": "Homestead at Camden",
        "tag": "homecamd_s",
        "stopId": "3685"
      },
      "geometry": {
        "type": "Point",
        "coordinates": [
          -79.0828122,
          35.9481982
        ]
      }
    },
    {
      "type": "Feature",
      "properties": {
        "title": "Chapel Hill High School",
        "tag": "chaphigh",
        "stopId": "3614"
      },
      "geometry": {
        "type": "Point",
        "coordinates": [
          -79.0813332,
          35.947217
        ]
      }
    },
    {
      "type": "Feature",
      "properties": {
        "title": "High School Rd at Seawell School Rd",
        "tag": "highsea",
        "stopId": "3621"
      },
      "geometry": {
        "type": "Point",
        "coordinates": [
          -79.0768876,
          35.9464909
        ]
      }
    },
    {
      "type": "Feature",
      "properties": {
        "title": "Seawell School Rd at Savannah",
        "tag": "seawsava",
        "stopId": "3712"
      },
      "geometry": {
        "type": "Point",
        "coordinates": [
          -79.075466,
          35.948361
        ]
      }
    },
    {
      "type": "Feature",
      "properties": {
        "title": "Homestead Rd at HearthStone Ln",
        "tag": "homheart",
        "stopId": "3715"
      },
      "geometry": {
        "type": "Point",
        "coordinates": [
          -79.0731951,
          35.9518512
        ]
      }
    },
    {
      "type": "Feature",
      "properties": {
        "title": "Homestead Rd at Greenway Landing",
        "tag": "homgreen",
        "stopId": "3714"
      },
      "geometry": {
        "type": "Point",
        "coordinates": [
          -79.0697733,
          35.9517243
        ]
      }
    },
    {
      "type": "Feature",
      "properties": {
        "title": "Homestead Rd at Seymour Center",
        "tag": "homesey",
        "stopId": "3709"
      },
      "geometry": {
        "type": "Point",
        "coordinates": [
          -79.063908,
          35.950617
        ]
      }
    },
    {
      "type": "Feature",
      "properties": {
        "title": "Orange County Social Services",
        "tag": "orangsoc",
        "stopId": "3329"
      },
      "geometry": {
        "type": "Point",
        "coordinates": [
          -79.0649652,
          35.9488728
        ]
      }
    },
    {
      "type": "Feature",
      "properties": {
        "title": "Homestead Rd at Senior Center",
        "tag": "homeshum",
        "stopId": "3610"
      },
      "geometry": {
        "type": "Point",
        "coordinates": [
          -79.0637577,
          35.950588
        ]
      }
    },
    {
      "type": "Feature",
      "properties": {
        "title": "Homestead Rd at 2510",
        "tag": "home2510",
        "stopId": "3710"
      },
      "geometry": {
        "type": "Point",
        "coordinates": [
          -79.0638178,
          35.9512631
        ]
      }
    },
    {
      "type": "Feature",
      "properties": {
        "title": "Homestead at MLK Jr Blvd",
        "tag": "hommlk",
        "stopId": "3336"
      },
      "geometry": {
        "type": "Point",
        "coordinates": [
          -79.0589454,
          35.9497061
        ]
      }
    },
    {
      "type": "Feature",
      "properties": {
        "title": "Martin Luther King Jr Blvd at Chapel View",
        "tag": "mlkchapv",
        "stopId": "3332"
      },
      "geometry": {
        "type": "Point",
        "coordinates": [
          -79.0586569,
          35.9485005
        ]
      }
    },
    {
      "type": "Feature",
      "properties": {
        "title": "Martin Luther King Jr Blvd  at Northfield Dr",
        "tag": "mlknortf",
        "stopId": "3420"
      },
      "geometry": {
        "type": "Point",
        "coordinates": [
          -79.0584861,
          35.9464548
        ]
      }
    },
    {
      "type": "Feature",
      "properties": {
        "title": "Martin Luther King Jr Blvd  at Timber Hollow",
        "tag": "mlktimh",
        "stopId": "3330"
      },
      "geometry": {
        "type": "Point",
        "coordinates": [
          -79.057222,
          35.9402534
        ]
      }
    },
    {
      "type": "Feature",
      "properties": {
        "title": "Martin Luther King Jr Blvd at Shadowood",
        "tag": "mlkshadw",
        "stopId": "3327"
      },
      "geometry": {
        "type": "Point",
        "coordinates": [
          -79.0566001,
          35.9370776
        ]
      }
    },
    {
      "type": "Feature",
      "properties": {
        "title": "MLK Jr Blvd at YMCA",
        "tag": "mlkymca_o",
        "stopId": "3445"
      },
      "geometry": {
        "type": "Point",
        "coordinates": [
          -79.0558971,
          35.9335967
        ]
      }
    },
    {
      "type": "Feature",
      "properties": {
        "title": "MLK Jr Blvd at Airport Dr",
        "tag": "mlkairp",
        "stopId": "3444"
      },
      "geometry": {
        "type": "Point",
        "coordinates": [
          -79.05569,
          35.9325424
        ]
      }
    },
    {
      "type": "Feature",
      "properties": {
        "title": "MLK Jr Blvd at Barclay",
        "tag": "mlkbarc_o",
        "stopId": "3242"
      },
      "geometry": {
        "type": "Point",
        "coordinates": [
          -79.0551902,
          35.9307377
        ]
      }
    },
    {
      "type": "Feature",
      "properties": {
        "title": "MLK Jr Blvd at Airport Gardens Apts",
        "tag": "airpgard",
        "stopId": "3244"
      },
      "geometry": {
        "type": "Point",
        "coordinates": [
          -79.0542411,
          35.9279604
        ]
      }
    },
    {
      "type": "Feature",
      "properties": {
        "title": "MLK Jr Blvd at #725",
        "tag": "airpr725",
        "stopId": "3448"
      },
      "geometry": {
        "type": "Point",
        "coordinates": [
          -79.05484,
          35.9236005
        ]
      }
    },
    {
      "type": "Feature",
      "properties": {
        "title": "MLK Jr Blvd at Longview St",
        "tag": "airplong",
        "stopId": "3450"
      },
      "geometry": {
        "type": "Point",
        "coordinates": [
          -79.0557979,
          35.9215562
        ]
      }
    },
    {
      "type": "Feature",
      "properties": {
        "title": "MLK Jr Blvd at Adelaide Walters Apt",
        "tag": "airpadel",
        "stopId": "3082"
      },
      "geometry": {
        "type": "Point",
        "coordinates": [
          -79.0565042,
          35.9182448
        ]
      }
    },
    {
      "type": "Feature",
      "properties": {
        "title": "MLK Jr Blvd at Town Hall",
        "tag": "airptown",
        "stopId": "3407"
      },
      "geometry": {
        "type": "Point",
        "coordinates": [
          -79.0567809,
          35.9167229
        ]
      }
    },
    {
      "type": "Feature",
      "properties": {
        "title": "Pittsboro St at Newman Ctr",
        "tag": "pittnew",
        "stopId": "3211"
      },
      "geometry": {
        "type": "Point",
        "coordinates": [
          -79.054728,
          35.9089162
        ]
      }
    },
    {
      "type": "Feature",
      "properties": {
        "title": "Pittsboro St at University Dr",
        "tag": "pittuni",
        "stopId": "3224"
      },
      "geometry": {
        "type": "Point",
        "coordinates": [
          -79.0550575,
          35.905288
        ]
      }
    },
    {
      "type": "Feature",
      "properties": {
        "title": "S Columbia St at Westwood Dr",
        "tag": "coluwest",
        "stopId": "3184"
      },
      "geometry": {
        "type": "Point",
        "coordinates": [
          -79.0574914,
          35.9015815
        ]
      }
    },
    {
      "type": "Feature",
      "properties": {
        "title": "S Columbia St at Purefoy Rd",
        "tag": "colupure_o",
        "stopId": "3188"
      },
      "geometry": {
        "type": "Point",
        "coordinates": [
          -79.0584917,
          35.8955243
        ]
      }
    },
    {
      "type": "Feature",
      "properties": {
        "title": "US 15-501 South at Culbreth Rd",
        "tag": "soutculb",
        "stopId": "3189"
      },
      "geometry": {
        "type": "Point",
        "coordinates": [
          -79.0590433,
          35.8916737
        ]
      }
    },
    {
      "type": "Feature",
      "properties": {
        "title": "Culbreth Rd at Channing Ln",
        "tag": "culbchan",
        "stopId": "3192"
      },
      "geometry": {
        "type": "Point",
        "coordinates": [
          -79.0622093,
          35.8924724
        ]
      }
    },
    {
      "type": "Feature",
      "properties": {
        "title": "Culbreth Rd at Culbreth Park Dr",
        "tag": "culbpark",
        "stopId": "3193"
      },
      "geometry": {
        "type": "Point",
        "coordinates": [
          -79.0642784,
          35.8917564
        ]
      }
    },
    {
      "type": "Feature",
      "properties": {
        "title": "Culbreth Rd at Southbridge Dr",
        "tag": "culbsout",
        "stopId": "3194"
      },
      "geometry": {
        "type": "Point",
        "coordinates": [
          -79.0661931,
          35.891819
        ]
      }
    },
    {
      "type": "Feature",
      "properties": {
        "title": "Culbreth Rd at Adams Way",
        "tag": "culbadam",
        "stopId": "3195"
      },
      "geometry": {
        "type": "Point",
        "coordinates": [
          -79.0680308,
          35.8921581
        ]
      }
    },
    {
      "type": "Feature",
      "properties": {
        "title": "Culbreth Rd at Weyer",
        "tag": "culbweye",
        "stopId": "3196"
      },
      "geometry": {
        "type": "Point",
        "coordinates": [
          -79.070607,
          35.892625
        ]
      }
    },
    {
      "type": "Feature",
      "properties": {
        "title": "Culbreth Rd at Covenant Pl",
        "tag": "culbcove",
        "stopId": "3197"
      },
      "geometry": {
        "type": "Point",
        "coordinates": [
          -79.0758828,
          35.893666
        ]
      }
    },
    {
      "type": "Feature",
      "properties": {
        "title": "Smith Level Rd at BPW Club Rd",
        "tag": "smitbpwc",
        "stopId": "3147"
      },
      "geometry": {
        "type": "Point",
        "coordinates": [
          -79.07612,
          35.895761
        ]
      }
    },
    {
      "type": "Feature",
      "properties": {
        "title": "Smith Level Rd at Willow Oak (Berryhill)",
        "tag": "smitwill",
        "stopId": "3044"
      },
      "geometry": {
        "type": "Point",
        "coordinates": [
          -79.0751423,
          35.8981742
        ]
      }
    },
    {
      "type": "Feature",
      "properties": {
        "title": "Smith Level Rd at FPG Shool",
        "tag": "smitfbg",
        "stopId": "3133"
      },
      "geometry": {
        "type": "Point",
        "coordinates": [
          -79.0736533,
          35.9004063
        ]
      }
    },
    {
      "type": "Feature",
      "properties": {
        "title": "NC 54 East at Kingswood",
        "tag": "eastking",
        "stopId": "3191"
      },
      "geometry": {
        "type": "Point",
        "coordinates": [
          -79.067317,
          35.898913
        ]
      }
    },
    {
      "type": "Feature",
      "properties": {
        "title": "S Columbia St at Purefoy Rd",
        "tag": "colupure_i",
        "stopId": "3187"
      },
      "geometry": {
        "type": "Point",
        "coordinates": [
          -79.0583545,
          35.8955211
        ]
      }
    },
    {
      "type": "Feature",
      "properties": {
        "title": "S Columbia St at Coolidge St",
        "tag": "soutcool",
        "stopId": "3183"
      },
      "geometry": {
        "type": "Point",
        "coordinates": [
          -79.0575081,
          35.8980815
        ]
      }
    },
    {
      "type": "Feature",
      "properties": {
        "title": "S Columbia St at Chase Ave",
        "tag": "soutchas",
        "stopId": "3611"
      },
      "geometry": {
        "type": "Point",
        "coordinates": [
          -79.0574549,
          35.899121
        ]
      }
    },
    {
      "type": "Feature",
      "properties": {
        "title": "S Columbia St at Mason Farm Rd",
        "tag": "soutmas",
        "stopId": "3219"
      },
      "geometry": {
        "type": "Point",
        "coordinates": [
          -79.05659,
          35.9024126
        ]
      }
    },
    {
      "type": "Feature",
      "properties": {
        "title": "S Columbia St at Health Sciences Li",
        "tag": "southealt",
        "stopId": "3223"
      },
      "geometry": {
        "type": "Point",
        "coordinates": [
          -79.0534677,
          35.9054122
        ]
      }
    },
    {
      "type": "Feature",
      "properties": {
        "title": "S Columbia St at Carrington Hall",
        "tag": "soutcarr",
        "stopId": "3222"
      },
      "geometry": {
        "type": "Point",
        "coordinates": [
          -79.0528378,
          35.9069328
        ]
      }
    },
    {
      "type": "Feature",
      "properties": {
        "title": "N Columbia St at Rosemary St",
        "tag": "scolrose",
        "stopId": "3383"
      },
      "geometry": {
        "type": "Point",
        "coordinates": [
          -79.0560397,
          35.9137486
        ]
      }
    },
    {
      "type": "Feature",
      "properties": {
        "title": "MLK Jr Blvd at North St",
        "tag": "mlknorth",
        "stopId": "3408"
      },
      "geometry": {
        "type": "Point",
        "coordinates": [
          -79.0566571,
          35.9165949
        ]
      }
    },
    {
      "type": "Feature",
      "properties": {
        "title": "MLK Jr Blvd North at Stephens St",
        "tag": "airpnorpl",
        "stopId": "3081"
      },
      "geometry": {
        "type": "Point",
        "coordinates": [
          -79.0563235,
          35.9183987
        ]
      }
    },
    {
      "type": "Feature",
      "properties": {
        "title": "MLK Jr Blvd at Millcreek",
        "tag": "airpmill",
        "stopId": "3451"
      },
      "geometry": {
        "type": "Point",
        "coordinates": [
          -79.0557073,
          35.921404
        ]
      }
    },
    {
      "type": "Feature",
      "properties": {
        "title": "MLK Jr Blvd at Foster's Market",
        "tag": "airpfrost",
        "stopId": "3449"
      },
      "geometry": {
        "type": "Point",
        "coordinates": [
          -79.0542465,
          35.9244906
        ]
      }
    },
    {
      "type": "Feature",
      "properties": {
        "title": "MLK Jr Blvd at Bolinwood",
        "tag": "mlkbolin",
        "stopId": "3245"
      },
      "geometry": {
        "type": "Point",
        "coordinates": [
          -79.054048,
          35.9280146
        ]
      }
    },
    {
      "type": "Feature",
      "properties": {
        "title": "MLK Jr Blvd at Barclay",
        "tag": "mlkbarc",
        "stopId": "3243"
      },
      "geometry": {
        "type": "Point",
        "coordinates": [
          -79.0548678,
          35.9303302
        ]
      }
    },
    {
      "type": "Feature",
      "properties": {
        "title": "MLK Jr Blvd at YMCA",
        "tag": "mlkymca_i",
        "stopId": "3053"
      },
      "geometry": {
        "type": "Point",
        "coordinates": [
          -79.0557194,
          35.9336512
        ]
      }
    },
    {
      "type": "Feature",
      "properties": {
        "title": "MLK Jr Blvd at Shadowood",
        "tag": "mlkshad",
        "stopId": "3479"
      },
      "geometry": {
        "type": "Point",
        "coordinates": [
          -79.0564206,
          35.9370929
        ]
      }
    },
    {
      "type": "Feature",
      "properties": {
        "title": "MLK Jr Blvd at Timber Hollow",
        "tag": "mlktimber",
        "stopId": "3337"
      },
      "geometry": {
        "type": "Point",
        "coordinates": [
          -79.057277,
          35.941387
        ]
      }
    },
    {
      "type": "Feature",
      "properties": {
        "title": "MLK Jr Blvd at Ashley Forest Dr",
        "tag": "mlkash",
        "stopId": "3334"
      },
      "geometry": {
        "type": "Point",
        "coordinates": [
          -79.0579305,
          35.9445929
        ]
      }
    },
    {
      "type": "Feature",
      "properties": {
        "title": "MLK Jr Blvd at Taylor St (Citgo)",
        "tag": "mlktayl",
        "stopId": "3335"
      },
      "geometry": {
        "type": "Point",
        "coordinates": [
          -79.0581799,
          35.9459598
        ]
      }
    },
    {
      "type": "Feature",
      "properties": {
        "title": "Homestead at MLK Jr Blvd",
        "tag": "homesmlk",
        "stopId": "3331"
      },
      "geometry": {
        "type": "Point",
        "coordinates": [
          -79.0602324,
          35.9503725
        ]
      }
    },
    {
      "type": "Feature",
      "properties": {
        "title": "Homestead Rd at Senior Center",
        "tag": "homeshum_i",
        "stopId": "3610"
      },
      "geometry": {
        "type": "Point",
        "coordinates": [
          -79.064066,
          35.951384
        ]
      }
    },
    {
      "type": "Feature",
      "properties": {
        "title": "Homestead Rd. at Greenvay Landing",
        "tag": "homesgre",
        "stopId": "3713"
      },
      "geometry": {
        "type": "Point",
        "coordinates": [
          -79.0699626,
          35.9518054
        ]
      }
    },
    {
      "type": "Feature",
      "properties": {
        "title": "Homestead Rd at HearthStone Ln",
        "tag": "homeshea",
        "stopId": "3716"
      },
      "geometry": {
        "type": "Point",
        "coordinates": [
          -79.0732834,
          35.9519282
        ]
      }
    },
    {
      "type": "Feature",
      "properties": {
        "title": "Chapel Hill High School",
        "tag": "highcelt",
        "stopId": "3683"
      },
      "geometry": {
        "type": "Point",
        "coordinates": [
          -79.0812501,
          35.947275
        ]
      }
    },
    {
      "type": "Feature",
      "properties": {
        "title": "Homestead at Camden",
        "tag": "homecamd_n",
        "stopId": "3684"
      },
      "geometry": {
        "type": "Point",
        "coordinates": [
          -79.0827798,
          35.9480163
        ]
      }
    },
    {
      "type": "Feature",
      "properties": {
        "title": "Homestead at Sterling Bridge",
        "tag": "homester_n",
        "stopId": "3686"
      },
      "geometry": {
        "type": "Point",
        "coordinates": [
          -79.0812862,
          35.9500958
        ]
      }
    },
    {
      "type": "Feature",
      "properties": {
        "title": "Rogers Rd. at Sylvan",
        "tag": "rogesylv",
        "stopId": "3689"
      },
      "geometry": {
        "type": "Point",
        "coordinates": [
          -79.0808062,
          35.9526793
        ]
      }
    },
    {
      "type": "Feature",
      "properties": {
        "title": "Rogers Rd. at Ezekiel Peppers",
        "tag": "rogetall_n",
        "stopId": "3690"
      },
      "geometry": {
        "type": "Point",
        "coordinates": [
          -79.0815617,
          35.9554296
        ]
      }
    },
    {
      "type": "Feature",
      "properties": {
        "title": "Rogers Rd. at Rusch",
        "tag": "rogerusc_n",
        "stopId": "3692"
      },
      "geometry": {
        "type": "Point",
        "coordinates": [
          -79.0823129,
          35.9573999
        ]
      }
    },
    {
      "type": "Feature",
      "properties": {
        "title": "Rogers Rd. at Purefoy",
        "tag": "rogepure_n",
        "stopId": "3694"
      },
      "geometry": {
        "type": "Point",
        "coordinates": [
          -79.0840373,
          35.9590436
        ]
      }
    },
    {
      "type": "Feature",
      "properties": {
        "title": "Rogers Rd. at Meadow Run",
        "tag": "rogemead_n",
        "stopId": "3696"
      },
      "geometry": {
        "type": "Point",
        "coordinates": [
          -79.088711,
          35.9640279
        ]
      }
    },
    {
      "type": "Feature",
      "properties": {
        "title": "Manning Dr at UNC Hospitals (CG Lot)",
        "tag": "unch_d",
        "stopId": "3239"
      },
      "geometry": {
        "type": "Point",
        "coordinates": [
          -79.0518599,
          35.9035599
        ]
      }
    },
    {
      "type": "Feature",
      "properties": {
        "title": "S Columbia St at Abernethy Hall",
        "tag": "coluab",
        "stopId": "3178"
      },
      "geometry": {
        "type": "Point",
        "coordinates": [
          -79.054753,
          35.9114905
        ]
      }
    },
    {
      "type": "Feature",
      "properties": {
        "title": "Martin Luther King Jr Blvd at Estes Dr (YMCA)",
        "tag": "mlkest",
        "stopId": "3053"
      },
      "geometry": {
        "type": "Point",
        "coordinates": [
          -79.0557199,
          35.9335999
        ]
      }
    },
    {
      "type": "Feature",
      "properties": {
        "title": "Martin Luther King Jr Blvd at Perkins Dr (Chapel Hill North)",
        "tag": "mlkper",
        "stopId": "3402"
      },
      "geometry": {
        "type": "Point",
        "coordinates": [
          -79.0591799,
          35.9664499
        ]
      }
    },
    {
      "type": "Feature",
      "properties": {
        "title": "NC 86 at Mt. Sinai Rd",
        "tag": "hw86mill_h",
        "stopId": "1764"
      },
      "geometry": {
        "type": "Point",
        "coordinates": [
          -79.0713978,
          35.9920826
        ]
      }
    },
    {
      "type": "Feature",
      "properties": {
        "title": "NC 86 at Storey Ln (Northbound)",
        "tag": "hw86stry_h",
        "stopId": "1766"
      },
      "geometry": {
        "type": "Point",
        "coordinates": [
          -79.0800199,
          36.0277499
        ]
      }
    },
    {
      "type": "Feature",
      "properties": {
        "title": "Durham Tech OCC Park-and-Ride (Outbound)",
        "tag": "dtcc_c"
      },
      "geometry": {
        "type": "Point",
        "coordinates": [
          -79.091967,
          36.0406983
        ]
      }
    },
    {
      "type": "Feature",
      "properties": {
        "title": "Waterstone Dr at UNC Health Care-Hillsborough Campus",
        "tag": "watheal",
        "stopId": "1980"
      },
      "geometry": {
        "type": "Point",
        "coordinates": [
          -79.0907636,
          36.0387212
        ]
      }
    },
    {
      "type": "Feature",
      "properties": {
        "title": "NC 86 at Hampton Point Blvd (NB)",
        "tag": "hmdept_h",
        "stopId": "1765"
      },
      "geometry": {
        "type": "Point",
        "coordinates": [
          -79.0801555,
          36.0559033
        ]
      }
    },
    {
      "type": "Feature",
      "properties": {
        "title": "Churton St at Margaret Ln (Orange County Courthouse)",
        "tag": "churton_h",
        "stopId": "1762"
      },
      "geometry": {
        "type": "Point",
        "coordinates": [
          -79.0992969,
          36.0738689
        ]
      }
    },
    {
      "type": "Feature",
      "properties": {
        "title": "Maxway Shopping Center",
        "tag": "maxway",
        "stopId": "1757"
      },
      "geometry": {
        "type": "Point",
        "coordinates": [
          -79.0998299,
          36.0844899
        ]
      }
    },
    {
      "type": "Feature",
      "properties": {
        "title": "Cornelius St (US 70) at Rainey Ave (WB 2)",
        "tag": "hw70rain_c",
        "stopId": "1876"
      },
      "geometry": {
        "type": "Point",
        "coordinates": [
          -79.1084009,
          36.0872
        ]
      }
    },
    {
      "type": "Feature",
      "properties": {
        "title": "Revere Rd at Nash St",
        "tag": "revnash",
        "stopId": "1898"
      },
      "geometry": {
        "type": "Point",
        "coordinates": [
          -79.1119466,
          36.086274
        ]
      }
    },
    {
      "type": "Feature",
      "properties": {
        "title": "Churton St. at Police Station",
        "tag": "churton_c",
        "stopId": "3502"
      },
      "geometry": {
        "type": "Point",
        "coordinates": [
          -79.099501,
          36.076337
        ]
      }
    },
    {
      "type": "Feature",
      "properties": {
        "title": "NC 86 at Hampton Point Blvd (SB)",
        "tag": "hmdept_c",
        "stopId": "1760"
      },
      "geometry": {
        "type": "Point",
        "coordinates": [
          -79.080027,
          36.0555327
        ]
      }
    },
    {
      "type": "Feature",
      "properties": {
        "title": "Durham Tech OCC Park-and-Ride (Inbound)",
        "tag": "dtcc_h",
        "stopId": "3603"
      },
      "geometry": {
        "type": "Point",
        "coordinates": [
          -79.0919696,
          36.0406997
        ]
      }
    },
    {
      "type": "Feature",
      "properties": {
        "title": "Waterstone Dr at UNC Health Care-Hillsborough Campus (Inbound)",
        "tag": "watheal_i",
        "stopId": "1980"
      },
      "geometry": {
        "type": "Point",
        "coordinates": [
          -79.0907534,
          36.0386952
        ]
      }
    },
    {
      "type": "Feature",
      "properties": {
        "title": "NC 86 at Storey Ln (Southbound)",
        "tag": "storeyln",
        "stopId": "1761"
      },
      "geometry": {
        "type": "Point",
        "coordinates": [
          -79.080136,
          36.0277921
        ]
      }
    },
    {
      "type": "Feature",
      "properties": {
        "title": "NC 86 at Millhouse Rd (Southbound)",
        "tag": "hw86mill_c",
        "stopId": "3506"
      },
      "geometry": {
        "type": "Point",
        "coordinates": [
          -79.07148,
          35.9920701
        ]
      }
    },
    {
      "type": "Feature",
      "properties": {
        "title": "Martin Luther King Jr Blvd at Chapel Hill North (SB)",
        "tag": "mlkchap",
        "stopId": "3606"
      },