{
  "type": "FeatureCollection",
  "features": [
    {
      "type": "Feature",
      "properties": {
        "title": "Martin Luther King Jr Blvd at Chapel View",
        "tag": "airpbroo",
        "stopId": "3332"
      },
      "geometry": {
        "type": "Point",
        "coordinates": [
          -79.0586898,
          35.9485309
        ]
      }
    },
    {
      "type": "Feature",
      "properties": {
        "title": "Martin Luther King Jr Blvd  at Northfield Dr",
        "tag": "mlknort",
        "stopId": "3420"
      },
      "geometry": {
        "type": "Point",
        "coordinates": [
          -79.0585194,
          35.9464516
        ]
      }
    },
    {
      "type": "Feature",
      "properties": {
        "title": "Martin Luther King Jr Blvd  at Timber Hollow",
        "tag": "airptimb_s",
        "stopId": "3330"
      },
      "geometry": {
        "type": "Point",
        "coordinates": [
          -79.0573001,
          35.9402106
        ]
      }
    },
    {
      "type": "Feature",
      "properties": {
        "title": "Martin Luther King Jr Blvd at Shadowood",
        "tag": "mlkbshad_s",
        "stopId": "3327"
      },
      "geometry": {
        "type": "Point",
        "coordinates": [
          -79.0566401,
          35.9370708
        ]
      }
    },
    {
      "type": "Feature",
      "properties": {
        "title": "Martin Luther King Jr Blvd at YMCA",
        "tag": "mlkbymca_s",
        "stopId": "3445"
      },
      "geometry": {
        "type": "Point",
        "coordinates": [
          -79.0559302,
          35.9335912
        ]
      }
    },
    {
      "type": "Feature",
      "properties": {
        "title": "Martin Luther King Jr Blvd at Airport Dr",
        "tag": "mlkbair",
        "stopId": "3444"
      },
      "geometry": {
        "type": "Point",
        "coordinates": [
          -79.0557402,
          35.9325416
        ]
      }
    },
    {
      "type": "Feature",
      "properties": {
        "title": "Martin Luther King Jr Blvd at Barclay",
        "tag": "mlkbbarc_s",
        "stopId": "3242"
      },
      "geometry": {
        "type": "Point",
        "coordinates": [
          -79.0552206,
          35.9307323
        ]
      }
    },
    {
      "type": "Feature",
      "properties": {
        "title": "Martin Luther King Jr Blvd at Airport Gardens Apts",
        "tag": "mlkbgard",
        "stopId": "3244"
      },
      "geometry": {
        "type": "Point",
        "coordinates": [
          -79.0542795,
          35.9279287
        ]
      }
    },
    {
      "type": "Feature",
      "properties": {
        "title": "Hillsborough St at Martin Luther King Jr Blvd",
        "tag": "hillmlkb_s",
        "stopId": "3247"
      },
      "geometry": {
        "type": "Point",
        "coordinates": [
          -79.053264,
          35.9248661
        ]
      }
    },
    {
      "type": "Feature",
      "properties": {
        "title": "Hillsborough St at Brookside Condos",
        "tag": "hillbroo",
        "stopId": "3032"
      },
      "geometry": {
        "type": "Point",
        "coordinates": [
          -79.0518136,
          35.9234148
        ]
      }
    },
    {
      "type": "Feature",
      "properties": {
        "title": "Hillsborough St at Townhouse Apts",
        "tag": "hilltown",
        "stopId": "3031"
      },
      "geometry": {
        "type": "Point",
        "coordinates": [
          -79.051629,
          35.9197373
        ]
      }
    },
    {
      "type": "Feature",
      "properties": {
        "title": "Hillsborough St at North St",
        "tag": "hillnort",
        "stopId": "3107"
      },
      "geometry": {
        "type": "Point",
        "coordinates": [
          -79.0505014,
          35.9177424
        ]
      }
    },
    {
      "type": "Feature",
      "properties": {
        "title": "Hillsborough St at E Rosemary St",
        "tag": "hillrose_s",
        "stopId": "3473"
      },
      "geometry": {
        "type": "Point",
        "coordinates": [
          -79.0496505,
          35.9162209
        ]
      }
    },
    {
      "type": "Feature",
      "properties": {
        "title": "Raleigh St at Spencer Hall",
        "tag": "ralespen",
        "stopId": "3252"
      },
      "geometry": {
        "type": "Point",
        "coordinates": [
          -79.0487601,
          35.9146902
        ]
      }
    },
    {
      "type": "Feature",
      "properties": {
        "title": "Raleigh St at Mangum Hall",
        "tag": "ralemang",
        "stopId": "3029"
      },
      "geometry": {
        "type": "Point",
        "coordinates": [
          -79.04745,
          35.9123801
        ]
      }
    },
    {
      "type": "Feature",
      "properties": {
        "title": "South Road at Student Stores",
        "tag": "soutstud",
        "stopId": "3360"
      },
      "geometry": {
        "type": "Point",
        "coordinates": [
          -79.0482772,
          35.909585
        ]
      }
    },
    {
      "type": "Feature",
      "properties": {
        "title": "Stadium Dr at Stadium Gate #2",
        "tag": "stadstad",
        "stopId": "3216"
      },
      "geometry": {
        "type": "Point",
        "coordinates": [
          -79.0466337,
          35.9080514
        ]
      }
    },
    {
      "type": "Feature",
      "properties": {
        "title": "Stadium Dr at Ridge Rd",
        "tag": "stadridg",
        "stopId": "3163"
      },
      "geometry": {
        "type": "Point",
        "coordinates": [
          -79.0447015,
          35.906782
        ]
      }
    },
    {
      "type": "Feature",
      "properties": {
        "title": "Ridge Rd at Rams Head Center",
        "tag": "ridgrams",
        "stopId": "3628"
      },
      "geometry": {
        "type": "Point",
        "coordinates": [
          -79.0454697,
          35.9053994
        ]
      }
    },
    {
      "type": "Feature",
      "properties": {
        "title": "Manning Dr at Public Safety",
        "tag": "mannpubl",
        "stopId": "3234"
      },
      "geometry": {
        "type": "Point",
        "coordinates": [
          -79.0468023,
          35.9035892
        ]
      }
    },
    {
      "type": "Feature",
      "properties": {
        "title": "Manning Dr at Hibbard Dr",
        "tag": "mannhibb_w",
        "stopId": "3235"
      },
      "geometry": {
        "type": "Point",
        "coordinates": [
          -79.0490024,
          35.9030097
        ]
      }
    },
    {
      "type": "Feature",
      "properties": {
        "title": "Manning Dr at UNC Hospitals",
        "tag": "mannunch",
        "stopId": "3239"
      },
      "geometry": {
        "type": "Point",
        "coordinates": [
          -79.0518599,
          35.9035599
        ]
      }
    },
    {
      "type": "Feature",
      "properties": {
        "title": "S Columbia St at Health Sciences Library",
        "tag": "coluheal",
        "stopId": "3223"
      },
      "geometry": {
        "type": "Point",
        "coordinates": [
          -79.0534682,
          35.9054121
        ]
      }
    },
    {
      "type": "Feature",
      "properties": {
        "title": "S Columbia St at Carrington Hall",
        "tag": "colucarr",
        "stopId": "3222"
      },
      "geometry": {
        "type": "Point",
        "coordinates": [
          -79.0527798,
          35.9069413
        ]
      }
    },
    {
      "type": "Feature",
      "properties": {
        "title": "S Columbia St at ROTC",
        "tag": "scolsitt",
        "stopId": "3437"
      },
      "geometry": {
        "type": "Point",
        "coordinates": [
          -79.0532555,
          35.9092785
        ]
      }
    },
    {
      "type": "Feature",
      "properties": {
        "title": "S Columbia St at Abernethy Hall",
        "tag": "scolaber",
        "stopId": "3178"
      },
      "geometry": {
        "type": "Point",
        "coordinates": [
          -79.0546892,
          35.911379
        ]
      }
    },
    {
      "type": "Feature",
      "properties": {
        "title": "N Columbia St at Rosemary St",
        "tag": "scolrose",
        "stopId": "3383"
      },
      "geometry": {
        "type": "Point",
        "coordinates": [
          -79.0560395,
          35.9137492
        ]
      }
    },
    {
      "type": "Feature",
      "properties": {
        "title": "W Rosemary St at Pritchard Ave",
        "tag": "roseprit",
        "stopId": "3560"
      },
      "geometry": {
        "type": "Point",
        "coordinates": [
          -79.0578351,
          35.9135118
        ]
      }
    },
    {
      "type": "Feature",
      "properties": {
        "title": "W Rosemary St at Breadmans",
        "tag": "rosebrea",
        "stopId": "3409"
      },
      "geometry": {
        "type": "Point",
        "coordinates": [
          -79.0604187,
          35.9125504
        ]
      }
    },
    {
      "type": "Feature",
      "properties": {
        "title": "Mitchell Ln at W Rosemary",
        "tag": "mitcrose",
        "stopId": "3410"
      },
      "geometry": {
        "type": "Point",
        "coordinates": [
          -79.0623904,
          35.9120265
        ]
      }
    },
    {
      "type": "Feature",
      "properties": {
        "title": "Mitchell Ln at Lindsay St",
        "tag": "mitclind",
        "stopId": "3411"
      },
      "geometry": {
        "type": "Point",
        "coordinates": [
          -79.0626289,
          35.9133164
        ]
      }
    },
    {
      "type": "Feature",
      "properties": {
        "title": "Mitchell Ln at McDade St",
        "tag": "mitcmcda",
        "stopId": "3412"
      },
      "geometry": {
        "type": "Point",
        "coordinates": [
          -79.0631483,
          35.9144967
        ]
      }
    },
    {
      "type": "Feature",
      "properties": {
        "title": "Mitchell Ln at Caldwell St",
        "tag": "mitccald",
        "stopId": "3413"
      },
      "geometry": {
        "type": "Point",
        "coordinates": [
          -79.06405,
          35.91585
        ]
      }
    },
    {
      "type": "Feature",
      "properties": {
        "title": "Caldwell St at Housing Authority",
        "tag": "caldhous",
        "stopId": "3414"
      },
      "geometry": {
        "type": "Point",
        "coordinates": [
          -79.0629646,
          35.916828
        ]
      }
    },
    {
      "type": "Feature",
      "properties": {
        "title": "Caldwell St at Church St",
        "tag": "caldchur",
        "stopId": "3415"
      },
      "geometry": {
        "type": "Point",
        "coordinates": [
          -79.0609696,
          35.9174301
        ]
      }
    },
    {
      "type": "Feature",
      "properties": {
        "title": "Caldwell St at N Columbia St",
        "tag": "caldcolu",
        "stopId": "3051"
      },
      "geometry": {
        "type": "Point",
        "coordinates": [
          -79.0593525,
          35.9180789
        ]
      }
    },
    {
      "type": "Feature",
      "properties": {
        "title": "N Columbia St at Isley St",
        "tag": "colyisle",
        "stopId": "3050"
      },
      "geometry": {
        "type": "Point",
        "coordinates": [
          -79.0591664,
          35.9187145
        ]
      }
    },
    {
      "type": "Feature",
      "properties": {
        "title": "Columbia at Longview",
        "tag": "colulong_n",
        "stopId": "4002"
      },
      "geometry": {
        "type": "Point",
        "coordinates": [
          -79.0596587,
          35.9196576
        ]
      }
    },
    {
      "type": "Feature",
      "properties": {
        "title": "Pritchard Ave at Trinity Ct",
        "tag": "prittrin",
        "stopId": "3033"
      },
      "geometry": {
        "type": "Point",
        "coordinates": [
          -79.0609308,
          35.9198208
        ]
      }
    },
    {
      "type": "Feature",
      "properties": {
        "title": "Bradley Rd at Reade Rd",
        "tag": "bradread_n",
        "stopId": "3608"
      },
      "geometry": {
        "type": "Point",
        "coordinates": [
          -79.0576555,
          35.9247863
        ]
      }
    },
    {
      "type": "Feature",
      "properties": {
        "title": "Bradley Rd at Williams Circle",
        "tag": "bradwill_n",
        "stopId": "3088"
      },
      "geometry": {
        "type": "Point",
        "coordinates": [
          -79.0579562,
          35.9263579
        ]
      }
    },
    {
      "type": "Feature",
      "properties": {
        "title": "Barclay Rd at Williams Circle",
        "tag": "barcwill",
        "stopId": "3093"
      },
      "geometry": {
        "type": "Point",
        "coordinates": [
          -79.0583095,
          35.92949
        ]
      }
    },
    {
      "type": "Feature",
      "properties": {
        "title": "Barclay Rd at Wyrick St",
        "tag": "barcwyri",
        "stopId": "3328"
      },
      "geometry": {
        "type": "Point",
        "coordinates": [
          -79.0600265,
          35.9289276
        ]
      }
    },
    {
      "type": "Feature",
      "properties": {
        "title": "Barclay Rd at Hartig St",
        "tag": "barchart",
        "stopId": "3297"
      },
      "geometry": {
        "type": "Point",
        "coordinates": [
          -79.0627267,
          35.9280675
        ]
      }
    },
    {
      "type": "Feature",
      "properties": {
        "title": "Weiner St at Severin St",
        "tag": "weinseve_d",
        "stopId": "3096"
      },
      "geometry": {
        "type": "Point",
        "coordinates": [
          -79.06341,
          35.9267734
        ]
      }
    },
    {
      "type": "Feature",
      "properties": {
        "title": "Severin at #224",
        "tag": "severi224",
        "stopId": "3455"
      },
      "geometry": {
        "type": "Point",
        "coordinates": [
          -79.0612431,
          35.927149
        ]
      }
    },
    {
      "type": "Feature",
      "properties": {
        "title": "Severin St at Bradley Rd",
        "tag": "sevebard",
        "stopId": "3098"
      },
      "geometry": {
        "type": "Point",
        "coordinates": [
          -79.0590983,
          35.9278623
        ]
      }
    },
    {
      "type": "Feature",
      "properties": {
        "title": "Bradley Rd at Williams Circle",
        "tag": "bradwill_s",
        "stopId": "3446"
      },
      "geometry": {
        "type": "Point",
        "coordinates": [
          -79.0580119,
          35.9264429
        ]
      }
    },
    {
      "type": "Feature",
      "properties": {
        "title": "Bradley Rd at Reade Rd",
        "tag": "bradread_s",
        "stopId": "3090"
      },
      "geometry": {
        "type": "Point",
        "coordinates": [
          -79.0579142,
          35.9249582
        ]
      }
    },
    {
      "type": "Feature",
      "properties": {
        "title": "Pritchard Ave at Longview St",
        "tag": "pritlong",
        "stopId": "3047"
      },
      "geometry": {
        "type": "Point",
        "coordinates": [
          -79.0608544,
          35.9194816
        ]
      }
    },
    {
      "type": "Feature",
      "properties": {
        "title": "Columbia at Longview",
        "tag": "colulong_s",
        "stopId": "4001"
      },
      "geometry": {
        "type": "Point",
        "coordinates": [
          -79.0598449,
          35.9195313
        ]
      }
    },
    {
      "type": "Feature",
      "properties": {
        "title": "N Columbia St at Isley St",
        "tag": "coluisle",
        "stopId": "3049"
      },
      "geometry": {
        "type": "Point",
        "coordinates": [
          -79.0594119,
          35.9187933
        ]
      }
    },
    {
      "type": "Feature",
      "properties": {
        "title": "N Columbia St at Town Hall",
        "tag": "colutown",
        "stopId": "3052"
      },
      "geometry": {
        "type": "Point",
        "coordinates": [
          -79.0579528,
          35.9164645
        ]
      }
    },
    {
      "type": "Feature",
      "properties": {
        "title": "N Columbia St at W Franklin St",
        "tag": "colufank",
        "stopId": "3421"
      },
      "geometry": {
        "type": "Point",
        "coordinates": [
          -79.0560417,
          35.9134029
        ]
      }
    },
    {
      "type": "Feature",
      "properties": {
        "title": "S Columbia St at Fraternity Court",
        "tag": "colufrat",
        "stopId": "3179"
      },
      "geometry": {
        "type": "Point",
        "coordinates": [
          -79.0550299,
          35.9117298
        ]
      }
    },
    {
      "type": "Feature",
      "properties": {
        "title": "Pittsboro St at Newman Ctr",
        "tag": "pittnewm",
        "stopId": "3211"
      },
      "geometry": {
        "type": "Point",
        "coordinates": [
          -79.0548096,
          35.9089092
        ]
      }
    },
    {
      "type": "Feature",
      "properties": {
        "title": "Pittsboro St at Credit Union",
        "tag": "pittcred",
        "stopId": "3226"
      },
      "geometry": {
        "type": "Point",
        "coordinates": [
          -79.0548701,
          35.9068889
        ]
      }
    },
    {
      "type": "Feature",
      "properties": {
        "title": "Pittsboro St at University Dr",
        "tag": "pittuniv",
        "stopId": "3224"
      },
      "geometry": {
        "type": "Point",
        "coordinates": [
          -79.0551402,
          35.9052788
        ]
      }
    },
    {
      "type": "Feature",
      "properties": {
        "title": "Manning Dr at Hospital Parking Deck",
        "tag": "mannhosp",
        "stopId": "3238"
      },
      "geometry": {
        "type": "Point",
        "coordinates": [
          -79.0512505,
          35.9031601
        ]
      }
    },
    {
      "type": "Feature",
      "properties": {
        "title": "Manning Dr at Hibbard Dr",
        "tag": "mannhibb_e",
        "stopId": "3236"
      },
      "geometry": {
        "type": "Point",
        "coordinates": [
          -79.049054,
          35.9028397
        ]
      }
    },
    {
      "type": "Feature",
      "properties": {
        "title": "Manning Dr at Craige Parking Deck",
        "tag": "manncrai",
        "stopId": "3233"
      },
      "geometry": {
        "type": "Point",
        "coordinates": [
          -79.0464392,
          35.9035402
        ]
      }
    },
    {
      "type": "Feature",
      "properties": {
        "title": "Ridge Rd at Ehringhaus Hall - Departure",
        "tag": "ridgehri",
        "stopId": "3161"
      },
      "geometry": {
        "type": "Point",
        "coordinates": [
          -79.0442814,
          35.9038756
        ]
      }
    },
    {
      "type": "Feature",
      "properties": {
        "title": "Ridge Rd at Stadium",
        "tag": "ridgstad",
        "stopId": "3162"
      },
      "geometry": {
        "type": "Point",
        "coordinates": [
          -79.0448346,
          35.9061376
        ]
      }
    },
    {
      "type": "Feature",
      "properties": {
        "title": "Stadium Dr at Carmichael Hall",
        "tag": "stadcarm",
        "stopId": "3217"
      },
      "geometry": {
        "type": "Point",
        "coordinates": [
          -79.0464324,
          35.9081172
        ]
      }
    },
    {
      "type": "Feature",
      "properties": {
        "title": "South Rd at Fetzer Gym",
        "tag": "soutfetz",
        "stopId": "3359"
      },
      "geometry": {
        "type": "Point",
        "coordinates": [
          -79.0477237,
          35.9096484
        ]
      }
    },
    {
      "type": "Feature",
      "properties": {
        "title": "Raleigh St at Connor Hall",
        "tag": "raleconn",
        "stopId": "3381"
      },
      "geometry": {
        "type": "Point",
        "coordinates": [
          -79.0466795,
          35.9107449
        ]
      }
    },
    {
      "type": "Feature",
      "properties": {
        "title": "Raleigh St at Lewis Hall",
        "tag": "raleilewi",
        "stopId": "3028"
      },
      "geometry": {
        "type": "Point",
        "coordinates": [
          -79.0473874,
          35.9124853
        ]
      }
    },
    {
      "type": "Feature",
      "properties": {
        "title": "Raleigh St at Alderman Hall",
        "tag": "raleialder",
        "stopId": "3439"
      },
      "geometry": {
        "type": "Point",
        "coordinates": [
          -79.0483075,
          35.9141755
        ]
      }
    },
    {
      "type": "Feature",
      "properties": {
        "title": "Hillsborough St at E Rosemary St",
        "tag": "hillrose_n",
        "stopId": "3108"
      },
      "geometry": {
        "type": "Point",
        "coordinates": [
          -79.0498574,
          35.9169156
        ]
      }
    },
    {
      "type": "Feature",
      "properties": {
        "title": "Hillsborough St at Delta Zeta",
        "tag": "hilldelt",
        "stopId": "3030"
      },
      "geometry": {
        "type": "Point",
        "coordinates": [
          -79.0514773,
          35.919794
        ]
      }
    },
    {
      "type": "Feature",
      "properties": {
        "title": "Hillsborough St at Bolinwood Dr",
        "tag": "hillboli",
        "stopId": "3248"
      },
      "geometry": {
        "type": "Point",
        "coordinates": [
          -79.0516468,
          35.9235849
        ]
      }
    },
    {
      "type": "Feature",
      "properties": {
        "title": "Hillsborough St at Martin Luther King Jr Blvd",
        "tag": "hillmlkb_n",
        "stopId": "3246"
      },
      "geometry": {
        "type": "Point",
        "coordinates": [
          -79.0536879,
          35.9250697
        ]
      }
    },
    {
      "type": "Feature",
      "properties": {
        "title": "Martin Luther King Jr Blvd at Bolinwood",
        "tag": "mlkbboli",
        "stopId": "3245"
      },
      "geometry": {
        "type": "Point",
        "coordinates": [
          -79.0540816,
          35.9280045
        ]
      }
    },
    {
      "type": "Feature",
      "properties": {
        "title": "Martin Luther King Jr Blvd at Barclay",
        "tag": "mlkbbarc_n",
        "stopId": "3243"
      },
      "geometry": {
        "type": "Point",
        "coordinates": [
          -79.054891,
          35.9302735
        ]
      }
    },
    {
      "type": "Feature",
      "properties": {
        "title": "Martin Luther King Jr Blvd at YMCA",
        "tag": "mlkbymca_n",
        "stopId": "3053"
      },
      "geometry": {
        "type": "Point",
        "coordinates": [
          -79.0557204,
          35.933602
        ]
      }
    },
    {
      "type": "Feature",
      "properties": {
        "title": "Martin Luther King Jr Blvd at Shadowood",
        "tag": "mlkbshad_n",
        "stopId": "3479"
      },
      "geometry": {
        "type": "Point",
        "coordinates": [
          -79.0564207,
          35.937093
        ]
      }
    },
    {
      "type": "Feature",
      "properties": {
        "title": "Martin Luther King Jr Blvd at Timber Hollow",
        "tag": "airptimb_n",
        "stopId": "3337"
      },
      "geometry": {
        "type": "Point",
        "coordinates": [
          -79.0574307,
          35.941889
        ]
      }
    },
    {
      "type": "Feature",
      "properties": {
        "title": "Martin Luther King Jr Blvd at Ashley Forest Dr",
        "tag": "mlkbashl",
        "stopId": "3334"
      },
      "geometry": {
        "type": "Point",
        "coordinates": [
          -79.0579306,
          35.944593
        ]
      }
    },
    {
      "type": "Feature",
      "properties": {
        "title": "Martin Luther King Jr Blvd at Taylor St (Citgo)",
        "tag": "mlkbtayl_d",
        "stopId": "3335"
      },
      "geometry": {
        "type": "Point",
        "coordinates": [
          -79.0581783,
          35.94595
        ]
      }
    },
    {
      "type": "Feature",
      "properties": {
        "title": "Homestead at Martin Luther King Jr Blvd",
        "tag": "homemlkb_n",
        "stopId": "3336"
      },
      "geometry": {
        "type": "Point",
        "coordinates": [
          -79.0602446,
          35.9503777
        ]
      }
    },
    {
      "type": "Feature",
      "properties": {
        "title": "Homestead Rd. at Seymour Center",
        "tag": "homeseym",
        "stopId": "3709"
      },
      "geometry": {
        "type": "Point",
        "coordinates": [
          -79.0639921,
          35.9506545
        ]
      }
    },
    {
      "type": "Feature",
      "properties": {
        "title": "Orange County Social Services",
        "tag": "oransoci",
        "stopId": "3329"
      },
      "geometry": {
        "type": "Point",
        "coordinates": [
          -79.06492,
          35.9488999
        ]
      }
    },
    {
      "type": "Feature",
      "properties": {
        "title": "Homestead Rd at Southern Human Services",
        "tag": "homesout",
        "stopId": "3610"
      },
      "geometry": {
        "type": "Point",
        "coordinates": [
          -79.0641141,
          35.9513003
        ]
      }
    },
    {
      "type": "Feature",
      "properties": {
        "title": "Homestead at Martin Luther King Jr Blvd",
        "tag": "homemlkb_s",
        "stopId": "3336"
      },
      "geometry": {
        "type": "Point",
        "coordinates": [
          -79.0590494,
          35.9496198
        ]
      }
    },
    {
      "type": "Feature",
      "properties": {
        "title": "Mason Farm Rd at Baity Hill",
        "tag": "masobait_d",
        "stopId": "3713"
      },
      "geometry": {
        "type": "Point",
        "coordinates": [
          -79.0426299,
          35.897805
        ]
      }
    },
    {
      "type": "Feature",
      "properties": {
        "title": "Mason Farm Road at Oteys",
        "tag": "masootey",
        "stopId": "3720"
      },
      "geometry": {
        "type": "Point",
        "coordinates": [
          -79.0459458,
          35.8978639
        ]
      }
    },
    {
      "type": "Feature",
      "properties": {
        "title": "East Dr at Jackson Circle",
        "tag": "eastjack",
        "stopId": "3237"
      },
      "geometry": {
        "type": "Point",
        "coordinates": [
          -79.0507292,
          35.9018719
        ]
      }
    },
    {
      "type": "Feature",
      "properties": {
        "title": "South Rd at Coker Hall",
        "tag": "soutcoke",
        "stopId": "3214"
      },
      "geometry": {
        "type": "Point",
        "coordinates": [
          -79.0514996,
          35.90861
        ]
      }
    },
    {
      "type": "Feature",
      "properties": {
        "title": "South Rd at Woollen Gym",
        "tag": "soutwoll",
        "stopId": "3397"
      },
      "geometry": {
        "type": "Point",
        "coordinates": [
          -79.045153,
          35.9101794
        ]
      }
    },
    {
      "type": "Feature",
      "properties": {
        "title": "South Rd at Country Club Rd",
        "tag": "soutcoun_n",
        "stopId": "3430"
      },
      "geometry": {
        "type": "Point",
        "coordinates": [
          -79.0425495,
          35.9106501
        ]
      }
    },
    {
      "type": "Feature",
      "properties": {
        "title": "Chatham County Park & Ride",
        "tag": "chatpr",
        "stopId": "3629"
      },
      "geometry": {
        "type": "Point",
        "coordinates": [
          -79.0846202,
          35.8538388
        ]
      }
    },
    {
      "type": "Feature",
      "properties": {
        "title": "Mason Farm Rd at Ambulatory Care Center",
        "tag": "masoambu_n",
        "stopId": "3221"
      },
      "geometry": {
        "type": "Point",
        "coordinates": [
          -79.0565699,
          35.90243
        ]
      }
    },
    {
      "type": "Feature",
      "properties": {
        "title": "S Columbia St at Health Sciences Library",
        "tag": "scolheal",
        "stopId": "3223"
      },
      "geometry": {
        "type": "Point",
        "coordinates": [
          -79.0534682,
          35.9054121
        ]
      }
    },
    {
      "type": "Feature",
      "properties": {
        "title": "S Columbia St at Carrington Hall",
        "tag": "scolcarr",
        "stopId": "3222"
      },
      "geometry": {
        "type": "Point",
        "coordinates": [
          -79.0527798,
          35.9069413
        ]
      }
    },
    {
      "type": "Feature",
      "properties": {
        "title": "South Rd at Country Club Rd",
        "tag": "soutcoun_e",
        "stopId": "3430"
      },
      "geometry": {
        "type": "Point",
        "coordinates": [
          -79.0425533,
          35.9106493
        ]
      }
    },
    {
      "type": "Feature",
      "properties": {
        "title": "Ridge Rd at Ehringhaus Hall",
        "tag": "ridghall",
        "stopId": "3161"
      },
      "geometry": {
        "type": "Point",
        "coordinates": [
          -79.0442802,
          35.903879
        ]
      }
    },
    {
      "type": "Feature",
      "properties": {
        "title": "South Rd at Country Club Rd",
        "tag": "soutcoun_w",
        "stopId": "3431"
      },
      "geometry": {
        "type": "Point",
        "coordinates": [
          -79.0427959,
          35.9108006
        ]
      }
    },
    {
      "type": "Feature",
      "properties": {
        "title": "South Rd at Kenan Labs",
        "tag": "soutkena",
        "stopId": "3215"
      },
      "geometry": {
        "type": "Point",
        "coordinates": [
          -79.0511184,
          35.9087
        ]
      }
    },
    {
      "type": "Feature",
      "properties": {
        "title": "S Columbia St at Westwood Dr",
        "tag": "scolwest",
        "stopId": "3184"
      },
      "geometry": {
        "type": "Point",
        "coordinates": [
          -79.0575429,
          35.9016206
        ]
      }
    },
    {
      "type": "Feature",
      "properties": {
        "title": "Manning Dr at UNC Hospitals",
        "tag": "mannunch_d",
        "stopId": "3239"
      },
      "geometry": {
        "type": "Point",
        "coordinates": [
          -79.0518561,
          35.9035587
        ]
      }
    },
    {
      "type": "Feature",
      "properties": {
        "title": "E Franklin St at Coffee Shop",
        "tag": "francoffe",
        "stopId": "3427"
      },
      "geometry": {
        "type": "Point",
        "coordinates": [
          -79.05407,
          35.9137
        ]
      }
    },
    {
      "type": "Feature",
      "properties": {
        "title": "E Franklin St at Planetarium",
        "tag": "franplan_n",
        "stopId": "3257"
      },
      "geometry": {
        "type": "Point",
        "coordinates": [
          -79.0509297,
          35.91493
        ]
      }
    },
    {
      "type": "Feature",
      "properties": {
        "title": "E Franklin St at Raleigh St",
        "tag": "franralei",
        "stopId": "3254"
      },
      "geometry": {
        "type": "Point",
        "coordinates": [
          -79.0486095,
          35.9158301
        ]
      }
    },
    {
      "type": "Feature",
      "properties": {
        "title": "E Franklin St at S Boundary St",
        "tag": "franboun_n",
        "stopId": "3255"
      },
      "geometry": {
        "type": "Point",
        "coordinates": [
          -79.0461092,
          35.9167702
        ]
      }
    },
    {
      "type": "Feature",
      "properties": {
        "title": "E Franklin St at Park Pl",
        "tag": "franpark",
        "stopId": "3250"
      },
      "geometry": {
        "type": "Point",
        "coordinates": [
          -79.0437467,
          35.9167999
        ]
      }
    },
    {
      "type": "Feature",
      "properties": {
        "title": "E Franklin St at Glendale Dr",
        "tag": "franglen",
        "stopId": "3269"
      },
      "geometry": {
        "type": "Point",
        "coordinates": [
          -79.0399968,
          35.9181015
        ]
      }
    },
    {
      "type": "Feature",
      "properties": {
        "title": "E Franklin St at Howell Ln",
        "tag": "franhowe_n",
        "stopId": "3268"
      },
      "geometry": {
        "type": "Point",
        "coordinates": [
          -79.0386691,
          35.9222868
        ]
      }
    },
    {
      "type": "Feature",
      "properties": {
        "title": "E Franklin St at Elizabeth St",
        "tag": "franeliz_n",
        "stopId": "3266"
      },
      "geometry": {
        "type": "Point",
        "coordinates": [
          -79.0382395,
          35.9240107
        ]
      }
    },
    {
      "type": "Feature",
      "properties": {
        "title": "E Franklin St at Plant Rd",
        "tag": "franplant",
        "stopId": "3264"
      },
      "geometry": {
        "type": "Point",
        "coordinates": [
          -79.0357598,
          35.9268101
        ]
      }
    },
    {
      "type": "Feature",
      "properties": {
        "title": "E Franklin St at Estes Dr",
        "tag": "franeste_n",
        "stopId": "3260"
      },
      "geometry": {
        "type": "Point",
        "coordinates": [
          -79.03443,
          35.9288
        ]
      }
    },
    {
      "type": "Feature",
      "properties": {
        "title": "E Franklin St at #1512",
        "tag": "fran1512",
        "stopId": "3370"
      },
      "geometry": {
        "type": "Point",
        "coordinates": [
          -79.0330403,
          35.9311696
        ]
      }
    },
    {
      "type": "Feature",
      "properties": {
        "title": "E Franklin St at #1520",
        "tag": "fran1520",
        "stopId": "3367"
      },
      "geometry": {
        "type": "Point",
        "coordinates": [
          -79.0318602,
          35.9324097
        ]
      }
    },
    {
      "type": "Feature",
      "properties": {
        "title": "E Franklin St at Elliott Rd",
        "tag": "franelli_n",
        "stopId": "3365"
      },
      "geometry": {
        "type": "Point",
        "coordinates": [
          -79.02959,
          35.9347299
        ]
      }
    },
    {
      "type": "Feature",
      "properties": {
        "title": "E Franklin St at Eastgate Shopping Center",
        "tag": "franeast",
        "stopId": "3453"
      },
      "geometry": {
        "type": "Point",
        "coordinates": [
          -79.0261665,
          35.9366922
        ]
      }
    },
    {
      "type": "Feature",
      "properties": {
        "title": "Europa Dr at Duck Pond",
        "tag": "eurduck",
        "stopId": "3127"
      },
      "geometry": {
        "type": "Point",
        "coordinates": [
          -79.0179905,
          35.9401617
        ]
      }
    },
    {
      "type": "Feature",
      "properties": {
        "title": "Legion Rd at Britthaven Shelter",
        "tag": "legibritt",
        "stopId": "3101"
      },
      "geometry": {
        "type": "Point",
        "coordinates": [
          -79.0166985,
          35.9396209
        ]
      }
    },
    {
      "type": "Feature",
      "properties": {
        "title": "Legion Rd at #1718",
        "tag": "legi1718",
        "stopId": "3593"
      },
      "geometry": {
        "type": "Point",
        "coordinates": [
          -79.0154185,
          35.9404908
        ]
      }
    },
    {
      "type": "Feature",
      "properties": {
        "title": "Legion Rd at Forsyth Dr",
        "tag": "legifors",
        "stopId": "3104"
      },
      "geometry": {
        "type": "Point",
        "coordinates": [
          -79.0135916,
          35.941529
        ]
      }
    },
    {
      "type": "Feature",
      "properties": {
        "title": "Standish Dr at St Andrews Ln",
        "tag": "stanstan_n",
        "stopId": "3280"
      },
      "geometry": {
        "type": "Point",
        "coordinates": [
          -79.0098439,
          35.9393904
        ]
      }
    },
    {
      "type": "Feature",
      "properties": {
        "title": "Standish Dr at Sir Richards Ln",
        "tag": "standsirr",
        "stopId": "3124"
      },
      "geometry": {
        "type": "Point",
        "coordinates": [
          -79.0074704,
          35.9418735
        ]
      }
    },
    {
      "type": "Feature",
      "properties": {
        "title": "Standish Dr at Old Durham Rd",
        "tag": "standurh_n",
        "stopId": "3278"
      },
      "geometry": {
        "type": "Point",
        "coordinates": [
          -79.00744,
          35.94402
        ]
      }
    },
    {
      "type": "Feature",
      "properties": {
        "title": "Old Durham Rd at Hardees",
        "tag": "durhhard",
        "stopId": "3276"
      },
      "geometry": {
        "type": "Point",
        "coordinates": [
          -79.011144,
          35.9443
        ]
      }
    },
    {
      "type": "Feature",
      "properties": {
        "title": "Sage Rd at Lowes-Borders",
        "tag": "sagelowe_n",
        "stopId": "3288"
      },
      "geometry": {
        "type": "Point",
        "coordinates": [
          -79.0135916,
          35.946582
        ]
      }
    },
    {
      "type": "Feature",
      "properties": {
        "title": "Coleridge Rd at Walden at Greenfield",
        "tag": "colewald",
        "stopId": "3286"
      },
      "geometry": {
        "type": "Point",
        "coordinates": [
          -79.01502,
          35.94723
        ]
      }
    },
    {
      "type": "Feature",
      "properties": {
        "title": "Coleridge Rd at Presque Isle",
        "tag": "prescole",
        "stopId": "3282"
      },
      "geometry": {
        "type": "Point",
        "coordinates": [
          -79.016391,
          35.9493839
        ]
      }
    },
    {
      "type": "Feature",
      "properties": {
        "title": "Sage Rd at Erwin Rd",
        "tag": "sageerwi_s",
        "stopId": "3284"
      },
      "geometry": {
        "type": "Point",
        "coordinates": [
          -79.01601,
          35.95113
        ]
      }
    },
    {
      "type": "Feature",
      "properties": {
        "title": "Erwin Rd at Weaver Dairy Rd",
        "tag": "erwiweav_s",
        "stopId": "3111"
      },
      "geometry": {
        "type": "Point",
        "coordinates": [
          -79.019799,
          35.9488208
        ]
      }
    },
    {
      "type": "Feature",
      "properties": {
        "title": "Old Oxford Rd at Kirkwood",
        "tag": "oxfokirk_s",
        "stopId": "3468"
      },
      "geometry": {
        "type": "Point",
        "coordinates": [
          -79.0209916,
          35.94666
        ]
      }
    },
    {
      "type": "Feature",
      "properties": {
        "title": "Old Oxford Rd at Booker Creek Rd",
        "tag": "oxfobook_s",
        "stopId": "3462"
      },
      "geometry": {
        "type": "Point",
        "coordinates": [
          -79.0236691,
          35.9457506
        ]
      }
    },
    {
      "type": "Feature",
      "properties": {
        "title": "Summerfield Crossing at Grist Mill Ln",
        "tag": "summgrist_s",
        "stopId": "3001"
      },
      "geometry": {
        "type": "Point",
        "coordinates": [
          -79.0253342,
          35.9436485
        ]
      }
    },
    {
      "type": "Feature",
      "properties": {
        "title": "Summerfield Crossing at Berry Patch",
        "tag": "summberry",
        "stopId": "3116"
      },
      "geometry": {
        "type": "Point",
        "coordinates": [
          -79.0221522,
          35.9436424
        ]
      }
    },
    {
      "type": "Feature",
      "properties": {
        "title": "Summerfield Crossing at Beaver Dam C",
        "tag": "summbeav",
        "stopId": "3117"
      },
      "geometry": {
        "type": "Point",
        "coordinates": [
          -79.0212626,
          35.9415315
        ]
      }
    },
    {
      "type": "Feature",
      "properties": {
        "title": "Dobbins Dr at Foxcroft",
        "tag": "dobbfoxc",
        "stopId": "3120"
      },
      "geometry": {
        "type": "Point",
        "coordinates": [
          -79.02202,
          35.94081
        ]
      }
    },
    {
      "type": "Feature",
      "properties": {
        "title": "Dobbins Dr at Franklin Square",
        "tag": "dobbfrank",
        "stopId": "3121"
      },
      "geometry": {
        "type": "Point",
        "coordinates": [
          -79.0245604,
          35.9386793
        ]
      }
    },
    {
      "type": "Feature",
      "properties": {
        "title": "Dobbins Dr at Summerfield Crossing",
        "tag": "dobbsumm",
        "stopId": "3118"
      },
      "geometry": {
        "type": "Point",
        "coordinates": [
          -79.0208255,
          35.9415329
        ]
      }
    },
    {
      "type": "Feature",
      "properties": {
        "title": "Summerfield Crossing at Mossbark Ln",
        "tag": "summmoss",
        "stopId": "3469"
      },
      "geometry": {
        "type": "Point",
        "coordinates": [
          -79.0220838,
          35.9437836
        ]
      }
    },
    {
      "type": "Feature",
      "properties": {
        "title": "Summerfield Crossing at Grist Mill Ln",
        "tag": "summgrist_n",
        "stopId": "3115"
      },
      "geometry": {
        "type": "Point",
        "coordinates": [
          -79.0254103,
          35.9437699
        ]
      }
    },
    {
      "type": "Feature",
      "properties": {
        "title": "Old Oxford Rd E at Booker Creek Rd",
        "tag": "oxfobook_n",
        "stopId": "3463"
      },
      "geometry": {
        "type": "Point",
        "coordinates": [
          -79.0235899,
          35.94565
        ]
      }
    },
    {
      "type": "Feature",
      "properties": {
        "title": "Old Oxford Rd E at Kirkwood",
        "tag": "oxfokirk_n",
        "stopId": "3112"
      },
      "geometry": {
        "type": "Point",
        "coordinates": [
          -79.0205984,
          35.9465499
        ]
      }
    },
    {
      "type": "Feature",
      "properties": {
        "title": "Erwin Rd at Weaver Dairy Rd",
        "tag": "erwiweav_n",
        "stopId": "3282"
      },
      "geometry": {
        "type": "Point",
        "coordinates": [
          -79.0195416,
          35.9488586
        ]
      }
    },
    {
      "type": "Feature",
      "properties": {
        "title": "Sage Rd at Erwin Rd",
        "tag": "sageerwi_n",
        "stopId": "3283"
      },
      "geometry": {
        "type": "Point",
        "coordinates": [
          -79.0162489,
          35.9511379
        ]
      }
    },
    {
      "type": "Feature",
      "properties": {
        "title": "Coleridge Rd at Presque Isle",
        "tag": "colepres",
        "stopId": "3285"
      },
      "geometry": {
        "type": "Point",
        "coordinates": [
          -79.01644,
          35.94943
        ]
      }
    },
    {
      "type": "Feature",
      "properties": {
        "title": "Coleridge Rd at Walden at Greenfield",
        "tag": "colewald_d",
        "stopId": "3286"
      },
      "geometry": {
        "type": "Point",
        "coordinates": [
          -79.0150532,
          35.94719
        ]
      }
    },
    {
      "type": "Feature",
      "properties": {
        "title": "Sage Rd at Dobbins Dr",
        "tag": "sagelowe_s",
        "stopId": "3126"
      },
      "geometry": {
        "type": "Point",
        "coordinates": [
          -79.0132809,
          35.9457122
        ]
      }
    },
    {
      "type": "Feature",
      "properties": {
        "title": "Old Durham Rd at Heard Family Mkt",
        "tag": "durhhear",
        "stopId": "3275"
      },
      "geometry": {
        "type": "Point",
        "coordinates": [
          -79.011594,
          35.94421
        ]
      }
    },
    {
      "type": "Feature",
      "properties": {
        "title": "Old Durham Rd at Cooper St",
        "tag": "durhcoop",
        "stopId": "3555"
      },
      "geometry": {
        "type": "Point",
        "coordinates": [
          -79.0084095,
          35.9441599
        ]
      }
    },
    {
      "type": "Feature",
      "properties": {
        "title": "Standish Dr at Old Durham Rd",
        "tag": "standurh_s",
        "stopId": "3277"
      },
      "geometry": {
        "type": "Point",
        "coordinates": [
          -79.0075899,
          35.9438706
        ]
      }
    },
    {
      "type": "Feature",
      "properties": {
        "title": "Standish Dr at Sir Richard Ln",
        "tag": "stansirr",
        "stopId": "3279"
      },
      "geometry": {
        "type": "Point",
        "coordinates": [
          -79.0076202,
          35.941812
        ]
      }
    },
    {
      "type": "Feature",
      "properties": {
        "title": "Standish Dr at St Andrews Ln",
        "tag": "stanstan_s",
        "stopId": "3281"
      },
      "geometry": {
        "type": "Point",
        "coordinates": [
          -79.00991,
          35.9394907
        ]
      }
    },
    {
      "type": "Feature",
      "properties": {
        "title": "Legion Rd at Cemetery",
        "tag": "legiceme",
        "stopId": "3125"
      },
      "geometry": {
        "type": "Point",
        "coordinates": [
          -79.0135211,
          35.9416893
        ]
      }
    },
    {
      "type": "Feature",
      "properties": {
        "title": "Legion Rd at Wooded Area (#1719)",
        "tag": "legiwood",
        "stopId": "3103"
      },
      "geometry": {
        "type": "Point",
        "coordinates": [
          -79.0157221,
          35.9403985
        ]
      }
    },
    {
      "type": "Feature",
      "properties": {
        "title": "Europa Dr at Hotel",
        "tag": "eurhote",
        "stopId": "3110"
      },
      "geometry": {
        "type": "Point",
        "coordinates": [
          -79.0180398,
          35.9410077
        ]
      }
    },
    {
      "type": "Feature",
      "properties": {
        "title": "E Franklin St at Booker Ck Greenway",
        "tag": "franbook",
        "stopId": "3273"
      },
      "geometry": {
        "type": "Point",
        "coordinates": [
          -79.0263499,
          35.93683
        ]
      }
    },
    {
      "type": "Feature",
      "properties": {
        "title": "E Franklin St at Elliott Rd",
        "tag": "franelli_s",
        "stopId": "3366"
      },
      "geometry": {
        "type": "Point",
        "coordinates": [
          -79.0298525,
          35.9347473
        ]
      }
    },
    {
      "type": "Feature",
      "properties": {
        "title": "E Franklin St at Franklin Woods",
        "tag": "franfran",
        "stopId": "3368"
      },
      "geometry": {
        "type": "Point",
        "coordinates": [
          -79.0321902,
          35.9323497
        ]
      }
    },
    {
      "type": "Feature",
      "properties": {
        "title": "E Franklin St at Library Trail",
        "tag": "franetna",
        "stopId": "3369"
      },
      "geometry": {
        "type": "Point",
        "coordinates": [
          -79.0330402,
          35.9314596
        ]
      }
    },
    {
      "type": "Feature",
      "properties": {
        "title": "E Franklin St at Vet Hospital",
        "tag": "franveth",
        "stopId": "3263"
      },
      "geometry": {
        "type": "Point",
        "coordinates": [
          -79.0360097,
          35.9267802
        ]
      }
    },
    {
      "type": "Feature",
      "properties": {
        "title": "E Franklin St at Estes Dr",
        "tag": "franeste_s",
        "stopId": "3259"
      },
      "geometry": {
        "type": "Point",
        "coordinates": [
          -79.03466,
          35.92871
        ]
      }
    },
    {
      "type": "Feature",
      "properties": {
        "title": "E Franklin St at Elizabeth St",
        "tag": "franeliz_s",
        "stopId": "3265"
      },
      "geometry": {
        "type": "Point",
        "coordinates": [
          -79.0383796,
          35.9242205
        ]
      }
    },
    {
      "type": "Feature",
      "properties": {
        "title": "E Franklin St at Howell Ln",
        "tag": "franhowe_s",
        "stopId": "3267"
      },
      "geometry": {
        "type": "Point",
        "coordinates": [
          -79.03888,
          35.9225264
        ]
      }
    },
    {
      "type": "Feature",
      "properties": {
        "title": "E Franklin St at Carolina Ave",
        "tag": "francaro",
        "stopId": "3251"
      },
      "geometry": {
        "type": "Point",
        "coordinates": [
          -79.0402195,
          35.9182103
        ]
      }
    },
    {
      "type": "Feature",
      "properties": {
        "title": "E Franklin St at N Boundary St",
        "tag": "franboun_s",
        "stopId": "3256"
      },
      "geometry": {
        "type": "Point",
        "coordinates": [
          -79.0467931,
          35.9166887
        ]
      }
    },
    {
      "type": "Feature",
      "properties": {
        "title": "E Franklin St at Hillsborough St",
        "tag": "franhill",
        "stopId": "3253"
      },
      "geometry": {
        "type": "Point",
        "coordinates": [
          -79.0490394,
          35.9158301
        ]
      }
    },
    {
      "type": "Feature",
      "properties": {
        "title": "E Franklin St at Planetarium",
        "tag": "franplan_s",
        "stopId": "3258"
      },
      "geometry": {
        "type": "Point",
        "coordinates": [
          -79.0508205,
          35.9151497
        ]
      }
    },
    {
      "type": "Feature",
      "properties": {
        "title": "E Franklin St at Henderson St",
        "tag": "franhend",
        "stopId": "3447"
      },
      "geometry": {
        "type": "Point",
        "coordinates": [
          -79.0527808,
          35.9143996
        ]
      }
    },
    {
      "type": "Feature",
      "properties": {
        "title": "E Franklin St at Varsity Theatre",
        "tag": "franvars",
        "stopId": "3428"
      },
      "geometry": {
        "type": "Point",
        "coordinates": [
          -79.054859,
          35.9135803
        ]
      }
    },
    {
      "type": "Feature",
      "properties": {
        "title": "Mason Farm Rd at Odum Village",
        "tag": "masoodum",
        "stopId": "3436"
      },
      "geometry": {
        "type": "Point",
        "coordinates": [
          -79.0522805,
          35.9015603
        ]
      }
    },
    {
      "type": "Feature",
      "properties": {
        "title": "Jones Ferry Park and Ride",
        "tag": "jonespr_d",
        "stopId": "3138"
      },
      "geometry": {
        "type": "Point",
        "coordinates": [
          -79.0902926,
          35.9014819
        ]
      }
    },
    {
      "type": "Feature",
      "properties": {
        "title": "Old Fayetteville Rd at Poplar Place",
        "tag": "ofaypopl",
        "stopId": "3139"
      },
      "geometry": {
        "type": "Point",
        "coordinates": [
          -79.0909295,
          35.9031884
        ]
      }
    },
    {
      "type": "Feature",
      "properties": {
        "title": "Old Fayetteville Rd at Autumn Woods",
        "tag": "autoldf_n",
        "stopId": "3404"
      },
      "geometry": {
        "type": "Point",
        "coordinates": [
          -79.0916497,
          35.9055988
        ]
      }
    },
    {
      "type": "Feature",
      "properties": {
        "title": "Old Fayetteville Rd at Autumn Woods",
        "tag": "oldfaut_n",
        "stopId": "3137"
      },
      "geometry": {
        "type": "Point",
        "coordinates": [
          -79.0921597,
          35.907289
        ]
      }
    },
    {
      "type": "Feature",
      "properties": {
        "title": "Old Fayetteville Rd at Ramsgate Apt",
        "tag": "oldframg_n",
        "stopId": "3595"
      },
      "geometry": {
        "type": "Point",
        "coordinates": [
          -79.0933797,
          35.9106593
        ]
      }
    },
    {
      "type": "Feature",
      "properties": {
        "title": "W Poplar Av at Dominon Ramsgate",
        "tag": "popldomi_n",
        "stopId": "3589"
      },
      "geometry": {
        "type": "Point",
        "coordinates": [
          -79.092881,
          35.9123499
        ]
      }
    },
    {
      "type": "Feature",
      "properties": {
        "title": "NC 54 East at The Crest",
        "tag": "nc54domi",
        "stopId": "3488"
      },
      "geometry": {
        "type": "Point",
        "coordinates": [
          -79.09177,
          35.91221
        ]
      }
    },
    {
      "type": "Feature",
      "properties": {
        "title": "NC 54 at Harris Inc (Fenway Park)",
        "tag": "nc54harr",
        "stopId": "3592"
      },
      "geometry": {
        "type": "Point",
        "coordinates": [
          -79.0902886,
          35.9093485
        ]
      }
    },
    {
      "type": "Feature",
      "properties": {
        "title": "NC 54 East at Westbrook Dr",
        "tag": "nc54west",
        "stopId": "3458"
      },
      "geometry": {
        "type": "Point",
        "coordinates": [
          -79.081252,
          35.9032093
        ]
      }
    },
    {
      "type": "Feature",
      "properties": {
        "title": "NC 54 East at Canterbury Apts",
        "tag": "nc54cante",
        "stopId": "3457"
      },
      "geometry": {
        "type": "Point",
        "coordinates": [
          -79.0769153,
          35.9023783
        ]
      }
    },
    {
      "type": "Feature",
      "properties": {
        "title": "Merritt Mill Rd at Manley Estates",
        "tag": "merrmanl_e",
        "stopId": "3087"
      },
      "geometry": {
        "type": "Point",
        "coordinates": [
          -79.0680088,
          35.9019006
        ]
      }
    },
    {
      "type": "Feature",
      "properties": {
        "title": "Merritt Mill Rd at Lincoln Center",
        "tag": "merrlinc_e",
        "stopId": "3157"
      },
      "geometry": {
        "type": "Point",
        "coordinates": [
          -79.0668008,
          35.9028494
        ]
      }
    },
    {
      "type": "Feature",
      "properties": {
        "title": "Merritt Mill Rd at Locust Ct",
        "tag": "merrlocu_e",
        "stopId": "3181"
      },
      "geometry": {
        "type": "Point",
        "coordinates": [
          -79.0640205,
          35.9054986
        ]
      }
    },
    {
      "type": "Feature",
      "properties": {
        "title": "Cameron Av at S Roberson St",
        "tag": "camerobe_e",
        "stopId": "3203"
      },
      "geometry": {
        "type": "Point",
        "coordinates": [
          -79.0620209,
          35.9077496
        ]
      }
    },
    {
      "type": "Feature",
      "properties": {
        "title": "Cameron Av at Cameron Glen",
        "tag": "camecame",
        "stopId": "3206"
      },
      "geometry": {
        "type": "Point",
        "coordinates": [
          -79.0603698,
          35.90835
        ]
      }
    },
    {
      "type": "Feature",
      "properties": {
        "title": "Cameron Av at Wilson St",
        "tag": "camewils",
        "stopId": "3208"
      },
      "geometry": {
        "type": "Point",
        "coordinates": [
          -79.0570106,
          35.9096097
        ]
      }
    },
    {
      "type": "Feature",
      "properties": {
        "title": "Cameron Av at Pittsboro St",
        "tag": "camepitt",
        "stopId": "3210"
      },
      "geometry": {
        "type": "Point",
        "coordinates": [
          -79.0557095,
          35.9101102
        ]
      }
    },
    {
      "type": "Feature",
      "properties": {
        "title": "Bowles Dr at Craige Dorm",
        "tag": "bowlcrai",
        "stopId": "3160"
      },
      "geometry": {
        "type": "Point",
        "coordinates": [
          -79.0444003,
          35.9030116
        ]
      }
    },
    {
      "type": "Feature",
      "properties": {
        "title": "Bowles Dr at Kenan-Flagler Lot",
        "tag": "bowlkena",
        "stopId": "3225"
      },
      "geometry": {
        "type": "Point",
        "coordinates": [
          -79.0440902,
          35.9016807
        ]
      }
    },
    {
      "type": "Feature",
      "properties": {
        "title": "Bowles Dr at Smith Center",
        "tag": "bowlsmit_e",
        "stopId": "3228"
      },
      "geometry": {
        "type": "Point",
        "coordinates": [
          -79.0431685,
          35.9001814
        ]
      }
    },
    {
      "type": "Feature",
      "properties": {
        "title": "F Parking Lot at Family Practice Bld",
        "tag": "fparfami_d",
        "stopId": "3232"
      },
      "geometry": {
        "type": "Point",
        "coordinates": [
          -79.03824,
          35.8993699
        ]
      }
    },
    {
      "type": "Feature",
      "properties": {
        "title": "F Parking Lot at Middle of Lot",
        "tag": "fparmidd",
        "stopId": "3231"
      },
      "geometry": {
        "type": "Point",
        "coordinates": [
          -79.039018,
          35.9002385
        ]
      }
    },
    {
      "type": "Feature",
      "properties": {
        "title": "Bowles Dr at F Lot Driveway",
        "tag": "bowlflotd_w",
        "stopId": "3230"
      },
      "geometry": {
        "type": "Point",
        "coordinates": [
          -79.0408358,
          35.9004616
        ]
      }
    },
    {
      "type": "Feature",
      "properties": {
        "title": "Bowles Dr at Smith Center",
        "tag": "bowlsmit_w",
        "stopId": "3464"
      },
      "geometry": {
        "type": "Point",
        "coordinates": [
          -79.0431212,
          35.9003601
        ]
      }
    },
    {
      "type": "Feature",
      "properties": {
        "title": "Bowles Dr at Hinton James Tennis Courts",
        "tag": "bowlhint",
        "stopId": "3227"
      },
      "geometry": {
        "type": "Point",
        "coordinates": [
          -79.04392,
          35.9016878
        ]
      }
    },
    {
      "type": "Feature",
      "properties": {
        "title": "Cameron Av at Granville Towers",
        "tag": "camegran",
        "stopId": "3209"
      },
      "geometry": {
        "type": "Point",
        "coordinates": [
          -79.0569016,
          35.9098368
        ]
      }
    },
    {
      "type": "Feature",
      "properties": {
        "title": "Cameron Av at Kenan St",
        "tag": "camekena",
        "stopId": "3207"
      },
      "geometry": {
        "type": "Point",
        "coordinates": [
          -79.0598283,
          35.9087343
        ]
      }
    },
    {
      "type": "Feature",
      "properties": {
        "title": "Cameron Av at S Roberson St",
        "tag": "camerobe_w",
        "stopId": "3205"
      },
      "geometry": {
        "type": "Point",
        "coordinates": [
          -79.0615513,
          35.9081166
        ]
      }
    },
    {
      "type": "Feature",
      "properties": {
        "title": "Cameron Av at Railroad Tracks",
        "tag": "camerail",
        "stopId": "3204"
      },
      "geometry": {
        "type": "Point",
        "coordinates": [
          -79.0633299,
          35.90744
        ]
      }
    },
    {
      "type": "Feature",
      "properties": {
        "title": "Merritt Mill Rd at Locust Ct",
        "tag": "merrlocu_w",
        "stopId": "3570"
      },
      "geometry": {
        "type": "Point",
        "coordinates": [
          -79.0644194,
          35.9050514
        ]
      }
    },
    {
      "type": "Feature",
      "properties": {
        "title": "Merritt Mill Rd at Lincoln Center",
        "tag": "merrlinc_w",
        "stopId": "3585"
      },
      "geometry": {
        "type": "Point",
        "coordinates": [
          -79.0668679,
          35.9030511
        ]
      }
    },
    {
      "type": "Feature",
      "properties": {
        "title": "Merritt Mill Rd at Manley Estates",
        "tag": "merrmanl_w",
        "stopId": "3586"
      },
      "geometry": {
        "type": "Point",
        "coordinates": [
          -79.0682917,
          35.9019392
        ]
      }
    },
    {
      "type": "Feature",
      "properties": {
        "title": "Merritt Mill Rd at Roberts St",
        "tag": "merrrobe",
        "stopId": "3146"
      },
      "geometry": {
        "type": "Point",
        "coordinates": [
          -79.0723205,
          35.9013601
        ]
      }
    },
    {
      "type": "Feature",
      "properties": {
        "title": "NC 54 West at Royal Park",
        "tag": "nc54roya",
        "stopId": "3465"
      },
      "geometry": {
        "type": "Point",
        "coordinates": [
          -79.0779678,
          35.9029495
        ]
      }
    },
    {
      "type": "Feature",
      "properties": {
        "title": "NC 54 West at Carolina Apartments",
        "tag": "nc54caro",
        "stopId": "3143"
      },
      "geometry": {
        "type": "Point",
        "coordinates": [
          -79.0821197,
          35.9034799
        ]
      }
    },
    {
      "type": "Feature",
      "properties": {
        "title": "Jones Ferry Rd at Willow Creek Professional Center",
        "tag": "jonewill_w",
        "stopId": "3140"
      },
      "geometry": {
        "type": "Point",
        "coordinates": [
          -79.0890599,
          35.90497
        ]
      }
    },
    {
      "type": "Feature",
      "properties": {
        "title": "NC 54 Ramp at Jones Ferry Rd",
        "tag": "nc54jone",
        "stopId": "3591"
      },
      "geometry": {
        "type": "Point",
        "coordinates": [
          -79.0863298,
          35.9065898
        ]
      }
    },
    {
      "type": "Feature",
      "properties": {
        "title": "NC 54 at Oleander Rd",
        "tag": "nc54olea",
        "stopId": "3598"
      },
      "geometry": {
        "type": "Point",
        "coordinates": [
          -79.0903703,
          35.9100205
        ]
      }
    },
    {
      "type": "Feature",
      "properties": {
        "title": "W Poplar Av at Carolina Springs",
        "tag": "poplcaro",
        "stopId": "3651"
      },
      "geometry": {
        "type": "Point",
        "coordinates": [
          -79.09293,
          35.91246
        ]
      }
    },
    {
      "type": "Feature",
      "properties": {
        "title": "Old Fayetteville Rd at Poplar Place",
        "tag": "ofaypopl_w",
        "stopId": "3572"
      },
      "geometry": {
        "type": "Point",
        "coordinates": [
          -79.0910611,
          35.9029839
        ]
      }
    },
    {
      "type": "Feature",
      "properties": {
        "title": "Old Fayetteville Rd at NC 54 (SECU)",
        "tag": "oldfnc54",
        "stopId": "3132"
      },
      "geometry": {
        "type": "Point",
        "coordinates": [
          -79.0986696,
          35.9186195
        ]
      }
    },
    {
      "type": "Feature",
      "properties": {
        "title": "NC 54 East at Carrboro Plaza (ABC St)",
        "tag": "nc54carr",
        "stopId": "3131"
      },
      "geometry": {
        "type": "Point",
        "coordinates": [
          -79.0935998,
          35.9165796
        ]
      }
    },
    {
      "type": "Feature",
      "properties": {
        "title": "NC 54 East at Berkshire Manor West",
        "tag": "nc54berk",
        "stopId": "3130"
      },
      "geometry": {
        "type": "Point",
        "coordinates": [
          -79.0929787,
          35.914997
        ]
      }
    },
    {
      "type": "Feature",
      "properties": {
        "title": "S Columbia St at Mason Farm Rd",
        "tag": "scolmaso",
        "stopId": "3219"
      },
      "geometry": {
        "type": "Point",
        "coordinates": [
          -79.05656,
          35.9024099
        ]
      }
    },
    {
      "type": "Feature",
      "properties": {
        "title": "Jones Ferry Rd at Willow Creek Shopping Center",
        "tag": "jonewilshp",
        "stopId": "3141"
      },
      "geometry": {
        "type": "Point",
        "coordinates": [
          -79.0878049,
          35.9054173
        ]
      }
    },
    {
      "type": "Feature",
      "properties": {
        "title": "Jones Ferry Rd at Willow Creek Prof",
        "tag": "jonewill",
        "stopId": "3140"
      },
      "geometry": {
        "type": "Point",
        "coordinates": [
          -79.0890593,
          35.9049702
        ]
      }
    },
    {
      "type": "Feature",
      "properties": {
        "title": "Old Fayetteville Rd at Autumn Woods",
        "tag": "autoldf",
        "stopId": "3404"
      },
      "geometry": {
        "type": "Point",
        "coordinates": [
          -79.0916499,
          35.9055999
        ]
      }
    },
    {
      "type": "Feature",
      "properties": {
        "title": "Old Fayetteville Rd at Autumn Woods",
        "tag": "oldfaut",
        "stopId": "3137"
      },
      "geometry": {
        "type": "Point",
        "coordinates": [
          -79.09216,
          35.9072901
        ]
      }
    },
    {
      "type": "Feature",
      "properties": {
        "title": "Old Fayetteville Rd at  Ramsgate Apt",
        "tag": "oldframg",
        "stopId": "3595"
      },
      "geometry": {
        "type": "Point",
        "coordinates": [
          -79.0933801,
          35.9106604
        ]
      }
    },
    {
      "type": "Feature",
      "properties": {
        "title": "Old Fayetteville Rd at W Poplar Ave",
        "tag": "oldfwpop",
        "stopId": "3136"
      },
      "geometry": {
        "type": "Point",
        "coordinates": [
          -79.0941403,
          35.9124004
        ]
      }
    },
    {
      "type": "Feature",
      "properties": {
        "title": "Old Fayetteville at Berkshire Manor W",
        "tag": "oldfberk",
        "stopId": "3135"
      },
      "geometry": {
        "type": "Point",
        "coordinates": [
          -79.0957805,
          35.9144608
        ]
      }
    },
    {
      "type": "Feature",
      "properties": {
        "title": "Carrboro Plaza Park Ride Lot",
        "tag": "carrpark_d",
        "stopId": "3134"
      },
      "geometry": {
        "type": "Point",
        "coordinates": [
          -79.0968099,
          35.9159299
        ]
      }
    },
    {
      "type": "Feature",
      "properties": {
        "title": "Jones Ferry Rd at Sterling Brook Apt",
        "tag": "jonester",
        "stopId": "3142"
      },
      "geometry": {
        "type": "Point",
        "coordinates": [
          -79.0875218,
          35.9053093
        ]
      }
    },
    {
      "type": "Feature",
      "properties": {
        "title": "Jones Ferry Rd at Alabama Ave",
        "tag": "jonealab",
        "stopId": "3631"
      },
      "geometry": {
        "type": "Point",
        "coordinates": [
          -79.0844244,
          35.906392
        ]
      }
    },
    {
      "type": "Feature",
      "properties": {
        "title": "Davie Rd at Jones Ferry Rd (BP Station)",
        "tag": "davijone_o",
        "stopId": "3490"
      },
      "geometry": {
        "type": "Point",
        "coordinates": [
          -79.0834902,
          35.9071111
        ]
      }
    },
    {
      "type": "Feature",
      "properties": {
        "title": "Davie Rd at Bert St",
        "tag": "davibert_o",
        "stopId": "3494"
      },
      "geometry": {
        "type": "Point",
        "coordinates": [
          -79.08398,
          35.90952
        ]
      }
    },
    {
      "type": "Feature",
      "properties": {
        "title": "Davie Rd at Fidelity Ct",
        "tag": "davifide_o",
        "stopId": "3496"
      },
      "geometry": {
        "type": "Point",
        "coordinates": [
          -79.0843103,
          35.9112517
        ]
      }
    },
    {
      "type": "Feature",
      "properties": {
        "title": "Davie Rd at W Poplar Av",
        "tag": "davipopl_e",
        "stopId": "3500"
      },
      "geometry": {
        "type": "Point",
        "coordinates": [
          -79.0845693,
          35.9126869
        ]
      }
    },
    {
      "type": "Feature",
      "properties": {
        "title": "W Poplar Av at Raven Ln",
        "tag": "poplrave_o",
        "stopId": "3601"
      },
      "geometry": {
        "type": "Point",
        "coordinates": [
          -79.0863473,
          35.91281
        ]
      }
    },
    {
      "type": "Feature",
      "properties": {
        "title": "W Poplar Av at Lilac Dr",
        "tag": "popllila_o",
        "stopId": "3511"
      },
      "geometry": {
        "type": "Point",
        "coordinates": [
          -79.0887311,
          35.9129801
        ]
      }
    },
    {
      "type": "Feature",
      "properties": {
        "title": "W Poplar Av at NC 54",
        "tag": "poplnc54_o",
        "stopId": "3486"
      },
      "geometry": {
        "type": "Point",
        "coordinates": [
          -79.0914482,
          35.912899
        ]
      }
    },
    {
      "type": "Feature",
      "properties": {
        "title": "NC 54 West at W Poplar Av",
        "tag": "nc54popl",
        "stopId": "3485"
      },
      "geometry": {
        "type": "Point",
        "coordinates": [
          -79.0918485,
          35.9131567
        ]
      }
    },
    {
      "type": "Feature",
      "properties": {
        "title": "NC 54 East at Berkshire Manor West",
        "tag": "nc54berk_o",
        "stopId": "3129"
      },
      "geometry": {
        "type": "Point",
        "coordinates": [
          -79.0928707,
          35.9155616
        ]
      }
    },
    {
      "type": "Feature",
      "properties": {
        "title": "W Main St at James St",
        "tag": "mainjame",
        "stopId": "3519"
      },
      "geometry": {
        "type": "Point",
        "coordinates": [
          -79.09324,
          35.91761
        ]
      }
    },
    {
      "type": "Feature",
      "properties": {
        "title": "W Main St at Simpson St",
        "tag": "mainsimp_o",
        "stopId": "3604"
      },
      "geometry": {
        "type": "Point",
        "coordinates": [
          -79.0915114,
          35.9171204
        ]
      }
    },
    {
      "type": "Feature",
      "properties": {
        "title": "W Main St at Westview Dr",
        "tag": "mainwest_o",
        "stopId": "3575"
      },
      "geometry": {
        "type": "Point",
        "coordinates": [
          -79.0889181,
          35.9163794
        ]
      }
    },
    {
      "type": "Feature",
      "properties": {
        "title": "High St at Goldston Av",
        "tag": "highgold_o",
        "stopId": "3576"
      },
      "geometry": {
        "type": "Point",
        "coordinates": [
          -79.0859706,
          35.9161695
        ]
      }
    },
    {
      "type": "Feature",
      "properties": {
        "title": "High St at Hillsborough Rd",
        "tag": "hihillp",
        "stopId": "3577"
      },
      "geometry": {
        "type": "Point",
        "coordinates": [
          -79.0837006,
          35.9175495
        ]
      }
    },
    {
      "type": "Feature",
      "properties": {
        "title": "Hillsborough Rd at Pine St",
        "tag": "hillpine_o",
        "stopId": "3578"
      },
      "geometry": {
        "type": "Point",
        "coordinates": [
          -79.0817095,
          35.9159795
        ]
      }
    },
    {
      "type": "Feature",
      "properties": {
        "title": "Hillsborough Rd at W Main St",
        "tag": "hillmain_o",
        "stopId": "3579"
      },
      "geometry": {
        "type": "Point",
        "coordinates": [
          -79.0798867,
          35.9139865
        ]
      }
    },
    {
      "type": "Feature",
      "properties": {
        "title": "W Main St at Carrboro Town Hall",
        "tag": "maincarr_o",
        "stopId": "3580"
      },
      "geometry": {
        "type": "Point",
        "coordinates": [
          -79.0775806,
          35.9120204
        ]
      }
    },
    {
      "type": "Feature",
      "properties": {
        "title": "Weaver St at Lindsay St",
        "tag": "weavlind_o",
        "stopId": "3581"
      },
      "geometry": {
        "type": "Point",
        "coordinates": [
          -79.0757952,
          35.9111099
        ]
      }
    },
    {
      "type": "Feature",
      "properties": {
        "title": "Weaver St at Carrboro Century Center",
        "tag": "weavcarr",
        "stopId": "3508"
      },
      "geometry": {
        "type": "Point",
        "coordinates": [
          -79.07183,
          35.91085
        ]
      }
    },
    {
      "type": "Feature",
      "properties": {
        "title": "E Main St at Arts Center Plaza",
        "tag": "maincent",
        "stopId": "3510"
      },
      "geometry": {
        "type": "Point",
        "coordinates": [
          -79.068133,
          35.9107396
        ]
      }
    },
    {
      "type": "Feature",
      "properties": {
        "title": "W Franklin St at Chapel Hill News",
        "tag": "wfrachap",
        "stopId": "3481"
      },
      "geometry": {
        "type": "Point",
        "coordinates": [
          -79.0638037,
          35.9100085
        ]
      }
    },
    {
      "type": "Feature",
      "properties": {
        "title": "W Franklin St at Municipal Parking Lot",
        "tag": "wframuni",
        "stopId": "3482"
      },
      "geometry": {
        "type": "Point",
        "coordinates": [
          -79.0617527,
          35.9107789
        ]
      }
    },
    {
      "type": "Feature",
      "properties": {
        "title": "W Franklin St at Kenan St",
        "tag": "wfrakena",
        "stopId": "3471"
      },
      "geometry": {
        "type": "Point",
        "coordinates": [
          -79.0601415,
          35.9113794
        ]
      }
    },
    {
      "type": "Feature",
      "properties": {
        "title": "W Franklin St at University Square",
        "tag": "wfrauniv_s",
        "stopId": "3470"
      },
      "geometry": {
        "type": "Point",
        "coordinates": [
          -79.0585214,
          35.9120294
        ]
      }
    },
    {
      "type": "Feature",
      "properties": {
        "title": "W Franklin St at University Baptist",
        "tag": "wfraunib",
        "stopId": "3423"
      },
      "geometry": {
        "type": "Point",
        "coordinates": [
          -79.056702,
          35.9126889
        ]
      }
    },
    {
      "type": "Feature",
      "properties": {
        "title": "Pittsboro St at Credit Union",
        "tag": "pittcred_d",
        "stopId": "3226"
      },
      "geometry": {
        "type": "Point",
        "coordinates": [
          -79.0548699,
          35.90689
        ]
      }
    },
    {
      "type": "Feature",
      "properties": {
        "title": "W Franklin St at Caribou Coffee",
        "tag": "wfracarb",
        "stopId": "3422"
      },
      "geometry": {
        "type": "Point",
        "coordinates": [
          -79.0564599,
          35.91297
        ]
      }
    },
    {
      "type": "Feature",
      "properties": {
        "title": "W Franklin St at Church St",
        "tag": "wfrachur",
        "stopId": "3424"
      },
      "geometry": {
        "type": "Point",
        "coordinates": [
          -79.0584501,
          35.9121999
        ]
      }
    },
    {
      "type": "Feature",
      "properties": {
        "title": "W Franklin St at Kenan St (Westbound)",
        "tag": "wfrahams",
        "stopId": "3484"
      },
      "geometry": {
        "type": "Point",
        "coordinates": [
          -79.0605903,
          35.9113698
        ]
      }
    },
    {
      "type": "Feature",
      "properties": {
        "title": "W Franklin St at UNC Business Office",
        "tag": "wfrauncb",
        "stopId": "3483"
      },
      "geometry": {
        "type": "Point",
        "coordinates": [
          -79.062155,
          35.9107818
        ]
      }
    },
    {
      "type": "Feature",
      "properties": {
        "title": "W Franklin St at N Graham St",
        "tag": "wfrangra",
        "stopId": "3045"
      },
      "geometry": {
        "type": "Point",
        "coordinates": [
          -79.0641786,
          35.9100005
        ]
      }
    },
    {
      "type": "Feature",
      "properties": {
        "title": "E Main St at Lloyd St",
        "tag": "mainlloy",
        "stopId": "3509"
      },
      "geometry": {
        "type": "Point",
        "coordinates": [
          -79.0694021,
          35.9107198
        ]
      }
    },
    {
      "type": "Feature",
      "properties": {
        "title": "Weaver St at Weaver St Market",
        "tag": "weavweav",
        "stopId": "3507"
      },
      "geometry": {
        "type": "Point",
        "coordinates": [
          -79.07164,
          35.91098
        ]
      }
    },
    {
      "type": "Feature",
      "properties": {
        "title": "Weaver St at Lindsay St",
        "tag": "weavlind",
        "stopId": "3503"
      },
      "geometry": {
        "type": "Point",
        "coordinates": [
          -79.0755319,
          35.91122
        ]
      }
    },
    {
      "type": "Feature",
      "properties": {
        "title": "W Main St at Carrboro Town Hall",
        "tag": "maincarr",
        "stopId": "3502"
      },
      "geometry": {
        "type": "Point",
        "coordinates": [
          -79.0773696,
          35.9120396
        ]
      }
    },
    {
      "type": "Feature",
      "properties": {
        "title": "Hillsborough Rd at W Main St",
        "tag": "hillmain",
        "stopId": "3513"
      },
      "geometry": {
        "type": "Point",
        "coordinates": [
          -79.0798508,
          35.9141908
        ]
      }
    },
    {
      "type": "Feature",
      "properties": {
        "title": "Hillsborough Rd at Pine St",
        "tag": "hillpine",
        "stopId": "3514"
      },
      "geometry": {
        "type": "Point",
        "coordinates": [
          -79.0816101,
          35.9161301
        ]
      }
    },
    {
      "type": "Feature",
      "properties": {
        "title": "High St at Hillsborough Rd",
        "tag": "hihillj",
        "stopId": "3515"
      },
      "geometry": {
        "type": "Point",
        "coordinates": [
          -79.0838182,
          35.9176209
        ]
      }
    },
    {
      "type": "Feature",
      "properties": {
        "title": "High St at Goldston Av",
        "tag": "highgold",
        "stopId": "3516"
      },
      "geometry": {
        "type": "Point",
        "coordinates": [
          -79.0861307,
          35.9162294
        ]
      }
    },
    {
      "type": "Feature",
      "properties": {
        "title": "W Main St at Westview Dr",
        "tag": "mainwest",
        "stopId": "3517"
      },
      "geometry": {
        "type": "Point",
        "coordinates": [
          -79.0888157,
          35.9165287
        ]
      }
    },
    {
      "type": "Feature",
      "properties": {
        "title": "W Main St at Simpson St",
        "tag": "mainsimp",
        "stopId": "3518"
      },
      "geometry": {
        "type": "Point",
        "coordinates": [
          -79.0913532,
          35.9172409
        ]
      }
    },
    {
      "type": "Feature",
      "properties": {
        "title": "W Main St at Carrboro Post Office",
        "tag": "maincarr2",
        "stopId": "3520"
      },
      "geometry": {
        "type": "Point",
        "coordinates": [
          -79.09338,
          35.9178
        ]
      }
    },
    {
      "type": "Feature",
      "properties": {
        "title": "W Poplar Av at NC 54",
        "tag": "poplnc54",
        "stopId": "3487"
      },
      "geometry": {
        "type": "Point",
        "coordinates": [
          -79.0912867,
          35.9128011
        ]
      }
    },
    {
      "type": "Feature",
      "properties": {
        "title": "W Poplar Av at Lilac Dr",
        "tag": "popllila",
        "stopId": "3512"
      },
      "geometry": {
        "type": "Point",
        "coordinates": [
          -79.0887575,
          35.9128695
        ]
      }
    },
    {
      "type": "Feature",
      "properties": {
        "title": "W Poplar Av at Raven Ln",
        "tag": "poplrave",
        "stopId": "3602"
      },
      "geometry": {
        "type": "Point",
        "coordinates": [
          -79.0863162,
          35.91268
        ]
      }
    },
    {
      "type": "Feature",
      "properties": {
        "title": "Davie Rd at W Poplar Av",
        "tag": "davipopl_w",
        "stopId": "3501"
      },
      "geometry": {
        "type": "Point",
        "coordinates": [
          -79.0846908,
          35.9126231
        ]
      }
    },
    {
      "type": "Feature",
      "properties": {
        "title": "Davie Rd at Fidelity Ct",
        "tag": "davifide",
        "stopId": "3497"
      },
      "geometry": {
        "type": "Point",
        "coordinates": [
          -79.0844905,
          35.9114131
        ]
      }
    },
    {
      "type": "Feature",
      "properties": {
        "title": "Davie Rd at Bert St",
        "tag": "davibert",
        "stopId": "3495"
      },
      "geometry": {
        "type": "Point",
        "coordinates": [
          -79.084129,
          35.9095355
        ]
      }
    },
    {
      "type": "Feature",
      "properties": {
        "title": "Davie Rd at Jones Ferry Rd (BP Station)",
        "tag": "davijone",
        "stopId": "3491"
      },
      "geometry": {
        "type": "Point",
        "coordinates": [
          -79.0836094,
          35.907065
        ]
      }
    },
    {
      "type": "Feature",
      "properties": {
        "title": "Smith Level Rd at BPW Club Rd",
        "tag": "smitbpwc_d",
        "stopId": "3661"
      },
      "geometry": {
        "type": "Point",
        "coordinates": [
          -79.0761172,
          35.8957668
        ]
      }
    },
    {
      "type": "Feature",
      "properties": {
        "title": "Smith Level Rd at Willow Oak",
        "tag": "smitwill",
        "stopId": "3044"
      },
      "geometry": {
        "type": "Point",
        "coordinates": [
          -79.0751358,
          35.8981863
        ]
      }
    },
    {
      "type": "Feature",
      "properties": {
        "title": "Smith Level Rd at FPG School",
        "tag": "smitfpgs",
        "stopId": "3133"
      },
      "geometry": {
        "type": "Point",
        "coordinates": [
          -79.0736448,
          35.9004171
        ]
      }
    },
    {
      "type": "Feature",
      "properties": {
        "title": "NC 54 East at Kingswood",
        "tag": "nc54king",
        "stopId": "3191"
      },
      "geometry": {
        "type": "Point",
        "coordinates": [
          -79.0673216,
          35.8989207
        ]
      }
    },
    {
      "type": "Feature",
      "properties": {
        "title": "S Columbia St at Purefoy Rd",
        "tag": "scolpure_n",
        "stopId": "3187"
      },
      "geometry": {
        "type": "Point",
        "coordinates": [
          -79.0582973,
          35.8955454
        ]
      }
    },
    {
      "type": "Feature",
      "properties": {
        "title": "S Columbia St at Coolidge St",
        "tag": "scolcool",
        "stopId": "3183"
      },
      "geometry": {
        "type": "Point",
        "coordinates": [
          -79.0576615,
          35.8975877
        ]
      }
    },
    {
      "type": "Feature",
      "properties": {
        "title": "S Columbia St at Chase Ave",
        "tag": "scolchas",
        "stopId": "3611"
      },
      "geometry": {
        "type": "Point",
        "coordinates": [
          -79.0575999,
          35.8992376
        ]
      }
    },
    {
      "type": "Feature",
      "properties": {
        "title": "E Franklin St at Elliott Rd",
        "tag": "efraelli",
        "stopId": "3365"
      },
      "geometry": {
        "type": "Point",
        "coordinates": [
          -79.02959,
          35.9347299
        ]
      }
    },
    {
      "type": "Feature",
      "properties": {
        "title": "Elliott Rd at First Citizens Bank",
        "tag": "ellifirs",
        "stopId": "3272"
      },
      "geometry": {
        "type": "Point",
        "coordinates": [
          -79.0287896,
          35.9343296
        ]
      }
    },
    {
      "type": "Feature",
      "properties": {
        "title": "Elliott Rd at Plaza Theatres",
        "tag": "elliplaz",
        "stopId": "3271"
      },
      "geometry": {
        "type": "Point",
        "coordinates": [
          -79.0281597,
          35.9330887
        ]
      }
    },
    {
      "type": "Feature",
      "properties": {
        "title": "Elliott Rd at Burger King",
        "tag": "elliburg",
        "stopId": "3070"
      },
      "geometry": {
        "type": "Point",
        "coordinates": [
          -79.0254194,
          35.9323704
        ]
      }
    },
    {
      "type": "Feature",
      "properties": {
        "title": "US 15-501 Service Rd at Rams Plaza",
        "tag": "us15rams",
        "stopId": "3274"
      },
      "geometry": {
        "type": "Point",
        "coordinates": [
          -79.0227113,
          35.9382158
        ]
      }
    },
    {
      "type": "Feature",
      "properties": {
        "title": "US 15-501 Service Rd at Hampton Inn",
        "tag": "us15hamp",
        "stopId": "3122"
      },
      "geometry": {
        "type": "Point",
        "coordinates": [
          -79.02095,
          35.9397599
        ]
      }
    },
    {
      "type": "Feature",
      "properties": {
        "title": "US 15-501 Service Rd at Europa Dr",
        "tag": "us15euro",
        "stopId": "3109"
      },
      "geometry": {
        "type": "Point",
        "coordinates": [
          -79.0185771,
          35.9412502
        ]
      }
    },
    {
      "type": "Feature",
      "properties": {
        "title": "Legion Rd at Scarlet Dr",
        "tag": "legiscar",
        "stopId": "3123"
      },
      "geometry": {
        "type": "Point",
        "coordinates": [
          -79.0116726,
          35.9426785
        ]
      }
    },
    {
      "type": "Feature",
      "properties": {
        "title": "Legion Rd Ext at Cooper St",
        "tag": "legicoop",
        "stopId": "3644"
      },
      "geometry": {
        "type": "Point",
        "coordinates": [
          -79.0087152,
          35.94274
        ]
      }
    },
    {
      "type": "Feature",
      "properties": {
        "title": "Old Durham Rd at Bluefield St",
        "tag": "olddblue",
        "stopId": "3556"
      },
      "geometry": {
        "type": "Point",
        "coordinates": [
          -79.0034438,
          35.9443511
        ]
      }
    },
    {
      "type": "Feature",
      "properties": {
        "title": "E Lakeview Dr at Old Durham Rd",
        "tag": "elakoldd",
        "stopId": "3557"
      },
      "geometry": {
        "type": "Point",
        "coordinates": [
          -79.0019519,
          35.9454306
        ]
      }
    },
    {
      "type": "Feature",
      "properties": {
        "title": "E Lakeview Dr at W Lakeview",
        "tag": "elakwlak",
        "stopId": "3558"
      },
      "geometry": {
        "type": "Point",
        "coordinates": [
          -79.0021228,
          35.9484872
        ]
      }
    },
    {
      "type": "Feature",
      "properties": {
        "title": "Eastowne Rd at Pinegate",
        "tag": "eastpine",
        "stopId": "3296"
      },
      "geometry": {
        "type": "Point",
        "coordinates": [
          -79.0078707,
          35.9485545
        ]
      }
    },
    {
      "type": "Feature",
      "properties": {
        "title": "Old Sterling Rd at Eastowne Rd",
        "tag": "oldseast",
        "stopId": "3292"
      },
      "geometry": {
        "type": "Point",
        "coordinates": [
          -79.00822,
          35.95044
        ]
      }
    },
    {
      "type": "Feature",
      "properties": {
        "title": "Old Sterling Rd at Notting Hill Apts",
        "tag": "oldsnott",
        "stopId": "3287"
      },
      "geometry": {
        "type": "Point",
        "coordinates": [
          -79.0115261,
          35.9512581
        ]
      }
    },
    {
      "type": "Feature",
      "properties": {
        "title": "Old Sterling Rd at Bible Church",
        "tag": "oldsbibl",
        "stopId": "3559"
      },
      "geometry": {
        "type": "Point",
        "coordinates": [
          -79.0146603,
          35.950367
        ]
      }
    },
    {
      "type": "Feature",
      "properties": {
        "title": "Dobbins Dr at Cosgrove Hills",
        "tag": "dobbdobb",
        "stopId": "3113"
      },
      "geometry": {
        "type": "Point",
        "coordinates": [
          -79.0141093,
          35.9443143
        ]
      }
    },
    {
      "type": "Feature",
      "properties": {
        "title": "Mason Farm Rd at Ambulatory Care Center",
        "tag": "masoambu_s",
        "stopId": "3220"
      },
      "geometry": {
        "type": "Point",
        "coordinates": [
          -79.0560489,
          35.9022004
        ]
      }
    },
    {
      "type": "Feature",
      "properties": {
        "title": "S Columbia St at Purefoy Rd",
        "tag": "scolpure_s",
        "stopId": "3188"
      },
      "geometry": {
        "type": "Point",
        "coordinates": [
          -79.0585373,
          35.8953357
        ]
      }
    },
    {
      "type": "Feature",
      "properties": {
        "title": "US 15-501 South at Culbreth Rd",
        "tag": "us15culb",
        "stopId": "3189"
      },
      "geometry": {
        "type": "Point",
        "coordinates": [
          -79.059108,
          35.892011
        ]
      }
    },
    {
      "type": "Feature",
      "properties": {
        "title": "Culbreth Rd at Channing Ln",
        "tag": "culbchan",
        "stopId": "3192"
      },
      "geometry": {
        "type": "Point",
        "coordinates": [
          -79.0624531,
          35.892499
        ]
      }
    },
    {
      "type": "Feature",
      "properties": {
        "title": "Culbreth Rd at Culbreth Park Dr",
        "tag": "culbculb",
        "stopId": "3193"
      },
      "geometry": {
        "type": "Point",
        "coordinates": [
          -79.0643359,
          35.8918488
        ]
      }
    },
    {
      "type": "Feature",
      "properties": {
        "title": "Culbreth Rd at Southbridge Dr",
        "tag": "culbsout",
        "stopId": "3194"
      },
      "geometry": {
        "type": "Point",
        "coordinates": [
          -79.0659905,
          35.89192
        ]
      }
    },
    {
      "type": "Feature",
      "properties": {
        "title": "Culbreth Rd at Adams Way",
        "tag": "culbadam",
        "stopId": "3195"
      },
      "geometry": {
        "type": "Point",
        "coordinates": [
          -79.0678483,
          35.892238
        ]
      }
    },
    {
      "type": "Feature",
      "properties": {
        "title": "Culbreth Rd at Weyer",
        "tag": "culbweye",
        "stopId": "3196"
      },
      "geometry": {
        "type": "Point",
        "coordinates": [
          -79.0705608,
          35.8927001
        ]
      }
    },
    {
      "type": "Feature",
      "properties": {
        "title": "Culbreth Rd at Covenant Pl",
        "tag": "culbcove",
        "stopId": "3197"
      },
      "geometry": {
        "type": "Point",
        "coordinates": [
          -79.07562,
          35.89374
        ]
      }
    },
    {
      "type": "Feature",
      "properties": {
        "title": "Smith Level Rd at BPW Club Rd",
        "tag": "smitbpwc_a",
        "stopId": "3661"
      },
      "geometry": {
        "type": "Point",
        "coordinates": [
          -79.0762714,
          35.8953588
        ]
      }
    },
    {
      "type": "Feature",
      "properties": {
        "title": "Rosemary St at Greenbridge",
        "tag": "rosegren_d",
        "stopId": "3702"
      },
      "geometry": {
        "type": "Point",
        "coordinates": [
          -79.0651,
          35.91101
        ]
      }
    },
    {
      "type": "Feature",
      "properties": {
        "title": "W Franklin St at University Baptist",
        "tag": "wfrauniv_b",
        "stopId": "3423"
      },
      "geometry": {
        "type": "Point",
        "coordinates": [
          -79.0567159,
          35.9126842
        ]
      }
    },
    {
      "type": "Feature",
      "properties": {
        "title": "Estes Dr at Community Center Dr",
        "tag": "estecomm_n",
        "stopId": "3372"
      },
      "geometry": {
        "type": "Point",
        "coordinates": [
          -79.032418,
          35.9278849
        ]
      }
    },
    {
      "type": "Feature",
      "properties": {
        "title": "Estes Dr at Camelot Apts",
        "tag": "estecame_n",
        "stopId": "3375"
      },
      "geometry": {
        "type": "Point",
        "coordinates": [
          -79.0297479,
          35.9272937
        ]
      }
    },
    {
      "type": "Feature",
      "properties": {
        "title": "University Place",
        "tag": "univmall_n",
        "stopId": "3377"
      },
      "geometry": {
        "type": "Point",
        "coordinates": [
          -79.0282632,
          35.927776
        ]
      }
    },
    {
      "type": "Feature",
      "properties": {
        "title": "Willow Dr at Connor Dr",
        "tag": "willconn_w",
        "stopId": "3378"
      },
      "geometry": {
        "type": "Point",
        "coordinates": [
          -79.0289044,
          35.9292434
        ]
      }
    },
    {
      "type": "Feature",
      "properties": {
        "title": "Willow Dr at Willow Terrace Condos",
        "tag": "willwill_w",
        "stopId": "3380"
      },
      "geometry": {
        "type": "Point",
        "coordinates": [
          -79.0260557,
          35.9302202
        ]
      }
    },
    {
      "type": "Feature",
      "properties": {
        "title": "Old Sterling Rd at Notting Hill Apts",
        "tag": "oldsnott_d",
        "stopId": "3287"
      },
      "geometry": {
        "type": "Point",
        "coordinates": [
          -79.01154,
          35.95126
        ]
      }
    },
    {
      "type": "Feature",
      "properties": {
        "title": "Dobbins Dr at Erwin",
        "tag": "dobberwn_s",
        "stopId": "3699"
      },
      "geometry": {
        "type": "Point",
        "coordinates": [
          -79.0189645,
          35.942302
        ]
      }
    },
    {
      "type": "Feature",
      "properties": {
        "title": "Estes Dr at Community Center Dr",
        "tag": "estecomm_s",
        "stopId": "3372"
      },
      "geometry": {
        "type": "Point",
        "coordinates": [
          -79.0324122,
          35.9278813
        ]
      }
    },
    {
      "type": "Feature",
      "properties": {
        "title": "Estes Dr at Camelot Apts",
        "tag": "estecame_s",
        "stopId": "3375"
      },
      "geometry": {
        "type": "Point",
        "coordinates": [
          -79.0297415,
          35.9272907
        ]
      }
    },
    {
      "type": "Feature",
      "properties": {
        "title": "University Place",
        "tag": "univmall_s",
        "stopId": "3377"
      },
      "geometry": {
        "type": "Point",
        "coordinates": [
          -79.0282632,
          35.927776
        ]
      }
    },
    {
      "type": "Feature",
      "properties": {
        "title": "Willow Dr at Estes Dr",
        "tag": "willeste_s",
        "stopId": "3597"
      },
      "geometry": {
        "type": "Point",
        "coordinates": [
          -79.0303009,
          35.9278589
        ]
      }
    },
    {
      "type": "Feature",
      "properties": {
        "title": "Estes Dr at Post Office",
        "tag": "estepost_s",
        "stopId": "3371"
      },
      "geometry": {
        "type": "Point",
        "coordinates": [
          -79.032391,
          35.9280807
        ]
      }
    },
    {
      "type": "Feature",
      "properties": {
        "title": "W Franklin St at Caribou Coffee",
        "tag": "wfracari",
        "stopId": "3422"
      },
      "geometry": {
        "type": "Point",
        "coordinates": [
          -79.0564601,
          35.9129699
        ]
      }
    },
    {
      "type": "Feature",
      "properties": {
        "title": "Colony Woods Dr at Overland Dr",
        "tag": "coloover",
        "stopId": "3017"
      },
      "geometry": {
        "type": "Point",
        "coordinates": [
          -79.0019302,
          35.9340612
        ]
      }
    },
    {
      "type": "Feature",
      "properties": {
        "title": "Fountain Ridge Dr at Colony Woods Dr",
        "tag": "colofoun_d",
        "stopId": "3015"
      },
      "geometry": {
        "type": "Point",
        "coordinates": [
          -79.00223,
          35.93645
        ]
      }
    },
    {
      "type": "Feature",
      "properties": {
        "title": "Fountain Ridge Rd at Highview Dr",
        "tag": "founhigh",
        "stopId": "3002"
      },
      "geometry": {
        "type": "Point",
        "coordinates": [
          -79.0040976,
          35.9365298
        ]
      }
    },
    {
      "type": "Feature",
      "properties": {
        "title": "Fountain Ridge Rd at Overland Dr",
        "tag": "founover",
        "stopId": "3000"
      },
      "geometry": {
        "type": "Point",
        "coordinates": [
          -79.0082008,
          35.93671
        ]
      }
    },
    {
      "type": "Feature",
      "properties": {
        "title": "Landerwood Ln at Fountain Ridge Rd",
        "tag": "landfoun",
        "stopId": "3461"
      },
      "geometry": {
        "type": "Point",
        "coordinates": [
          -79.00928,
          35.9363799
        ]
      }
    },
    {
      "type": "Feature",
      "properties": {
        "title": "Landerwood Ln at Ephesus Church Rd",
        "tag": "landephe",
        "stopId": "3474"
      },
      "geometry": {
        "type": "Point",
        "coordinates": [
          -79.008906,
          35.9331965
        ]
      }
    },
    {
      "type": "Feature",
      "properties": {
        "title": "Ephesus Church Rd at Tinkerbell Rd",
        "tag": "ephetink_s",
        "stopId": "3059"
      },
      "geometry": {
        "type": "Point",
        "coordinates": [
          -79.0122764,
          35.9326201
        ]
      }
    },
    {
      "type": "Feature",
      "properties": {
        "title": "Ephesus Church Rd at Ephesus School",
        "tag": "epheephe",
        "stopId": "3060"
      },
      "geometry": {
        "type": "Point",
        "coordinates": [
          -79.0162377,
          35.9324899
        ]
      }
    },
    {
      "type": "Feature",
      "properties": {
        "title": "Ephesus Church Rd at Kings Arms Apts",
        "tag": "epheking",
        "stopId": "3063"
      },
      "geometry": {
        "type": "Point",
        "coordinates": [
          -79.0192905,
          35.9331358
        ]
      }
    },
    {
      "type": "Feature",
      "properties": {
        "title": "Ephesus Church Rd at Hamlin Park Con",
        "tag": "ephehaml",
        "stopId": "3064"
      },
      "geometry": {
        "type": "Point",
        "coordinates": [
          -79.0208054,
          35.9341361
        ]
      }
    },
    {
      "type": "Feature",
      "properties": {
        "title": "Ephesus Church Rd at Legion Rd (Westbound)",
        "tag": "ephelegi",
        "stopId": "3067"
      },