{
  "type": "FeatureCollection",
  "features": [
    {
      "type": "Feature",
      "properties": {
        "title": "Hutchison Dr & Old Davis Road (EB)",
        "tag": "22000",
        "stopId": "000"
      },
      "geometry": {
        "type": "Point",
        "coordinates": [
          -121.74605,
          38.5400299
        ]
      }
    },
    {
      "type": "Feature",
      "properties": {
        "title": "Hutchison Drive & Old Davis Road (WB)",
        "tag": "22001",
        "stopId": "001"
      },
      "geometry": {
        "type": "Point",
        "coordinates": [
          -121.74614,
          38.5401599
        ]
      }
    },
    {
      "type": "Feature",
      "properties": {
        "title": "1st St & C St (EB)",
        "tag": "22002",
        "stopId": "002"
      },
      "geometry": {
        "type": "Point",
        "coordinates": [
          -121.74254,
          38.5415199
        ]
      }
    },
    {
      "type": "Feature",
      "properties": {
        "title": "1st St & D St (WB)",
        "tag": "22003",
        "stopId": "003"
      },
      "geometry": {
        "type": "Point",
        "coordinates": [
          -121.74205,
          38.5418199
        ]
      }
    },
    {
      "type": "Feature",
      "properties": {
        "title": "Richards Blvd & Olive Dr (SB)",
        "tag": "22004",
        "stopId": "004"
      },
      "geometry": {
        "type": "Point",
        "coordinates": [
          -121.73854,
          38.54064
        ]
      }
    },
    {
      "type": "Feature",
      "properties": {
        "title": "2nd St & B St (EB)",
        "tag": "22005",
        "stopId": "005"
      },
      "geometry": {
        "type": "Point",
        "coordinates": [
          -121.7439099,
          38.54266
        ]
      }
    },
    {
      "type": "Feature",
      "properties": {
        "title": "2nd St & E St (EB)",
        "tag": "22007",
        "stopId": "007"
      },
      "geometry": {
        "type": "Point",
        "coordinates": [
          -121.7411799,
          38.54314
        ]
      }
    },
    {
      "type": "Feature",
      "properties": {
        "title": "Russell & A St (EB)",
        "tag": "22008",
        "stopId": "008"
      },
      "geometry": {
        "type": "Point",
        "coordinates": [
          -121.7470999,
          38.54613
        ]
      }
    },
    {
      "type": "Feature",
      "properties": {
        "title": "2nd St & E St (WB)",
        "tag": "22009",
        "stopId": "009"
      },
      "geometry": {
        "type": "Point",
        "coordinates": [
          -121.74093,
          38.5433299
        ]
      }
    },
    {
      "type": "Feature",
      "properties": {
        "title": "Pole Line & S Diameter Dr (NB)",
        "tag": "22010",
        "stopId": "010"
      },
      "geometry": {
        "type": "Point",
        "coordinates": [
          -121.7267099,
          38.5502999
        ]
      }
    },
    {
      "type": "Feature",
      "properties": {
        "title": "H St & Amtrak Station (NB)",
        "tag": "22011",
        "stopId": "011"
      },
      "geometry": {
        "type": "Point",
        "coordinates": [
          -121.73802,
          38.5439899
        ]
      }
    },
    {
      "type": "Feature",
      "properties": {
        "title": "H St Alley & 2nd St (SB)",
        "tag": "22012",
        "stopId": "012"
      },
      "geometry": {
        "type": "Point",
        "coordinates": [
          -121.73824,
          38.5439399
        ]
      }
    },
    {
      "type": "Feature",
      "properties": {
        "title": "B St & 4th St (NB)",
        "tag": "22013",
        "stopId": "013"
      },
      "geometry": {
        "type": "Point",
        "coordinates": [
          -121.7448699,
          38.5448999
        ]
      }
    },
    {
      "type": "Feature",
      "properties": {
        "title": "B St & 4th St  (SB)",
        "tag": "22014",
        "stopId": "014"
      },
      "geometry": {
        "type": "Point",
        "coordinates": [
          -121.7451299,
          38.5450499
        ]
      }
    },
    {
      "type": "Feature",
      "properties": {
        "title": "3rd St & C St (WB)",
        "tag": "22015",
        "stopId": "015"
      },
      "geometry": {
        "type": "Point",
        "coordinates": [
          -121.74391,
          38.5442099
        ]
      }
    },
    {
      "type": "Feature",
      "properties": {
        "title": "3rd St & C St (EB)",
        "tag": "22016",
        "stopId": "016"
      },
      "geometry": {
        "type": "Point",
        "coordinates": [
          -121.74322,
          38.5441299
        ]
      }
    },
    {
      "type": "Feature",
      "properties": {
        "title": "3rd St & E St (WB)",
        "tag": "22017",
        "stopId": "017"
      },
      "geometry": {
        "type": "Point",
        "coordinates": [
          -121.74169,
          38.5445499
        ]
      }
    },
    {
      "type": "Feature",
      "properties": {
        "title": "3rd St & E St (EB)",
        "tag": "22018",
        "stopId": "018"
      },
      "geometry": {
        "type": "Point",
        "coordinates": [
          -121.74114,
          38.5445099
        ]
      }
    },
    {
      "type": "Feature",
      "properties": {
        "title": "F St & 4th St  (SB)",
        "tag": "22019",
        "stopId": "019"
      },
      "geometry": {
        "type": "Point",
        "coordinates": [
          -121.7406999,
          38.5456899
        ]
      }
    },
    {
      "type": "Feature",
      "properties": {
        "title": "F St & 4th St  (NB)",
        "tag": "22020",
        "stopId": "020"
      },
      "geometry": {
        "type": "Point",
        "coordinates": [
          -121.7406799,
          38.5462999
        ]
      }
    },
    {
      "type": "Feature",
      "properties": {
        "title": "Russell Blvd & A St (WB)",
        "tag": "22021",
        "stopId": "021"
      },
      "geometry": {
        "type": "Point",
        "coordinates": [
          -121.7468699,
          38.5463799
        ]
      }
    },
    {
      "type": "Feature",
      "properties": {
        "title": "B St & 5th St (NB)",
        "tag": "22022",
        "stopId": "022"
      },
      "geometry": {
        "type": "Point",
        "coordinates": [
          -121.74544,
          38.5469999
        ]
      }
    },
    {
      "type": "Feature",
      "properties": {
        "title": "B St & 7th St (SB)",
        "tag": "22023",
        "stopId": "023"
      },
      "geometry": {
        "type": "Point",
        "coordinates": [
          -121.74617,
          38.5489299
        ]
      }
    },
    {
      "type": "Feature",
      "properties": {
        "title": "B St & 7th St (NB)",
        "tag": "22024",
        "stopId": "024"
      },
      "geometry": {
        "type": "Point",
        "coordinates": [
          -121.74606,
          38.54965
        ]
      }
    },
    {
      "type": "Feature",
      "properties": {
        "title": "5th St & D St (EB)",
        "tag": "22025",
        "stopId": "025"
      },
      "geometry": {
        "type": "Point",
        "coordinates": [
          -121.74298,
          38.5468899
        ]
      }
    },
    {
      "type": "Feature",
      "properties": {
        "title": "5th St & D St (WB)",
        "tag": "22026",
        "stopId": "026"
      },
      "geometry": {
        "type": "Point",
        "coordinates": [
          -121.7435799,
          38.54695
        ]
      }
    },
    {
      "type": "Feature",
      "properties": {
        "title": "F St & 6th Street  (NB)",
        "tag": "22027",
        "stopId": "027"
      },
      "geometry": {
        "type": "Point",
        "coordinates": [
          -121.7414299,
          38.5487899
        ]
      }
    },
    {
      "type": "Feature",
      "properties": {
        "title": "5th St & G St (EB)",
        "tag": "22028",
        "stopId": "028"
      },
      "geometry": {
        "type": "Point",
        "coordinates": [
          -121.73961,
          38.5473999
        ]
      }
    },
    {
      "type": "Feature",
      "properties": {
        "title": "5th St & I St (WB)",
        "tag": "22029",
        "stopId": "029"
      },
      "geometry": {
        "type": "Point",
        "coordinates": [
          -121.73789,
          38.5479299
        ]
      }
    },
    {
      "type": "Feature",
      "properties": {
        "title": "3rd St & K St (WB)",
        "tag": "22030",
        "stopId": "030"
      },
      "geometry": {
        "type": "Point",
        "coordinates": [
          -121.73509,
          38.5457499
        ]
      }
    },
    {
      "type": "Feature",
      "properties": {
        "title": "3rd St & K St (EB)",
        "tag": "22031",
        "stopId": "031"
      },
      "geometry": {
        "type": "Point",
        "coordinates": [
          -121.7344999,
          38.54564
        ]
      }
    },
    {
      "type": "Feature",
      "properties": {
        "title": "L St & 425 (SB)",
        "tag": "22032",
        "stopId": "032"
      },
      "geometry": {
        "type": "Point",
        "coordinates": [
          -121.7343399,
          38.5477399
        ]
      }
    },
    {
      "type": "Feature",
      "properties": {
        "title": "L St & 4th St (NB)",
        "tag": "22033",
        "stopId": "033"
      },
      "geometry": {
        "type": "Point",
        "coordinates": [
          -121.73405,
          38.54742
        ]
      }
    },
    {
      "type": "Feature",
      "properties": {
        "title": "Cowell Blvd & Research Park S Dr (WB)",
        "tag": "22034",
        "stopId": "034"
      },
      "geometry": {
        "type": "Point",
        "coordinates": [
          -121.73021,
          38.5401199
        ]
      }
    },
    {
      "type": "Feature",
      "properties": {
        "title": "Cowell Blvd & Research Park S Dr (EB)",
        "tag": "22035",
        "stopId": "035"
      },
      "geometry": {
        "type": "Point",
        "coordinates": [
          -121.73081,
          38.5398399
        ]
      }
    },
    {
      "type": "Feature",
      "properties": {
        "title": "Cowell Blvd & Drew Ave (WB)",
        "tag": "22036",
        "stopId": "036"
      },
      "geometry": {
        "type": "Point",
        "coordinates": [
          -121.7275399,
          38.5400399
        ]
      }
    },
    {
      "type": "Feature",
      "properties": {
        "title": "Cowell Blvd & Drew Ave (EB)",
        "tag": "22037",
        "stopId": "037"
      },
      "geometry": {
        "type": "Point",
        "coordinates": [
          -121.7268499,
          38.53974
        ]
      }
    },
    {
      "type": "Feature",
      "properties": {
        "title": "Cowell Blvd & Valdora St (WB)",
        "tag": "22038",
        "stopId": "038"
      },
      "geometry": {
        "type": "Point",
        "coordinates": [
          -121.72509,
          38.5401199
        ]
      }
    },
    {
      "type": "Feature",
      "properties": {
        "title": "Pole Line Rd & Cowell Blvd (SB)",
        "tag": "22039",
        "stopId": "039"
      },
      "geometry": {
        "type": "Point",
        "coordinates": [
          -121.7251899,
          38.5425899
        ]
      }
    },
    {
      "type": "Feature",
      "properties": {
        "title": "Pole Line Rd & Cowell Blvd (NB)",
        "tag": "22040",
        "stopId": "040"
      },
      "geometry": {
        "type": "Point",
        "coordinates": [
          -121.7243699,
          38.5422099
        ]
      }
    },
    {
      "type": "Feature",
      "properties": {
        "title": "Cowell Blvd & Valdora St (EB)",
        "tag": "22041",
        "stopId": "041"
      },
      "geometry": {
        "type": "Point",
        "coordinates": [
          -121.72398,
          38.5402299
        ]
      }
    },
    {
      "type": "Feature",
      "properties": {
        "title": "Lillard Dr & Farragut Cir (WB)",
        "tag": "22042",
        "stopId": "042"
      },
      "geometry": {
        "type": "Point",
        "coordinates": [
          -121.7207199,
          38.54136
        ]
      }
    },
    {
      "type": "Feature",
      "properties": {
        "title": "Lillard Dr & Evans Ct (WB)",
        "tag": "22043",
        "stopId": "043"
      },
      "geometry": {
        "type": "Point",
        "coordinates": [
          -121.7175799,
          38.5417799
        ]
      }
    },
    {
      "type": "Feature",
      "properties": {
        "title": "Cowell Blvd & Halsey Cir (WB)",
        "tag": "22045",
        "stopId": "045"
      },
      "geometry": {
        "type": "Point",
        "coordinates": [
          -121.72253,
          38.5432399
        ]
      }
    },
    {
      "type": "Feature",
      "properties": {
        "title": "Drummond Ave & Lillard Dr (SB)",
        "tag": "22046",
        "stopId": "046"
      },
      "geometry": {
        "type": "Point",
        "coordinates": [
          -121.71357,
          38.5437099
        ]
      }
    },
    {
      "type": "Feature",
      "properties": {
        "title": "Drummond Ave & Cowell (SB)",
        "tag": "22047",
        "stopId": "047"
      },
      "geometry": {
        "type": "Point",
        "coordinates": [
          -121.7133699,
          38.54713
        ]
      }
    },
    {
      "type": "Feature",
      "properties": {
        "title": "Cowell Blvd & Drummond Ave (EB)",
        "tag": "22048",
        "stopId": "048"
      },
      "geometry": {
        "type": "Point",
        "coordinates": [
          -121.7126299,
          38.54735
        ]
      }
    },
    {
      "type": "Feature",
      "properties": {
        "title": "Cowell Blvd & Ohlone St (EB)",
        "tag": "22051",
        "stopId": "051"
      },
      "geometry": {
        "type": "Point",
        "coordinates": [
          -121.7060899,
          38.5474
        ]
      }
    },
    {
      "type": "Feature",
      "properties": {
        "title": "Cowell Blvd & Ohlone St (WB)",
        "tag": "22052",
        "stopId": "052"
      },
      "geometry": {
        "type": "Point",
        "coordinates": [
          -121.7065599,
          38.5476899
        ]
      }
    },
    {
      "type": "Feature",
      "properties": {
        "title": "Cowell Blvd & La Vida Way (WB)",
        "tag": "22053",
        "stopId": "053"
      },
      "geometry": {
        "type": "Point",
        "coordinates": [
          -121.7030499,
          38.5482299
        ]
      }
    },
    {
      "type": "Feature",
      "properties": {
        "title": "Cowell Blvd & La Vida (EB)",
        "tag": "22054",
        "stopId": "054"
      },
      "geometry": {
        "type": "Point",
        "coordinates": [
          -121.70273,
          38.54807
        ]
      }
    },
    {
      "type": "Feature",
      "properties": {
        "title": "Cowell Blvd & Ensenada Dr (WB)",
        "tag": "22055",
        "stopId": "055"
      },
      "geometry": {
        "type": "Point",
        "coordinates": [
          -121.69994,
          38.5480299
        ]
      }
    },
    {
      "type": "Feature",
      "properties": {
        "title": "Cowell Blvd & Ensenada Dr (EB)",
        "tag": "22056",
        "stopId": "056"
      },
      "geometry": {
        "type": "Point",
        "coordinates": [
          -121.69978,
          38.54776
        ]
      }
    },
    {
      "type": "Feature",
      "properties": {
        "title": "Cowell Blvd & Sunrise Ct (EB)",
        "tag": "22057",
        "stopId": "057"
      },
      "geometry": {
        "type": "Point",
        "coordinates": [
          -121.6967199,
          38.54792
        ]
      }
    },
    {
      "type": "Feature",
      "properties": {
        "title": "Cowell Blvd & Sunrise (WB)",
        "tag": "22058",
        "stopId": "058"
      },
      "geometry": {
        "type": "Point",
        "coordinates": [
          -121.69624,
          38.5484199
        ]
      }
    },
    {
      "type": "Feature",
      "properties": {
        "title": "Mace Blvd & Chiles Rd (SB)",
        "tag": "22059",
        "stopId": "059"
      },
      "geometry": {
        "type": "Point",
        "coordinates": [
          -121.69457,
          38.5497399
        ]
      }
    },
    {
      "type": "Feature",
      "properties": {
        "title": "Mace Blvd & Cowell Blvd (NB)",
        "tag": "22060",
        "stopId": "060"
      },
      "geometry": {
        "type": "Point",
        "coordinates": [
          -121.6942499,
          38.54928
        ]
      }
    },
    {
      "type": "Feature",
      "properties": {
        "title": "Chiles Rd & Mace Blvd (EB)",
        "tag": "22061",
        "stopId": "061"
      },
      "geometry": {
        "type": "Point",
        "coordinates": [
          -121.69348,
          38.5507699
        ]
      }
    },
    {
      "type": "Feature",
      "properties": {
        "title": "El Cemonte Ave & Glide Dr (SB)",
        "tag": "22062",
        "stopId": "062"
      },
      "geometry": {
        "type": "Point",
        "coordinates": [
          -121.69103,
          38.5508799
        ]
      }
    },
    {
      "type": "Feature",
      "properties": {
        "title": "Cowell Blvd & El Cemonte Ave (WB)",
        "tag": "22063",
        "stopId": "063"
      },
      "geometry": {
        "type": "Point",
        "coordinates": [
          -121.69009,
          38.5489599
        ]
      }
    },
    {
      "type": "Feature",
      "properties": {
        "title": "Cowell Blvd & Mace Blvd (WB)",
        "tag": "22064",
        "stopId": "064"
      },
      "geometry": {
        "type": "Point",
        "coordinates": [
          -121.6925799,
          38.5488399
        ]
      }
    },
    {
      "type": "Feature",
      "properties": {
        "title": "Alhambra Dr & Mace Blvd (WB)",
        "tag": "22065",
        "stopId": "065"
      },
      "geometry": {
        "type": "Point",
        "coordinates": [
          -121.69722,
          38.5587299
        ]
      }
    },
    {
      "type": "Feature",
      "properties": {
        "title": "Alhambra Dr & Mace Blvd (EB)",
        "tag": "22066",
        "stopId": "066"
      },
      "geometry": {
        "type": "Point",
        "coordinates": [
          -121.69697,
          38.5585499
        ]
      }
    },
    {
      "type": "Feature",
      "properties": {
        "title": "Alhambra Dr & 5th St (EB)",
        "tag": "22067",
        "stopId": "067"
      },
      "geometry": {
        "type": "Point",
        "coordinates": [
          -121.7042999,
          38.55781
        ]
      }
    },
    {
      "type": "Feature",
      "properties": {
        "title": "5th St & Verona Terrace (SB)",
        "tag": "22068",
        "stopId": "068"
      },
      "geometry": {
        "type": "Point",
        "coordinates": [
          -121.70536,
          38.5568899
        ]
      }
    },
    {
      "type": "Feature",
      "properties": {
        "title": "5th St & Pelz Bike Path (WB)",
        "tag": "22069",
        "stopId": "069"
      },
      "geometry": {
        "type": "Point",
        "coordinates": [
          -121.7093199,
          38.55483
        ]
      }
    },
    {
      "type": "Feature",
      "properties": {
        "title": "5th St & Windmere Apts. (EB)",
        "tag": "22070",
        "stopId": "070"
      },
      "geometry": {
        "type": "Point",
        "coordinates": [
          -121.7097799,
          38.5546
        ]
      }
    },
    {
      "type": "Feature",
      "properties": {
        "title": "5th St & San Rafael St (WB)",
        "tag": "22071",
        "stopId": "071"
      },
      "geometry": {
        "type": "Point",
        "coordinates": [
          -121.7165099,
          38.55263
        ]
      }
    },
    {
      "type": "Feature",
      "properties": {
        "title": "5th St & Cantrill (WB)",
        "tag": "22072",
        "stopId": "072"
      },
      "geometry": {
        "type": "Point",
        "coordinates": [
          -121.72136,
          38.5515299
        ]
      }
    },
    {
      "type": "Feature",
      "properties": {
        "title": "5th St & Cantrill  (EB)",
        "tag": "22073",
        "stopId": "073"
      },
      "geometry": {
        "type": "Point",
        "coordinates": [
          -121.71904,
          38.5517799
        ]
      }
    },
    {
      "type": "Feature",
      "properties": {
        "title": "5th St & Post Office / Pole Line Rd (WB)",
        "tag": "22074",
        "stopId": "074"
      },
      "geometry": {
        "type": "Point",
        "coordinates": [
          -121.7255299,
          38.5490399
        ]
      }
    },
    {
      "type": "Feature",
      "properties": {
        "title": "5th St & Post Office / Pole Line (EB)",
        "tag": "22075",
        "stopId": "075"
      },
      "geometry": {
        "type": "Point",
        "coordinates": [
          -121.7256499,
          38.54874
        ]
      }
    },
    {
      "type": "Feature",
      "properties": {
        "title": "5th St & Pole Line Rd (EB)",
        "tag": "22076",
        "stopId": "076"
      },
      "geometry": {
        "type": "Point",
        "coordinates": [
          -121.72763,
          38.54856
        ]
      }
    },
    {
      "type": "Feature",
      "properties": {
        "title": "5th St & Pole Line Rd (WB)",
        "tag": "22077",
        "stopId": "077"
      },
      "geometry": {
        "type": "Point",
        "coordinates": [
          -121.72777,
          38.5488299
        ]
      }
    },
    {
      "type": "Feature",
      "properties": {
        "title": "5th St & Davis PW Corp Yard (WB)",
        "tag": "22078",
        "stopId": "078"
      },
      "geometry": {
        "type": "Point",
        "coordinates": [
          -121.7308,
          38.5488999
        ]
      }
    },
    {
      "type": "Feature",
      "properties": {
        "title": "Covell Blvd & Alhambra Dr (EB)",
        "tag": "22079",
        "stopId": "079"
      },
      "geometry": {
        "type": "Point",
        "coordinates": [
          -121.70887,
          38.5640699
        ]
      }
    },
    {
      "type": "Feature",
      "properties": {
        "title": "Monarch Ln & Campbell (SB)",
        "tag": "22081",
        "stopId": "081"
      },
      "geometry": {
        "type": "Point",
        "coordinates": [
          -121.7146,
          38.5626699
        ]
      }
    },
    {
      "type": "Feature",
      "properties": {
        "title": "Temple Dr & Balsam Pl (WB)",
        "tag": "22082",
        "stopId": "082"
      },
      "geometry": {
        "type": "Point",
        "coordinates": [
          -121.7171999,
          38.56198
        ]
      }
    },
    {
      "type": "Feature",
      "properties": {
        "title": "Tulip Ln & Cascade Pl (SB)",
        "tag": "22085",
        "stopId": "085"
      },
      "geometry": {
        "type": "Point",
        "coordinates": [
          -121.7174099,
          38.5582399
        ]
      }
    },
    {
      "type": "Feature",
      "properties": {
        "title": "Loyola Dr & Whittier Dr (WB)",
        "tag": "22087",
        "stopId": "087"
      },
      "geometry": {
        "type": "Point",
        "coordinates": [
          -121.72734,
          38.5575999
        ]
      }
    },
    {
      "type": "Feature",
      "properties": {
        "title": "Loyola Dr & Nutmeg Ln (WB)",
        "tag": "22088",
        "stopId": "088"
      },
      "geometry": {
        "type": "Point",
        "coordinates": [
          -121.7229999,
          38.55777
        ]
      }
    },
    {
      "type": "Feature",
      "properties": {
        "title": "Loyola Dr & Regis Dr (WB)",
        "tag": "22091",
        "stopId": "091"
      },
      "geometry": {
        "type": "Point",
        "coordinates": [
          -121.72031,
          38.5578999
        ]
      }
    },
    {
      "type": "Feature",
      "properties": {
        "title": "Pole Line Rd & Claremont Dr (NB)",
        "tag": "22092",
        "stopId": "092"
      },
      "geometry": {
        "type": "Point",
        "coordinates": [
          -121.73099,
          38.5614499
        ]
      }
    },
    {
      "type": "Feature",
      "properties": {
        "title": "Pole Line Rd & 8th St (NB)",
        "tag": "22094",
        "stopId": "094"
      },
      "geometry": {
        "type": "Point",
        "coordinates": [
          -121.72726,
          38.55396
        ]
      }
    },
    {
      "type": "Feature",
      "properties": {
        "title": "Covell Blvd & Pole Line Rd (EB)",
        "tag": "22096",
        "stopId": "096"
      },
      "geometry": {
        "type": "Point",
        "coordinates": [
          -121.73199,
          38.56216
        ]
      }
    },
    {
      "type": "Feature",
      "properties": {
        "title": "Covell Blvd & J St (WB)",
        "tag": "22097",
        "stopId": "097"
      },
      "geometry": {
        "type": "Point",
        "coordinates": [
          -121.7390599,
          38.5607399
        ]
      }
    },
    {
      "type": "Feature",
      "properties": {
        "title": "Covell Blvd & J St (EB)",
        "tag": "22098",
        "stopId": "098"
      },
      "geometry": {
        "type": "Point",
        "coordinates": [
          -121.73793,
          38.56046
        ]
      }
    },
    {
      "type": "Feature",
      "properties": {
        "title": "J St & Menlo Dr (SB)",
        "tag": "22099",
        "stopId": "099"
      },
      "geometry": {
        "type": "Point",
        "coordinates": [
          -121.73908,
          38.5591699
        ]
      }
    },
    {
      "type": "Feature",
      "properties": {
        "title": "J St & Drexel Dr (SB)",
        "tag": "22100",
        "stopId": "100"
      },
      "geometry": {
        "type": "Point",
        "coordinates": [
          -121.7407699,
          38.55698
        ]
      }
    },
    {
      "type": "Feature",
      "properties": {
        "title": "J St & Alice St (SB)",
        "tag": "22101",
        "stopId": "101"
      },
      "geometry": {
        "type": "Point",
        "coordinates": [
          -121.73991,
          38.55437
        ]
      }
    },
    {
      "type": "Feature",
      "properties": {
        "title": "8th St & Chestnut Ln (EB)",
        "tag": "22102",
        "stopId": "102"
      },
      "geometry": {
        "type": "Point",
        "coordinates": [
          -121.7303399,
          38.55329
        ]
      }
    },
    {
      "type": "Feature",
      "properties": {
        "title": "8th St & Chestnut Ln (WB)",
        "tag": "22103",
        "stopId": "103"
      },
      "geometry": {
        "type": "Point",
        "coordinates": [
          -121.7313099,
          38.5535099
        ]
      }
    },
    {
      "type": "Feature",
      "properties": {
        "title": "8th St & L St (WB)",
        "tag": "22104",
        "stopId": "104"
      },
      "geometry": {
        "type": "Point",
        "coordinates": [
          -121.7354399,
          38.55267
        ]
      }
    },
    {
      "type": "Feature",
      "properties": {
        "title": "8th St & L St (EB)",
        "tag": "22105",
        "stopId": "105"
      },
      "geometry": {
        "type": "Point",
        "coordinates": [
          -121.73436,
          38.5527799
        ]
      }
    },
    {
      "type": "Feature",
      "properties": {
        "title": "Pole Line Rd & Picasso Ave (NB)",
        "tag": "22106",
        "stopId": "106"
      },
      "geometry": {
        "type": "Point",
        "coordinates": [
          -121.73086,
          38.5643599
        ]
      }
    },
    {
      "type": "Feature",
      "properties": {
        "title": "8th St & J St (WB)",
        "tag": "22110",
        "stopId": "110"
      },
      "geometry": {
        "type": "Point",
        "coordinates": [
          -121.739,
          38.5519199
        ]
      }
    },
    {
      "type": "Feature",
      "properties": {
        "title": "8th St & J St (EB)",
        "tag": "22111",
        "stopId": "111"
      },
      "geometry": {
        "type": "Point",
        "coordinates": [
          -121.73892,
          38.5516999
        ]
      }
    },
    {
      "type": "Feature",
      "properties": {
        "title": "F St & Covell Blvd (NB)",
        "tag": "22112",
        "stopId": "112"
      },
      "geometry": {
        "type": "Point",
        "coordinates": [
          -121.74466,
          38.5602299
        ]
      }
    },
    {
      "type": "Feature",
      "properties": {
        "title": "F St & Covell Blvd (SB)",
        "tag": "22113",
        "stopId": "113"
      },
      "geometry": {
        "type": "Point",
        "coordinates": [
          -121.74496,
          38.5601099
        ]
      }
    },
    {
      "type": "Feature",
      "properties": {
        "title": "14th St & F St (WB)",
        "tag": "22114",
        "stopId": "114"
      },
      "geometry": {
        "type": "Point",
        "coordinates": [
          -121.7438099,
          38.5569399
        ]
      }
    },
    {
      "type": "Feature",
      "properties": {
        "title": "F St & 14th St (NB)",
        "tag": "22115",
        "stopId": "115"
      },
      "geometry": {
        "type": "Point",
        "coordinates": [
          -121.7432999,
          38.5571899
        ]
      }
    },
    {
      "type": "Feature",
      "properties": {
        "title": "F St & 12th St (NB)",
        "tag": "22116",
        "stopId": "116"
      },
      "geometry": {
        "type": "Point",
        "coordinates": [
          -121.7426,
          38.5552599
        ]
      }
    },
    {
      "type": "Feature",
      "properties": {
        "title": "F St & 8th St (NB)",
        "tag": "22117",
        "stopId": "117"
      },
      "geometry": {
        "type": "Point",
        "coordinates": [
          -121.74199,
          38.5516099
        ]
      }
    },
    {
      "type": "Feature",
      "properties": {
        "title": "8th St & G St (WB)",
        "tag": "22118",
        "stopId": "118"
      },
      "geometry": {
        "type": "Point",
        "coordinates": [
          -121.74127,
          38.5515899
        ]
      }
    },
    {
      "type": "Feature",
      "properties": {
        "title": "8th St & G St (EB)",
        "tag": "22119",
        "stopId": "119"
      },
      "geometry": {
        "type": "Point",
        "coordinates": [
          -121.7412699,
          38.55142
        ]
      }
    },
    {
      "type": "Feature",
      "properties": {
        "title": "8th St & D St (WB)",
        "tag": "22120",
        "stopId": "120"
      },
      "geometry": {
        "type": "Point",
        "coordinates": [
          -121.7447199,
          38.55101
        ]
      }
    },
    {
      "type": "Feature",
      "properties": {
        "title": "8th St & D St (EB)",
        "tag": "22121",
        "stopId": "121"
      },
      "geometry": {
        "type": "Point",
        "coordinates": [
          -121.7440099,
          38.55093
        ]
      }
    },
    {
      "type": "Feature",
      "properties": {
        "title": "F St & 8th St  (SB)",
        "tag": "22122",
        "stopId": "122"
      },
      "geometry": {
        "type": "Point",
        "coordinates": [
          -121.7421499,
          38.55092
        ]
      }
    },
    {
      "type": "Feature",
      "properties": {
        "title": "14th St & B St (WB)",
        "tag": "22123",
        "stopId": "123"
      },
      "geometry": {
        "type": "Point",
        "coordinates": [
          -121.7481499,
          38.55609
        ]
      }
    },
    {
      "type": "Feature",
      "properties": {
        "title": "14th St & B St (EB)",
        "tag": "22124",
        "stopId": "124"
      },
      "geometry": {
        "type": "Point",
        "coordinates": [
          -121.74788,
          38.5558999
        ]
      }
    },
    {
      "type": "Feature",
      "properties": {
        "title": "14th St & Davis HS (WB)",
        "tag": "22125",
        "stopId": "125"
      },
      "geometry": {
        "type": "Point",
        "coordinates": [
          -121.75058,
          38.5559599
        ]
      }
    },
    {
      "type": "Feature",
      "properties": {
        "title": "Catalina Dr & Alvarado Ave (NB)",
        "tag": "22126",
        "stopId": "126"
      },
      "geometry": {
        "type": "Point",
        "coordinates": [
          -121.75031,
          38.5613999
        ]
      }
    },
    {
      "type": "Feature",
      "properties": {
        "title": "F Street & Grande (SB)",
        "tag": "22127",
        "stopId": "127"
      },
      "geometry": {
        "type": "Point",
        "coordinates": [
          -121.7462799,
          38.5691799
        ]
      }
    },
    {
      "type": "Feature",
      "properties": {
        "title": "Anderson & Sandpiper (EB)",
        "tag": "22128",
        "stopId": "128"
      },
      "geometry": {
        "type": "Point",
        "coordinates": [
          -121.7486,
          38.5731299
        ]
      }
    },
    {
      "type": "Feature",
      "properties": {
        "title": "Anderson & Oriole (NB)",
        "tag": "22129",
        "stopId": "129"
      },
      "geometry": {
        "type": "Point",
        "coordinates": [
          -121.7555399,
          38.57234
        ]
      }
    },
    {
      "type": "Feature",
      "properties": {
        "title": "Anderson Rd & Valencia (NB)",
        "tag": "22130",
        "stopId": "130"
      },
      "geometry": {
        "type": "Point",
        "coordinates": [
          -121.75832,
          38.5674099
        ]
      }
    },
    {
      "type": "Feature",
      "properties": {
        "title": "Anderson Rd & Bianco (NB)",
        "tag": "22131",
        "stopId": "131"
      },
      "geometry": {
        "type": "Point",
        "coordinates": [
          -121.75835,
          38.5630699
        ]
      }
    },
    {
      "type": "Feature",
      "properties": {
        "title": "Alvarado & Anderson  (WB)",
        "tag": "22132",
        "stopId": "132"
      },
      "geometry": {
        "type": "Point",
        "coordinates": [
          -121.75795,
          38.5621799
        ]
      }
    },
    {
      "type": "Feature",
      "properties": {
        "title": "Alvarado Ave & Espana (WB)",
        "tag": "22133",
        "stopId": "133"
      },
      "geometry": {
        "type": "Point",
        "coordinates": [
          -121.75491,
          38.5618099
        ]
      }
    },
    {
      "type": "Feature",
      "properties": {
        "title": "Alvarado Ave & Anderson (WB)",
        "tag": "22134",
        "stopId": "134"
      },
      "geometry": {
        "type": "Point",
        "coordinates": [
          -121.75937,
          38.5622099
        ]
      }
    },
    {
      "type": "Feature",
      "properties": {
        "title": "Alvarado Ave & Anderson (EB)",
        "tag": "22135",
        "stopId": "135"
      },
      "geometry": {
        "type": "Point",
        "coordinates": [
          -121.7595499,
          38.562
        ]
      }
    },
    {
      "type": "Feature",
      "properties": {
        "title": "Alvarado Ave & Sycamore (WB)",
        "tag": "22136",
        "stopId": "136"
      },
      "geometry": {
        "type": "Point",
        "coordinates": [
          -121.7632499,
          38.5620999
        ]
      }
    },
    {
      "type": "Feature",
      "properties": {
        "title": "Alvarado Ave & Sycamore (EB)",
        "tag": "22137",
        "stopId": "137"
      },
      "geometry": {
        "type": "Point",
        "coordinates": [
          -121.76301,
          38.5619399
        ]
      }
    },
    {
      "type": "Feature",
      "properties": {
        "title": "Sycamore Ln & Alvarado (SB)",
        "tag": "22138",
        "stopId": "138"
      },
      "geometry": {
        "type": "Point",
        "coordinates": [
          -121.7650399,
          38.5625299
        ]
      }
    },
    {
      "type": "Feature",
      "properties": {
        "title": "Sycamore Ln & Pepperwood Apts (NB)",
        "tag": "22139",
        "stopId": "139"
      },
      "geometry": {
        "type": "Point",
        "coordinates": [
          -121.76542,
          38.56314
        ]
      }
    },
    {
      "type": "Feature",
      "properties": {
        "title": "Sycamore Ln & Antelope (NB)",
        "tag": "22140",
        "stopId": "140"
      },
      "geometry": {
        "type": "Point",
        "coordinates": [
          -121.7656099,
          38.56445
        ]
      }
    },
    {
      "type": "Feature",
      "properties": {
        "title": "Sycamore Ln & Antelope (SB)",
        "tag": "22141",
        "stopId": "141"
      },
      "geometry": {
        "type": "Point",
        "coordinates": [
          -121.7658499,
          38.5643599
        ]
      }
    },
    {
      "type": "Feature",
      "properties": {
        "title": "Sycamore Ln & Chaparral Apts (NB)",
        "tag": "22142",
        "stopId": "142"
      },
      "geometry": {
        "type": "Point",
        "coordinates": [
          -121.76556,
          38.5663099
        ]
      }
    },
    {
      "type": "Feature",
      "properties": {
        "title": "Sycamore Ln & Chaparral Apts (SB)",
        "tag": "22143",
        "stopId": "143"
      },
      "geometry": {
        "type": "Point",
        "coordinates": [
          -121.76584,
          38.5660299
        ]
      }
    },
    {
      "type": "Feature",
      "properties": {
        "title": "North Sycamore Loop (NB)",
        "tag": "22144",
        "stopId": "144"
      },
      "geometry": {
        "type": "Point",
        "coordinates": [
          -121.76699,
          38.5682499
        ]
      }
    },
    {
      "type": "Feature",
      "properties": {
        "title": "Oak Ave & Covell (NB)",
        "tag": "22145",
        "stopId": "145"
      },
      "geometry": {
        "type": "Point",
        "coordinates": [
          -121.75214,
          38.5603399
        ]
      }
    },
    {
      "type": "Feature",
      "properties": {
        "title": "14th St & Oak St (EB)",
        "tag": "22146",
        "stopId": "146"
      },
      "geometry": {
        "type": "Point",
        "coordinates": [
          -121.75181,
          38.5557199
        ]
      }
    },
    {
      "type": "Feature",
      "properties": {
        "title": "14th St & Oak St (WB)",
        "tag": "22147",
        "stopId": "147"
      },
      "geometry": {
        "type": "Point",
        "coordinates": [
          -121.7525199,
          38.5559499
        ]
      }
    },
    {
      "type": "Feature",
      "properties": {
        "title": "Oak Ave & 14th St (SB)",
        "tag": "22148",
        "stopId": "148"
      },
      "geometry": {
        "type": "Point",
        "coordinates": [
          -121.75242,
          38.5555599
        ]
      }
    },
    {
      "type": "Feature",
      "properties": {
        "title": "Villanova Dr & Reed Dr (WB)",
        "tag": "22149",
        "stopId": "149"
      },
      "geometry": {
        "type": "Point",
        "coordinates": [
          -121.75656,
          38.5564099
        ]
      }
    },
    {
      "type": "Feature",
      "properties": {
        "title": "Villanova Dr & Anderson Rd (EB)",
        "tag": "22150",
        "stopId": "150"
      },
      "geometry": {
        "type": "Point",
        "coordinates": [
          -121.7578799,
          38.55615
        ]
      }
    },
    {
      "type": "Feature",
      "properties": {
        "title": "Anderson Rd & Villanova Dr (NB)",
        "tag": "22153",
        "stopId": "153"
      },
      "geometry": {
        "type": "Point",
        "coordinates": [
          -121.7584199,
          38.55657
        ]
      }
    },
    {
      "type": "Feature",
      "properties": {
        "title": "Anderson Rd & Hanover Dr (NB)",
        "tag": "22154",
        "stopId": "154"
      },
      "geometry": {
        "type": "Point",
        "coordinates": [
          -121.7584,
          38.5594499
        ]
      }
    },
    {
      "type": "Feature",
      "properties": {
        "title": "Anderson Rd & Hanover Dr (SB)",
        "tag": "22155",
        "stopId": "155"
      },
      "geometry": {
        "type": "Point",
        "coordinates": [
          -121.75871,
          38.5585599
        ]
      }
    },
    {
      "type": "Feature",
      "properties": {
        "title": "Anderson Rd & Villanova Dr (SB)",
        "tag": "22156",
        "stopId": "156"
      },
      "geometry": {
        "type": "Point",
        "coordinates": [
          -121.7587399,
          38.55592
        ]
      }
    },
    {
      "type": "Feature",
      "properties": {
        "title": "Anderson Rd & Amherst Dr (NB)",
        "tag": "22157",
        "stopId": "157"
      },
      "geometry": {
        "type": "Point",
        "coordinates": [
          -121.7584999,
          38.55267
        ]
      }
    },
    {
      "type": "Feature",
      "properties": {
        "title": "Anderson Rd & Amherst Dr (SB)",
        "tag": "22158",
        "stopId": "158"
      },
      "geometry": {
        "type": "Point",
        "coordinates": [
          -121.7588099,
          38.55229
        ]
      }
    },
    {
      "type": "Feature",
      "properties": {
        "title": "Anderson Rd & Russell Blvd (SB)",
        "tag": "22159",
        "stopId": "159"
      },
      "geometry": {
        "type": "Point",
        "coordinates": [
          -121.75887,
          38.5472999
        ]
      }
    },
    {
      "type": "Feature",
      "properties": {
        "title": "Anderson Rd & Russell Blvd (NB)",
        "tag": "22160",
        "stopId": "160"
      },
      "geometry": {
        "type": "Point",
        "coordinates": [
          -121.75857,
          38.5469099
        ]
      }
    },
    {
      "type": "Feature",
      "properties": {
        "title": "Oak Ave & Antioch Dr (NB)",
        "tag": "22161",
        "stopId": "161"
      },
      "geometry": {
        "type": "Point",
        "coordinates": [
          -121.75257,
          38.55334
        ]
      }
    },
    {
      "type": "Feature",
      "properties": {
        "title": "Oak Ave & Antioch Dr (SB)",
        "tag": "22162",
        "stopId": "162"
      },
      "geometry": {
        "type": "Point",
        "coordinates": [
          -121.7527799,
          38.55272
        ]
      }
    },
    {
      "type": "Feature",
      "properties": {
        "title": "Oak Ave & 8th St (NB)",
        "tag": "22163",
        "stopId": "163"
      },
      "geometry": {
        "type": "Point",
        "coordinates": [
          -121.7526099,
          38.55103
        ]
      }
    },
    {
      "type": "Feature",
      "properties": {
        "title": "Oak Ave & 8th St (SB)",
        "tag": "22164",
        "stopId": "164"
      },
      "geometry": {
        "type": "Point",
        "coordinates": [
          -121.7528499,
          38.55044
        ]
      }
    },
    {
      "type": "Feature",
      "properties": {
        "title": "Oak Ave & Russell Blvd (NB)",
        "tag": "22165",
        "stopId": "165"
      },
      "geometry": {
        "type": "Point",
        "coordinates": [
          -121.7526499,
          38.54664
        ]
      }
    },
    {
      "type": "Feature",
      "properties": {
        "title": "Oak Ave & Russell Blvd (SB)",
        "tag": "22166",
        "stopId": "166"
      },
      "geometry": {
        "type": "Point",
        "coordinates": [
          -121.7529099,
          38.5464899
        ]
      }
    },
    {
      "type": "Feature",
      "properties": {
        "title": "Hutchison & Shields Library (WB)",
        "tag": "22168",
        "stopId": "168"
      },
      "geometry": {
        "type": "Point",
        "coordinates": [
          -121.7489199,
          38.53929
        ]
      }
    },
    {
      "type": "Feature",
      "properties": {
        "title": "Hutchison Dr & Art Building (EB)",
        "tag": "22169",
        "stopId": "169"
      },
      "geometry": {
        "type": "Point",
        "coordinates": [
          -121.74837,
          38.5391899
        ]
      }
    },
    {
      "type": "Feature",
      "properties": {
        "title": "Cowell Blvd & Mace Blvd (EB)",
        "tag": "22172",
        "stopId": "172"
      },
      "geometry": {
        "type": "Point",
        "coordinates": [
          -121.6935999,
          38.54864
        ]
      }
    },
    {
      "type": "Feature",
      "properties": {
        "title": "Hutchison Dr & Bioletti Way (EB)",
        "tag": "22173",
        "stopId": "173"
      },
      "geometry": {
        "type": "Point",
        "coordinates": [
          -121.75577,
          38.53903
        ]
      }
    },
    {
      "type": "Feature",
      "properties": {
        "title": "Lillard Dr & Evans Ct (EB)",
        "tag": "22174",
        "stopId": "174"
      },
      "geometry": {
        "type": "Point",
        "coordinates": [
          -121.7173499,
          38.54166
        ]
      }
    },
    {
      "type": "Feature",
      "properties": {
        "title": "La Rue Rd & Orchard (NB)",
        "tag": "22175",
        "stopId": "175"
      },
      "geometry": {
        "type": "Point",
        "coordinates": [
          -121.75983,
          38.5440199
        ]
      }
    },
    {
      "type": "Feature",
      "properties": {
        "title": "La Rue Rd & Orchard (SB)",
        "tag": "22176",
        "stopId": "176"
      },
      "geometry": {
        "type": "Point",
        "coordinates": [
          -121.7608899,
          38.5425099
        ]
      }
    },
    {
      "type": "Feature",
      "properties": {
        "title": "Russell Blvd & Sycamore Ln (EB)",
        "tag": "22177",
        "stopId": "177"
      },
      "geometry": {
        "type": "Point",
        "coordinates": [
          -121.762,
          38.5462399
        ]
      }
    },
    {
      "type": "Feature",
      "properties": {
        "title": "Russell Blvd & Sycamore Ln (WB)",
        "tag": "22178",
        "stopId": "178"
      },
      "geometry": {
        "type": "Point",
        "coordinates": [
          -121.7635,
          38.5464899
        ]
      }
    },
    {
      "type": "Feature",
      "properties": {
        "title": "Sycamore Ln & Wake Forest Dr (SB)",
        "tag": "22179",
        "stopId": "179"
      },
      "geometry": {
        "type": "Point",
        "coordinates": [
          -121.76198,
          38.5473799
        ]
      }
    },
    {
      "type": "Feature",
      "properties": {
        "title": "Wake Forest Dr & Oxford Cir (EB)",
        "tag": "22181",
        "stopId": "181"
      },
      "geometry": {
        "type": "Point",
        "coordinates": [
          -121.7639399,
          38.54793
        ]
      }
    },
    {
      "type": "Feature",
      "properties": {
        "title": "Wake Forest Dr & 8th Street (SB)",
        "tag": "22182",
        "stopId": "182"
      },
      "geometry": {
        "type": "Point",
        "coordinates": [
          -121.76687,
          38.5492299
        ]
      }
    },
    {
      "type": "Feature",
      "properties": {
        "title": "8th St & Sycamore Ln (WB)",
        "tag": "22184",
        "stopId": "184"
      },
      "geometry": {
        "type": "Point",
        "coordinates": [
          -121.76471,
          38.5505799
        ]
      }
    },
    {
      "type": "Feature",
      "properties": {
        "title": "Sycamore Ln & 8th St (NB)",
        "tag": "22185",
        "stopId": "185"
      },
      "geometry": {
        "type": "Point",
        "coordinates": [
          -121.7643999,
          38.5509599
        ]
      }
    },
    {
      "type": "Feature",
      "properties": {
        "title": "Sycamore Ln & Villanova Dr (NB)",
        "tag": "22186",
        "stopId": "186"
      },
      "geometry": {
        "type": "Point",
        "coordinates": [
          -121.76481,
          38.55648
        ]
      }
    },
    {
      "type": "Feature",
      "properties": {
        "title": "Sycamore Ln & Colby Dr. (SB)",
        "tag": "22187",
        "stopId": "187"
      },
      "geometry": {
        "type": "Point",
        "coordinates": [
          -121.7650399,
          38.55531
        ]
      }
    },
    {
      "type": "Feature",
      "properties": {
        "title": "Sycamore Ln & Bucknell Dr (NB)",
        "tag": "22188",
        "stopId": "188"
      },
      "geometry": {
        "type": "Point",
        "coordinates": [
          -121.76484,
          38.5549099
        ]
      }
    },
    {
      "type": "Feature",
      "properties": {
        "title": "Sycamore Ln & Cornell Dr (NB)",
        "tag": "22189",
        "stopId": "189"
      },
      "geometry": {
        "type": "Point",
        "coordinates": [
          -121.7648899,
          38.55348
        ]
      }
    },
    {
      "type": "Feature",
      "properties": {
        "title": "Sycamore Ln & Cornell Dr (SB)",
        "tag": "22190",
        "stopId": "190"
      },
      "geometry": {
        "type": "Point",
        "coordinates": [
          -121.7650999,
          38.5529399
        ]
      }
    },
    {
      "type": "Feature",
      "properties": {
        "title": "Sycamore Ln & Radcliffe Dr (NB)",
        "tag": "22191",
        "stopId": "191"
      },
      "geometry": {
        "type": "Point",
        "coordinates": [
          -121.76472,
          38.55824
        ]
      }
    },
    {
      "type": "Feature",
      "properties": {
        "title": "Sycamore Ln & Notre Dame Dr (SB)",
        "tag": "22192",
        "stopId": "192"
      },
      "geometry": {
        "type": "Point",
        "coordinates": [
          -121.7648199,
          38.55849
        ]
      }
    },
    {
      "type": "Feature",
      "properties": {
        "title": "Radcliffe Dr & Apple Ln (NB)",
        "tag": "22193",
        "stopId": "193"
      },
      "geometry": {
        "type": "Point",
        "coordinates": [
          -121.76056,
          38.5586199
        ]
      }
    },
    {
      "type": "Feature",
      "properties": {
        "title": "Drake Dr & Drake Dr  Apts (WB)",
        "tag": "22194",
        "stopId": "194"
      },
      "geometry": {
        "type": "Point",
        "coordinates": [
          -121.76124,
          38.5600899
        ]
      }
    },
    {
      "type": "Feature",
      "properties": {
        "title": "Sycamore Ln & Drake Dr (SB)",
        "tag": "22195",
        "stopId": "195"
      },
      "geometry": {
        "type": "Point",
        "coordinates": [
          -121.76406,
          38.5594099
        ]
      }
    },
    {
      "type": "Feature",
      "properties": {
        "title": "Covell Blvd & Sycamore Ln (WB)",
        "tag": "22196",
        "stopId": "196"
      },
      "geometry": {
        "type": "Point",
        "coordinates": [
          -121.76464,
          38.56101
        ]
      }
    },
    {
      "type": "Feature",
      "properties": {
        "title": "Covell Blvd & Sycamore Ln (EB)",
        "tag": "22197",
        "stopId": "197"
      },
      "geometry": {
        "type": "Point",
        "coordinates": [
          -121.7645399,
          38.5607
        ]
      }
    },
    {
      "type": "Feature",
      "properties": {
        "title": "Covell Blvd & Shasta Dr (EB)",
        "tag": "22198",
        "stopId": "198"
      },
      "geometry": {
        "type": "Point",
        "coordinates": [
          -121.77172,
          38.56072
        ]
      }
    },
    {
      "type": "Feature",
      "properties": {
        "title": "Covell Blvd & John Jones Rd (WB)",
        "tag": "22199",
        "stopId": "199"
      },
      "geometry": {
        "type": "Point",
        "coordinates": [
          -121.77076,
          38.5610799
        ]
      }
    },
    {
      "type": "Feature",
      "properties": {
        "title": "Covell Blvd & Shasta Dr (WB)",
        "tag": "22200",
        "stopId": "200"
      },
      "geometry": {
        "type": "Point",
        "coordinates": [
          -121.7729699,
          38.56107
        ]
      }
    },
    {
      "type": "Feature",
      "properties": {
        "title": "Covell Blvd & Denali Dr (EB)",
        "tag": "22201",
        "stopId": "201"
      },
      "geometry": {
        "type": "Point",
        "coordinates": [
          -121.77824,
          38.56085
        ]
      }
    },
    {
      "type": "Feature",
      "properties": {
        "title": "Covell Blvd & West Area Bike Path (EB)",
        "tag": "22202",
        "stopId": "202"
      },
      "geometry": {
        "type": "Point",
        "coordinates": [
          -121.78199,
          38.56095
        ]
      }
    },
    {
      "type": "Feature",
      "properties": {
        "title": "Lake Blvd & Covell Blvd (SB)",
        "tag": "22203",
        "stopId": "203"
      },
      "geometry": {
        "type": "Point",
        "coordinates": [
          -121.78632,
          38.5604599
        ]
      }
    },
    {
      "type": "Feature",
      "properties": {
        "title": "Lake Blvd & Covell Blvd (NB)",
        "tag": "22204",
        "stopId": "204"
      },
      "geometry": {
        "type": "Point",
        "coordinates": [
          -121.78604,
          38.5604199
        ]
      }
    },
    {
      "type": "Feature",
      "properties": {
        "title": "Lake Blvd & Oyster Bay (SB)",
        "tag": "22205",
        "stopId": "205"
      },
      "geometry": {
        "type": "Point",
        "coordinates": [
          -121.7866499,
          38.55757
        ]
      }
    },
    {
      "type": "Feature",
      "properties": {
        "title": "Lake Blvd & Wood Circle (NB)",
        "tag": "22206",
        "stopId": "206"
      },
      "geometry": {
        "type": "Point",
        "coordinates": [
          -121.7864399,
          38.55746
        ]
      }
    },
    {
      "type": "Feature",
      "properties": {
        "title": "Arlington Blvd & Lake Blvd (NB)",
        "tag": "22207",
        "stopId": "207"
      },
      "geometry": {
        "type": "Point",
        "coordinates": [
          -121.78701,
          38.5552299
        ]
      }
    },
    {
      "type": "Feature",
      "properties": {
        "title": "Arlington Blvd & Lake Blvd (SB)",
        "tag": "22208",
        "stopId": "208"
      },
      "geometry": {
        "type": "Point",
        "coordinates": [
          -121.78691,
          38.5549699
        ]
      }
    },
    {
      "type": "Feature",
      "properties": {
        "title": "Arlington Blvd & Cabot St (NB)",
        "tag": "22209",
        "stopId": "209"
      },
      "geometry": {
        "type": "Point",
        "coordinates": [
          -121.78497,
          38.55394
        ]
      }
    },
    {
      "type": "Feature",
      "properties": {
        "title": "Arlington Blvd & Cabot St (SB)",
        "tag": "22210",
        "stopId": "210"
      },
      "geometry": {
        "type": "Point",
        "coordinates": [
          -121.78484,
          38.55371
        ]
      }
    },
    {
      "type": "Feature",
      "properties": {
        "title": "Arlington Blvd & Shasta Dr (SB)",
        "tag": "22211",
        "stopId": "211"
      },
      "geometry": {
        "type": "Point",
        "coordinates": [
          -121.78137,
          38.55347
        ]
      }
    },
    {
      "type": "Feature",
      "properties": {
        "title": "Arlington Blvd & Shasta Dr (NB)",
        "tag": "22212",
        "stopId": "212"
      },
      "geometry": {
        "type": "Point",
        "coordinates": [
          -121.78208,
          38.5538499
        ]
      }
    },
    {
      "type": "Feature",
      "properties": {
        "title": "Humboldt Ave & Imperial  (EB)",
        "tag": "22216",
        "stopId": "216"
      },
      "geometry": {
        "type": "Point",
        "coordinates": [
          -121.77601,
          38.55276
        ]
      }
    },
    {
      "type": "Feature",
      "properties": {
        "title": "Humboldt Ave & Arthur St (EB)",
        "tag": "22217",
        "stopId": "217"
      },
      "geometry": {
        "type": "Point",
        "coordinates": [
          -121.7711099,
          38.55281
        ]
      }
    },
    {
      "type": "Feature",
      "properties": {
        "title": "Arthur St & North Adams St (SB)",
        "tag": "22220",
        "stopId": "220"
      },
      "geometry": {
        "type": "Point",
        "coordinates": [
          -121.77051,
          38.5516099
        ]
      }
    },
    {
      "type": "Feature",
      "properties": {
        "title": "Arthur St & Alameda Ave (SB)",
        "tag": "22221",
        "stopId": "221"
      },
      "geometry": {
        "type": "Point",
        "coordinates": [
          -121.7706799,
          38.54769
        ]
      }
    },
    {
      "type": "Feature",
      "properties": {
        "title": "Arlington Blvd & Westernesse Rd (SB)",
        "tag": "22223",
        "stopId": "223"
      },
      "geometry": {
        "type": "Point",
        "coordinates": [
          -121.7792699,
          38.55028
        ]
      }
    },
    {
      "type": "Feature",
      "properties": {
        "title": "Arlington Blvd & Bucklebury Rd (SB)",
        "tag": "22224",
        "stopId": "224"
      },
      "geometry": {
        "type": "Point",
        "coordinates": [
          -121.7788,
          38.54877
        ]
      }
    },
    {
      "type": "Feature",
      "properties": {
        "title": "Russell Blvd & Arthur St (WB)",
        "tag": "22225",
        "stopId": "225"
      },
      "geometry": {
        "type": "Point",
        "coordinates": [
          -121.77102,
          38.5465499
        ]
      }
    },
    {
      "type": "Feature",
      "properties": {
        "title": "Lake Blvd & Portage Bay (NB)",
        "tag": "22226",
        "stopId": "226"
      },
      "geometry": {
        "type": "Point",
        "coordinates": [
          -121.78849,
          38.54895
        ]
      }
    },
    {
      "type": "Feature",
      "properties": {
        "title": "Lake Blvd & Salem Ave (NB)",
        "tag": "22227",
        "stopId": "227"
      },
      "geometry": {
        "type": "Point",
        "coordinates": [
          -121.7873,
          38.55044
        ]
      }
    },
    {
      "type": "Feature",
      "properties": {
        "title": "Lake Blvd & Westlake Plaza (NB)",
        "tag": "22228",
        "stopId": "228"
      },
      "geometry": {
        "type": "Point",
        "coordinates": [
          -121.7875199,
          38.5533199
        ]
      }
    },
    {
      "type": "Feature",
      "properties": {
        "title": "Russell Blvd & Arlington Farm (WB)",
        "tag": "22229",
        "stopId": "229"
      },
      "geometry": {
        "type": "Point",
        "coordinates": [
          -121.78585,
          38.5467999
        ]
      }
    },
    {
      "type": "Feature",
      "properties": {
        "title": "Sycamore Ln & University Mall (NB)",
        "tag": "22230",
        "stopId": "230"
      },
      "geometry": {
        "type": "Point",
        "coordinates": [
          -121.76167,
          38.5475099
        ]
      }
    },
    {
      "type": "Feature",
      "properties": {
        "title": "J St & 8th St (SB)",
        "tag": "22233",
        "stopId": "233"
      },
      "geometry": {
        "type": "Point",
        "coordinates": [
          -121.73881,
          38.5520399
        ]
      }
    },
    {
      "type": "Feature",
      "properties": {
        "title": "5th St & Pena Dr (EB)",
        "tag": "22234",
        "stopId": "234"
      },
      "geometry": {
        "type": "Point",
        "coordinates": [
          -121.7153799,
          38.55268
        ]
      }
    },
    {
      "type": "Feature",
      "properties": {
        "title": "Alhambra Dr & Arroyo Ave (EB)",
        "tag": "22235",
        "stopId": "235"
      },
      "geometry": {
        "type": "Point",
        "coordinates": [
          -121.69946,
          38.5578599
        ]
      }
    },
    {
      "type": "Feature",
      "properties": {
        "title": "Alhambra Dr & Atlantis / Carcia (WB)",
        "tag": "22236",
        "stopId": "236"
      },
      "geometry": {
        "type": "Point",
        "coordinates": [
          -121.70346,
          38.5580399
        ]
      }
    },
    {
      "type": "Feature",
      "properties": {
        "title": "5th St & Spafford St (EB)",
        "tag": "22237",
        "stopId": "237"
      },
      "geometry": {
        "type": "Point",
        "coordinates": [
          -121.7124399,
          38.55342
        ]
      }
    },
    {
      "type": "Feature",
      "properties": {
        "title": "5th St & Spafford (WB)",
        "tag": "22238",
        "stopId": "238"
      },
      "geometry": {
        "type": "Point",
        "coordinates": [
          -121.7135699,
          38.55333
        ]
      }
    },
    {
      "type": "Feature",
      "properties": {
        "title": "Hutchison Dr & Ext Center (WB)",
        "tag": "22239",
        "stopId": "239"
      },
      "geometry": {
        "type": "Point",
        "coordinates": [
          -121.7622799,
          38.53884
        ]
      }
    },
    {
      "type": "Feature",
      "properties": {
        "title": "Hutchison Dr & Health Sci Drive (EB)",
        "tag": "22240",
        "stopId": "240"
      },
      "geometry": {
        "type": "Point",
        "coordinates": [
          -121.76394,
          38.5374899
        ]
      }
    },
    {
      "type": "Feature",
      "properties": {
        "title": "Richards Blvd & Olive Dr (NB)",
        "tag": "22242",
        "stopId": "242"
      },
      "geometry": {
        "type": "Point",
        "coordinates": [
          -121.7383199,
          38.5407999
        ]
      }
    },
    {
      "type": "Feature",
      "properties": {
        "title": "Mace Blvd & 2nd St (SB)",
        "tag": "22243",
        "stopId": "243"
      },
      "geometry": {
        "type": "Point",
        "coordinates": [
          -121.6942999,
          38.55775
        ]
      }
    },
    {
      "type": "Feature",
      "properties": {
        "title": "Mace Blvd & 2nd St (NB)",
        "tag": "22244",
        "stopId": "244"
      },
      "geometry": {
        "type": "Point",
        "coordinates": [
          -121.69395,
          38.55625
        ]
      }
    },
    {
      "type": "Feature",
      "properties": {
        "title": "Covell Blvd & Mace Blvd (EB)",
        "tag": "22245",
        "stopId": "245"
      },
      "geometry": {
        "type": "Point",
        "coordinates": [
          -121.7000299,
          38.5648
        ]
      }
    },
    {
      "type": "Feature",
      "properties": {
        "title": "Moore Blvd & Pole Line Rd (EB)",
        "tag": "22249",
        "stopId": "249"
      },
      "geometry": {
        "type": "Point",
        "coordinates": [
          -121.72919,
          38.5702599
        ]
      }
    },
    {
      "type": "Feature",
      "properties": {
        "title": "Moore Blvd & Pollock (EB)",
        "tag": "22250",
        "stopId": "250"
      },
      "geometry": {
        "type": "Point",
        "coordinates": [
          -121.7191699,
          38.56442
        ]
      }
    },
    {
      "type": "Feature",
      "properties": {
        "title": "Lillard & Drummond (EB)",
        "tag": "22254",
        "stopId": "254"
      },
      "geometry": {
        "type": "Point",
        "coordinates": [
          -121.71486,
          38.5431999
        ]
      }
    },
    {
      "type": "Feature",
      "properties": {
        "title": "Drummond & Albany (NB)",
        "tag": "22255",
        "stopId": "255"
      },
      "geometry": {
        "type": "Point",
        "coordinates": [
          -121.71326,
          38.5459699
        ]
      }
    },
    {
      "type": "Feature",
      "properties": {
        "title": "Silo Terminal & Center Island (WB)",
        "tag": "22256",
        "stopId": "256"
      },
      "geometry": {
        "type": "Point",
        "coordinates": [
          -121.75309,
          38.5391399
        ]
      }
    },
    {
      "type": "Feature",
      "properties": {
        "title": "Silo Terminal & Center Island (EB)",
        "tag": "22257",
        "stopId": "257"
      },
      "geometry": {
        "type": "Point",
        "coordinates": [
          -121.75308,
          38.5393499
        ]
      }
    },
    {
      "type": "Feature",
      "properties": {
        "title": "Silo Terminal & Haring Hall (WB)",
        "tag": "22258",
        "stopId": "258"
      },
      "geometry": {
        "type": "Point",
        "coordinates": [
          -121.75368,
          38.5393299
        ]
      }
    },
    {
      "type": "Feature",
      "properties": {
        "title": "Pole Line & Donner (NB)",
        "tag": "22260",
        "stopId": "260"
      },
      "geometry": {
        "type": "Point",
        "coordinates": [
          -121.73075,
          38.5666099
        ]
      }
    },
    {
      "type": "Feature",
      "properties": {
        "title": "Moore Blvd & Raphael (EB)",
        "tag": "22261",
        "stopId": "261"
      },
      "geometry": {
        "type": "Point",
        "coordinates": [
          -121.72346,
          38.56502
        ]
      }
    },
    {
      "type": "Feature",
      "properties": {
        "title": "Memorial Union  & Main Island (NB)",
        "tag": "22272",
        "stopId": "272"
      },
      "geometry": {
        "type": "Point",
        "coordinates": [
          -121.75004,
          38.5438599
        ]
      }
    },
    {
      "type": "Feature",
      "properties": {
        "title": "Memorial Union & Main Island (SB)",
        "tag": "22273",
        "stopId": "273"
      },
      "geometry": {
        "type": "Point",
        "coordinates": [
          -121.74975,
          38.5435899
        ]
      }
    },
    {
      "type": "Feature",
      "properties": {
        "title": "Memorial Union & East Island (SB)",
        "tag": "22274",
        "stopId": "274"
      },
      "geometry": {
        "type": "Point",
        "coordinates": [
          -121.74957,
          38.5436199
        ]
      }
    },
    {
      "type": "Feature",
      "properties": {
        "title": "Pole Line & Wahl Way (SB)",
        "tag": "22280",
        "stopId": "280"
      },
      "geometry": {
        "type": "Point",
        "coordinates": [
          -121.7274799,
          38.55519
        ]
      }
    },
    {
      "type": "Feature",
      "properties": {
        "title": "East 8th Street & Pole Line Road (WB)",
        "tag": "22281",
        "stopId": "281"
      },
      "geometry": {
        "type": "Point",
        "coordinates": [
          -121.7276299,
          38.5534299
        ]
      }
    },
    {
      "type": "Feature",
      "properties": {
        "title": "2nd St. & Target Drive (WB)",
        "tag": "22282",
        "stopId": "282"
      },
      "geometry": {
        "type": "Point",
        "coordinates": [
          -121.69776,
          38.5537199
        ]
      }
    },
    {
      "type": "Feature",
      "properties": {
        "title": "Pena  & 2nd St. (NB)",
        "tag": "22283",
        "stopId": "283"
      },
      "geometry": {
        "type": "Point",
        "coordinates": [
          -121.7157,
          38.5502299
        ]
      }
    },
    {
      "type": "Feature",
      "properties": {
        "title": "Hutchison & Sage (NB)",
        "tag": "22286",
        "stopId": "286"
      },
      "geometry": {
        "type": "Point",
        "coordinates": [
          -121.77147,
          38.5386599
        ]
      }
    },
    {
      "type": "Feature",
      "properties": {
        "title": "Hutchison & Sage (SB)",
        "tag": "22287",
        "stopId": "287"
      },
      "geometry": {
        "type": "Point",
        "coordinates": [
          -121.7718099,
          38.53851
        ]
      }
    },
    {
      "type": "Feature",
      "properties": {
        "title": "West Village Sq & Town Square (NB)",
        "tag": "22288",
        "stopId": "288"
      },
      "geometry": {
        "type": "Point",
        "coordinates": [
          -121.77173,
          38.5410999
        ]
      }
    },
    {
      "type": "Feature",
      "properties": {
        "title": "West Village Sq & Community College (SB)",
        "tag": "22289",
        "stopId": "289"
      },
      "geometry": {
        "type": "Point",
        "coordinates": [
          -121.77171,
          38.5408199
        ]
      }
    },
    {
      "type": "Feature",
      "properties": {
        "title": "Alhambra Dr & Loyola Dr (WB)",
        "tag": "22290",
        "stopId": "290"
      },
      "geometry": {
        "type": "Point",
        "coordinates": [
          -121.70877,
          38.56016
        ]
      }
    },
    {
      "type": "Feature",
      "properties": {
        "title": "Alhambra Dr & Loyola Dr (EB)",
        "tag": "22291",
        "stopId": "291"
      },
      "geometry": {
        "type": "Point",
        "coordinates": [
          -121.7090099,
          38.56008
        ]
      }
    },
    {
      "type": "Feature",
      "properties": {
        "title": "Sycamore & 8th (SB)",
        "tag": "22292",
        "stopId": "292"
      },
      "geometry": {
        "type": "Point",
        "coordinates": [
          -121.7642199,
          38.5506099
        ]
      }
    },
    {
      "type": "Feature",
      "properties": {
        "title": "Alhambra & 5th/Verona (EB)",
        "tag": "22293",
        "stopId": "293"
      },
      "geometry": {
        "type": "Point",
        "coordinates": [
          -121.7062599,
          38.5581699
        ]
      }
    },
    {
      "type": "Feature",
      "properties": {
        "title": "Moore Blvd & Rockwell (EB)",
        "tag": "22294",
        "stopId": "294"
      },
      "geometry": {
        "type": "Point",
        "coordinates": [
          -121.7266499,
          38.5686
        ]
      }
    },
    {
      "type": "Feature",
      "properties": {
        "title": "Drew Ave & Cowell Blvd (NB)",
        "tag": "22295",
        "stopId": "295"
      },
      "geometry": {
        "type": "Point",
        "coordinates": [
          -121.72697,
          38.54019
        ]
      }
    },
    {
      "type": "Feature",
      "properties": {
        "title": "Drew & Research Park Drive (NB)",
        "tag": "22296",
        "stopId": "296"
      },
      "geometry": {
        "type": "Point",
        "coordinates": [
          -121.72735,
          38.5435999
        ]
      }
    },
    {
      "type": "Feature",
      "properties": {
        "title": "Lillard Dr & Cowell Blvd (EB)",
        "tag": "22297",
        "stopId": "297"
      },
      "geometry": {
        "type": "Point",
        "coordinates": [
          -121.72219,
          38.54116
        ]
      }
    },
    {
      "type": "Feature",
      "properties": {
        "title": "Alhambra & Atlantis / Arroyo (WB)",
        "tag": "22299",
        "stopId": "299"
      },
      "geometry": {
        "type": "Point",
        "coordinates": [
          -121.6989999,
          38.5581199
        ]
      }
    },
    {
      "type": "Feature",
      "properties": {
        "title": "5th Street & Verona Terrace (EB)",
        "tag": "22300",
        "stopId": "300"
      },
      "geometry": {
        "type": "Point",
        "coordinates": [
          -121.70536,
          38.5564499
        ]
      }
    },
    {
      "type": "Feature",
      "properties": {
        "title": "Anderson & Sunset (NB)",
        "tag": "22301",
        "stopId": "301"
      },
      "geometry": {
        "type": "Point",
        "coordinates": [
          -121.75862,
          38.5490399
        ]
      }
    },
    {
      "type": "Feature",
      "properties": {
        "title": "Anderson & Sunset (SB)",
        "tag": "22302",
        "stopId": "302"
      },
      "geometry": {
        "type": "Point",
        "coordinates": [
          -121.7588299,
          38.54892
        ]
      }
    },
    {
      "type": "Feature",
      "properties": {
        "title": "Tilia & Celadon (EB)",
        "tag": "22304",
        "stopId": "304"
      },
      "geometry": {
        "type": "Point",
        "coordinates": [
          -121.7733,
          38.5418999
        ]
      }
    },
    {
      "type": "Feature",
      "properties": {
        "title": "F Street & Faro (SB)",
        "tag": "22312",
        "stopId": "312"
      },
      "geometry": {
        "type": "Point",
        "coordinates": [
          -121.7453199,
          38.5660899
        ]
      }
    },
    {
      "type": "Feature",
      "properties": {
        "title": "F Street & Bueno (SB)",
        "tag": "22313",
        "stopId": "313"
      },
      "geometry": {
        "type": "Point",
        "coordinates": [
          -121.7447999,
          38.56173
        ]
      }
    },
    {
      "type": "Feature",
      "properties": {
        "title": "Oak & 14th Street (NB)",
        "tag": "22314",
        "stopId": "314"
      },
      "geometry": {
        "type": "Point",
        "coordinates": [
          -121.75221,
          38.5560899
        ]
      }
    },
    {
      "type": "Feature",
      "properties": {
        "title": "Russell & Arthur (EB)",
        "tag": "22316",
        "stopId": "316"
      },
      "geometry": {
        "type": "Point",
        "coordinates": [
          -121.77112,
          38.54638
        ]
      }
    },
    {
      "type": "Feature",
      "properties": {
        "title": "5th Street & L Street (WB)",
        "tag": "22317",
        "stopId": "317"
      },
      "geometry": {
        "type": "Point",
        "coordinates": [
          -121.73527,
          38.5483899
        ]
      }
    },
    {
      "type": "Feature",
      "properties": {
        "title": "Research Park Dr & Cowell (EB)",
        "tag": "22318",
        "stopId": "318"
      },
      "geometry": {
        "type": "Point",
        "coordinates": [
          -121.7240999,
          38.5452199
        ]
      }
    },
    {
      "type": "Feature",
      "properties": {
        "title": "5th Street & K Street (EB)",
        "tag": "22319",
        "stopId": "319"
      },
      "geometry": {
        "type": "Point",
        "coordinates": [
          -121.7356399,
          38.54818
        ]
      }
    },
    {
      "type": "Feature",
      "properties": {
        "title": "L Street & Duke (SB)",
        "tag": "22325",
        "stopId": "325"
      },
      "geometry": {
        "type": "Point",
        "coordinates": [
          -121.7348599,
          38.5500899
        ]
      }
    },
    {
      "type": "Feature",
      "properties": {
        "title": "2nd Street & Cousteau Place (WB)",
        "tag": "22326",
        "stopId": "326"
      },
      "geometry": {
        "type": "Point",
        "coordinates": [
          -121.71092,
          38.5501099
        ]
      }
    },
    {
      "type": "Feature",
      "properties": {
        "title": "Cowell Blvd & Schmeiser Ave (WB)",
        "tag": "22343",
        "stopId": "343"
      },
      "geometry": {
        "type": "Point",
        "coordinates": [
          -121.6837599,
          38.5498299
        ]
      }
    },
    {
      "type": "Feature",
      "properties": {
        "title": "Glide Dr & Schmeiser Ave (EB)",
        "tag": "22344",
        "stopId": "344"
      },
      "geometry": {
        "type": "Point",
        "coordinates": [
          -121.6841999,
          38.55221
        ]
      }
    },
    {
      "type": "Feature",
      "properties": {
        "title": "Chiles Rd & Mace Blvd (WB)",
        "tag": "22352",
        "stopId": "352"
      },
      "geometry": {
        "type": "Point",
        "coordinates": [
          -121.69352,
          38.5510099
        ]
      }
    },
    {
      "type": "Feature",
      "properties": {
        "title": "Pole Line Rd & Loyola Dr (NB)",
        "tag": "22357",
        "stopId": "357"
      },
      "geometry": {
        "type": "Point",
        "coordinates": [
          -121.7273199,
          38.5561599
        ]
      }
    },
    {
      "type": "Feature",
      "properties": {
        "title": "Glide Dr & Schmeiser Ave (WB)",
        "tag": "22358",
        "stopId": "358"
      },
      "geometry": {
        "type": "Point",
        "coordinates": [
          -121.6843799,
          38.5524299
        ]
      }
    },
    {
      "type": "Feature",
      "properties": {
        "title": "Glide Dr & El Cemonte Ave (WB)",
        "tag": "22359",
        "stopId": "359"
      },
      "geometry": {
        "type": "Point",
        "coordinates": [
          -121.6899399,
          38.55192
        ]
      }
    },
    {
      "type": "Feature",
      "properties": {
        "title": "Hutchison Dr & Health Sci Dr (WB)",
        "tag": "22361",
        "stopId": "361"
      },
      "geometry": {
        "type": "Point",
        "coordinates": [
          -121.76506,
          38.5371399
        ]
      }
    },
    {
      "type": "Feature",
      "properties": {
        "title": "Covell Blvd & Pole Line Rd (WB)",
        "tag": "22362",
        "stopId": "362"
      },
      "geometry": {
        "type": "Point",
        "coordinates": [
          -121.7302399,
          38.5626499
        ]
      }
    },
    {
      "type": "Feature",
      "properties": {
        "title": "Covell Blvd & Wright Blvd (WB)",
        "tag": "22363",
        "stopId": "363"
      },
      "geometry": {
        "type": "Point",
        "coordinates": [
          -121.71829,
          38.5635199
        ]
      }
    },
    {
      "type": "Feature",
      "properties": {
        "title": "Covell Blvd & Wright Blvd (EB)",
        "tag": "22364",
        "stopId": "364"
      },
      "geometry": {
        "type": "Point",
        "coordinates": [
          -121.71784,
          38.5632999
        ]
      }
    },
    {
      "type": "Feature",
      "properties": {
        "title": "J St & Drexel Dr (NB)",
        "tag": "22371",
        "stopId": "371"
      },
      "geometry": {
        "type": "Point",
        "coordinates": [
          -121.74064,
          38.5570999
        ]
      }
    },
    {
      "type": "Feature",
      "properties": {
        "title": "J St & Menlo Dr (NB)",
        "tag": "22372",
        "stopId": "372"
      },
      "geometry": {
        "type": "Point",
        "coordinates": [
          -121.73917,
          38.5589599
        ]
      }
    },
    {
      "type": "Feature",
      "properties": {
        "title": "Moore & Sargent (WB)",
        "tag": "22374",
        "stopId": "374"
      },
      "geometry": {
        "type": "Point",
        "coordinates": [
          -121.7198299,
          38.56438
        ]
      }
    },
    {
      "type": "Feature",
      "properties": {
        "title": "Moore & Pole Line Rd (WB)",
        "tag": "22375",
        "stopId": "375"
      },
      "geometry": {
        "type": "Point",
        "coordinates": [
          -121.72955,
          38.5704399
        ]
      }
    },
    {
      "type": "Feature",
      "properties": {
        "title": "Moore Village (WB)",
        "tag": "22376",
        "stopId": "376"
      },
      "geometry": {
        "type": "Point",
        "coordinates": [
          -121.72405,
          38.56625
        ]
      }
    },
    {
      "type": "Feature",
      "properties": {
        "title": "Arlington Blvd & Bucklebury Rd (NB)",
        "tag": "22494",
        "stopId": "494"
      },
      "geometry": {
        "type": "Point",
        "coordinates": [
          -121.77851,
          38.54888
        ]
      }
    },
    {
      "type": "Feature",
      "properties": {
        "title": "Arlington Blvd & Calaveras Ave (NB)",
        "tag": "22495",
        "stopId": "495"
      },
      "geometry": {
        "type": "Point",
        "coordinates": [
          -121.77896,
          38.5507099
        ]
      }
    },
    {
      "type": "Feature",
      "properties": {
        "title": "Glide Dr & El Cemonte Ave (EB)",
        "tag": "22496",
        "stopId": "496"
      },
      "geometry": {
        "type": "Point",
        "coordinates": [
          -121.6905399,
          38.55136
        ]
      }
    },
    {
      "type": "Feature",
      "properties": {
        "title": "Cowell Blvd & El Cemonte Ave (EB)",
        "tag": "22497",
        "stopId": "497"
      },
      "geometry": {
        "type": "Point",
        "coordinates": [
          -121.6899699,
          38.54881
        ]
      }
    },
    {
      "type": "Feature",
      "properties": {
        "title": "Schmeiser Ave & Cowell Blvd (NB)",
        "tag": "22498",
        "stopId": "498"
      },
      "geometry": {
        "type": "Point",
        "coordinates": [
          -121.68349,
          38.5499099
        ]
      }
    },
    {
      "type": "Feature",
      "properties": {
        "title": "Alhambra Dr & 5th St (WB)",
        "tag": "22973",
        "stopId": "973"
      },
      "geometry": {
        "type": "Point",
        "coordinates": [
          -121.7056999,
          38.5582599
        ]
      }
    },
    {
      "type": "Feature",
      "properties": {
        "title": "El Cemonte Ave & Glide Dr (SB)",
        "tag": "22062_ar"
      },
      "geometry": {
        "type": "Point",
        "coordinates": [
          -121.69103,
          38.5508799
        ]
      }
    },
    {
      "type": "Feature",
      "properties": {
        "title": "Memorial Union  & Main Island (NB)",
        "tag": "22272_ar"
      },
      "geometry": {
        "type": "Point",
        "coordinates": [
          -121.75004,
          38.5438599
        ]
      }
    },
    {
      "type": "Feature",
      "properties": {
        "title": "Radcliffe Dr & Apple Ln (NB)",
        "tag": "22193_ar"
      },
      "geometry": {
        "type": "Point",
        "coordinates": [
          -121.76056,
          38.5586199
        ]
      }
    },
    {
      "type": "Feature",
      "properties": {
        "title": "Memorial Union Terminal Arrival & Howard Way (NB)",
        "tag": "22167_ar"
      },
      "geometry": {
        "type": "Point",
        "coordinates": [
          -121.7498,
          38.5439799
        ]
      }
    },
    {
      "type": "Feature",
      "properties": {
        "title": "8th St & Sycamore Ln (WB)",
        "tag": "22184_ar"
      },
      "geometry": {
        "type": "Point",
        "coordinates": [
          -121.76471,
          38.5505799
        ]
      }
    },
    {
      "type": "Feature",
      "properties": {
        "title": "Silo Terminal & Center Island (WB)",
        "tag": "22256_ar"
      },
      "geometry": {
        "type": "Point",
        "coordinates": [
          -121.75309,
          38.5391399
        ]
      }
    },
    {
      "type": "Feature",
      "properties": {
        "title": "Russell Blvd & Arlington Farm (WB)",
        "tag": "22229_ar"
      },
      "geometry": {
        "type": "Point",
        "coordinates": [
          -121.78585,
          38.5467999
        ]
      }
    },
    {
      "type": "Feature",
      "properties": {
        "title": "Silo Terminal & Haring Hall (WB)",
        "tag": "22258_ar"
      },
      "geometry": {
        "type": "Point",
        "coordinates": [
          -121.75368,
          38.5393299
        ]
      }
    },
    {
      "type": "Feature",
      "properties": {
        "title": "F St & 12th St (NB)",
        "tag": "22116_ar"
      },
      "geometry": {
        "type": "Point",
        "coordinates": [
          -121.7426,
          38.5552599
        ]
      }
    },
    {
      "type": "Feature",
      "properties": {
        "title": "Oak Ave & Covell (NB)",
        "tag": "22145_ar"
      },
      "geometry": {
        "type": "Point",
        "coordinates": [
          -121.75214,
          38.5603399
        ]
      }
    },
    {
      "type": "Feature",
      "properties": {
        "title": "North Sycamore Loop (NB)",
        "tag": "22144_ar"
      },
      "geometry": {
        "type": "Point",
        "coordinates": [
          -121.76699,
          38.5682499
        ]
      }
    },
    {
      "type": "Feature",
      "properties": {
        "title": "Pole Line Rd & Claremont Dr (NB)",
        "tag": "22092_ar"
      },
      "geometry": {
        "type": "Point",
        "coordinates": [
          -121.73099,
          38.5614499
        ]
      }
    },
    {
      "type": "Feature",
      "properties": {
        "title": "Drew & Research Park Drive (NB)",
        "tag": "22296_ar"
      },
      "geometry": {
        "type": "Point",
        "coordinates": [
          -121.72735,
          38.5435999
        ]
      }
    },
    {
      "type": "Feature",
      "properties": {
        "title": "2nd St. & Target Drive (WB)",
        "tag": "22282_ar"
      },
      "geometry": {
        "type": "Point",
        "coordinates": [
          -121.69776,
          38.5537199
        ]
      }
    },
    {
      "type": "Feature",
      "properties": {
        "title": "Covell Blvd & J St (WB)",
        "tag": "22097_ar"
      },
      "geometry": {
        "type": "Point",
        "coordinates": [
          -121.73906,
          38.5607399
        ]
      }
    },
    {
      "type": "Feature",
      "properties": {
        "title": "F St & Covell Blvd (NB)",
        "tag": "22112_ar"
      },
      "geometry": {
        "type": "Point",
        "coordinates": [
          -121.74466,
          38.5602299
        ]
      }
    },
    {
      "type": "Feature",
      "properties": {
        "title": "Oak & 14th Street (NB)",
        "tag": "22314_ar"
      },
      "geometry": {
        "type": "Point",
        "coordinates": [
          -121.75221,
          38.5560899
        ]
      }
    },
    {
      "type": "Feature",
      "properties": {
        "title": "Hutchison Drive & Old Davis Road (WB)",
        "tag": "22001_ar"
      },
      "geometry": {
        "type": "Point",
        "coordinates": [
          -121.74614,
          38.5401599
        ]
      }
    },
    {
      "type": "Feature",
      "properties": {
        "title": "Tilia & Celadon (EB)",
        "tag": "22304_ar"
      },
      "geometry": {
        "type": "Point",
        "coordinates": [
          -121.7733,
          38.5418999
        ]
      }
    },
    {
      "type": "Feature",
      "properties": {
        "title": "Lillard Dr & Evans Ct (EB)",
        "tag": "22174_ar"
      },
      "geometry": {
        "type": "Point",
        "coordinates": [
          -121.71735,
          38.5416599
        ]
      }
    },
    {
      "type": "Feature",
      "properties": {
        "title": "Silo Terminal & Center Island (EB)",
        "tag": "22257_ar"
      },
      "geometry": {
        "type": "Point",
        "coordinates": [
          -121.75308,
          38.5393499
        ]
      }
    }
  ],
  "copyright": "All data copyright Unitrans ASUCD/City of Davis 2019."
}