{
  "type": "FeatureCollection",
  "features": [
    {
      "type": "Feature",
      "properties": {
        "title": "Brinsmead Kamerunga Rd (Skyrail Base Station)",
        "tag": "750075",
        "stopId": "750075"
      },
      "geometry": {
        "type": "Point",
        "coordinates": [
          145.6952799,
          -16.8482
        ]
      }
    },
    {
      "type": "Feature",
      "properties": {
        "title": "Cairns Western Art at Harley St",
        "tag": "750079",
        "stopId": "750079"
      },
      "geometry": {
        "type": "Point",
        "coordinates": [
          145.6899099,
          -16.88002
        ]
      }
    },
    {
      "type": "Feature",
      "properties": {
        "title": "Abbott St C244 (Closed Sept 2014)",
        "tag": "750119",
        "stopId": "750119"
      },
      "geometry": {
        "type": "Point",
        "coordinates": [
          145.7761899,
          -16.92053
        ]
      }
    },
    {
      "type": "Feature",
      "properties": {
        "title": "Hoare St at Eureka St (Trinity Bay SHS)",
        "tag": "750218",
        "stopId": "750218"
      },
      "geometry": {
        "type": "Point",
        "coordinates": [
          145.7525499,
          -16.924
        ]
      }
    },
    {
      "type": "Feature",
      "properties": {
        "title": "Newton St at Cairns TAFE",
        "tag": "750219",
        "stopId": "750219"
      },
      "geometry": {
        "type": "Point",
        "coordinates": [
          145.7559499,
          -16.92271
        ]
      }
    },
    {
      "type": "Feature",
      "properties": {
        "title": "Cairns Western Art at Harley St",
        "tag": "750335",
        "stopId": "750335"
      },
      "geometry": {
        "type": "Point",
        "coordinates": [
          145.6886699,
          -16.87944
        ]
      }
    },
    {
      "type": "Feature",
      "properties": {
        "title": "Cairns Central Terminus",
        "tag": "750489",
        "stopId": "750489"
      },
      "geometry": {
        "type": "Point",
        "coordinates": [
          145.7711899,
          -16.92521
        ]
      }
    },
    {
      "type": "Feature",
      "properties": {
        "title": "Trinity Bay High near Hoare St (HnR)",
        "tag": "750523",
        "stopId": "750523"
      },
      "geometry": {
        "type": "Point",
        "coordinates": [
          145.7524399,
          -16.92399
        ]
      }
    },
    {
      "type": "Feature",
      "properties": {
        "title": "Gatton at Newton (HnR)",
        "tag": "750600",
        "stopId": "750600"
      },
      "geometry": {
        "type": "Point",
        "coordinates": [
          145.7571999,
          -16.92261
        ]
      }
    },
    {
      "type": "Feature",
      "properties": {
        "title": "Therwine St near Coondoo St (Hail n Ride)",
        "tag": "750641",
        "stopId": "750641"
      },
      "geometry": {
        "type": "Point",
        "coordinates": [
          145.6339399,
          -16.8197
        ]
      }
    },
    {
      "type": "Feature",
      "properties": {
        "title": "Walsh St near Rankin St (Hail n Ride)",
        "tag": "750642",
        "stopId": "750642"
      },
      "geometry": {
        "type": "Point",
        "coordinates": [
          145.4241099,
          -16.99575
        ]
      }
    },
    {
      "type": "Feature",
      "properties": {
        "title": "Main St near Vernon St (Hail n Ride)",
        "tag": "750643",
        "stopId": "750643"
      },
      "geometry": {
        "type": "Point",
        "coordinates": [
          145.4759799,
          -17.26584
        ]
      }
    },
    {
      "type": "Feature",
      "properties": {
        "title": "Speewah Rd near Scenic Dr (Hail n Ride)",
        "tag": "750644",
        "stopId": "750644"
      },
      "geometry": {
        "type": "Point",
        "coordinates": [
          145.6000099,
          -16.8708
        ]
      }
    },
    {
      "type": "Feature",
      "properties": {
        "title": "Kennedy Hwy near Main St (Hail n Ride)",
        "tag": "750660",
        "stopId": "750660"
      },
      "geometry": {
        "type": "Point",
        "coordinates": [
          145.4788599,
          -17.22252
        ]
      }
    },
    {
      "type": "Feature",
      "properties": {
        "title": "Kennedy Hwy near Main St (Hail n Ride)",
        "tag": "750661",
        "stopId": "750661"
      },
      "geometry": {
        "type": "Point",
        "coordinates": [
          145.4788699,
          -17.22239
        ]
      }
    },
    {
      "type": "Feature",
      "properties": {
        "title": "Hibiscus St near Banksia St (Hail n Ride)",
        "tag": "750662",
        "stopId": "750662"
      },
      "geometry": {
        "type": "Point",
        "coordinates": [
          145.4267299,
          -17.13061
        ]
      }
    },
    {
      "type": "Feature",
      "properties": {
        "title": "Hibiscus St near Banksia St (Hail n Ride)",
        "tag": "750663",
        "stopId": "750663"
      },
      "geometry": {
        "type": "Point",
        "coordinates": [
          145.4267599,
          -17.13064
        ]
      }
    },
    {
      "type": "Feature",
      "properties": {
        "title": "Kennedy Hwy at Smithfield Shopping Centre",
        "tag": "750664",
        "stopId": "750664"
      },
      "geometry": {
        "type": "Point",
        "coordinates": [
          145.6910899,
          -16.83901
        ]
      }
    },
    {
      "type": "Feature",
      "properties": {
        "title": "Kennedy Hwy near Canopys Edge Blvd",
        "tag": "750665",
        "stopId": "750665"
      },
      "geometry": {
        "type": "Point",
        "coordinates": [
          145.6883999,
          -16.83889
        ]
      }
    },
    {
      "type": "Feature",
      "properties": {
        "title": "Kennedy Rd near Koah Rd (Hail n Ride)",
        "tag": "750666",
        "stopId": "750666"
      },
      "geometry": {
        "type": "Point",
        "coordinates": [
          145.5684699,
          -16.89478
        ]
      }
    },
    {
      "type": "Feature",
      "properties": {
        "title": "Kennedy Hwy near Greenhills Rd (Hail n Ride)",
        "tag": "750667",
        "stopId": "750667"
      },
      "geometry": {
        "type": "Point",
        "coordinates": [
          145.6215099,
          -16.82835
        ]
      }
    },
    {
      "type": "Feature",
      "properties": {
        "title": "Kenndy Hwy near Warril Dr (Hail n Ride)",
        "tag": "750668",
        "stopId": "750668"
      },
      "geometry": {
        "type": "Point",
        "coordinates": [
          145.6209699,
          -16.83146
        ]
      }
    },
    {
      "type": "Feature",
      "properties": {
        "title": "Kennedy Hwy near Fallon Rd (Hail n Ride)",
        "tag": "750669",
        "stopId": "750669"
      },
      "geometry": {
        "type": "Point",
        "coordinates": [
          145.6204399,
          -16.83243
        ]
      }
    },
    {
      "type": "Feature",
      "properties": {
        "title": "Byrnes St at Mareeba Visitor Info (Hail n Ride)",
        "tag": "750670",
        "stopId": "750670"
      },
      "geometry": {
        "type": "Point",
        "coordinates": [
          145.4246899,
          -17.01088
        ]
      }
    },
    {
      "type": "Feature",
      "properties": {
        "title": "Kennedy Hwy near Tate Rd (Hail n Ride)",
        "tag": "750671",
        "stopId": "750671"
      },
      "geometry": {
        "type": "Point",
        "coordinates": [
          145.4783499,
          -17.22774
        ]
      }
    },
    {
      "type": "Feature",
      "properties": {
        "title": "Kenndy Hwy at Rainforestation Park (Hail n Ride)",
        "tag": "750672",
        "stopId": "750672"
      },
      "geometry": {
        "type": "Point",
        "coordinates": [
          145.6512699,
          -16.82418
        ]
      }
    },
    {
      "type": "Feature",
      "properties": {
        "title": "Central Arcade",
        "tag": "790000",
        "stopId": "790000"
      },
      "geometry": {
        "type": "Point",
        "coordinates": [
          146.0300999,
          -17.52552
        ]
      }
    },
    {
      "type": "Feature",
      "properties": {
        "title": "Jodrell Street near Florence St",
        "tag": "790001",
        "stopId": "790001"
      },
      "geometry": {
        "type": "Point",
        "coordinates": [
          146.0458899,
          -17.52997
        ]
      }
    },
    {
      "type": "Feature",
      "properties": {
        "title": "Mourilyan Rd near Marty Street",
        "tag": "790004",
        "stopId": "790004"
      },
      "geometry": {
        "type": "Point",
        "coordinates": [
          146.0326999,
          -17.53891
        ]
      }
    },
    {
      "type": "Feature",
      "properties": {
        "title": "Mourilyan Rd at Rita Street",
        "tag": "790005",
        "stopId": "790005"
      },
      "geometry": {
        "type": "Point",
        "coordinates": [
          146.0325899,
          -17.542
        ]
      }
    },
    {
      "type": "Feature",
      "properties": {
        "title": "Ash Street near Beech St",
        "tag": "790014",
        "stopId": "790014"
      },
      "geometry": {
        "type": "Point",
        "coordinates": [
          146.0112499,
          -17.52596
        ]
      }
    },
    {
      "type": "Feature",
      "properties": {
        "title": "Pindar Street near Laurie St",
        "tag": "790015",
        "stopId": "790015"
      },
      "geometry": {
        "type": "Point",
        "coordinates": [
          146.0037999,
          -17.52446
        ]
      }
    },
    {
      "type": "Feature",
      "properties": {
        "title": "Badilla Street near Laurie St",
        "tag": "790016",
        "stopId": "790016"
      },
      "geometry": {
        "type": "Point",
        "coordinates": [
          146.0015099,
          -17.52408
        ]
      }
    },
    {
      "type": "Feature",
      "properties": {
        "title": "Maple St at Goondi State School",
        "tag": "790017",
        "stopId": "790017"
      },
      "geometry": {
        "type": "Point",
        "coordinates": [
          146.0100999,
          -17.5225
        ]
      }
    },
    {
      "type": "Feature",
      "properties": {
        "title": "Palmerston Drive near Pine St",
        "tag": "790018",
        "stopId": "790018"
      },
      "geometry": {
        "type": "Point",
        "coordinates": [
          146.0110599,
          -17.52161
        ]
      }
    },
    {
      "type": "Feature",
      "properties": {
        "title": "Warrina St at Warrina Home",
        "tag": "790019",
        "stopId": "790019"
      },
      "geometry": {
        "type": "Point",
        "coordinates": [
          146.0186399,
          -17.51745
        ]
      }
    },
    {
      "type": "Feature",
      "properties": {
        "title": "Edith St at Anzac Park",
        "tag": "790020",
        "stopId": "790020"
      },
      "geometry": {
        "type": "Point",
        "coordinates": [
          146.0272799,
          -17.52424
        ]
      }
    },
    {
      "type": "Feature",
      "properties": {
        "title": "Emily Street near Glady St",
        "tag": "790021",
        "stopId": "790021"
      },
      "geometry": {
        "type": "Point",
        "coordinates": [
          146.0255999,
          -17.51898
        ]
      }
    },
    {
      "type": "Feature",
      "properties": {
        "title": "Rankin St at Innisfail Hospital",
        "tag": "790022",
        "stopId": "790022"
      },
      "geometry": {
        "type": "Point",
        "coordinates": [
          146.0295699,
          -17.51925
        ]
      }
    },
    {
      "type": "Feature",
      "properties": {
        "title": "Bel-Air Avenue near Bona Ave",
        "tag": "790024",
        "stopId": "790024"
      },
      "geometry": {
        "type": "Point",
        "coordinates": [
          145.9885199,
          -17.52005
        ]
      }
    },
    {
      "type": "Feature",
      "properties": {
        "title": "Belvedere Avenue near Boulter Cl",
        "tag": "790025",
        "stopId": "790025"
      },
      "geometry": {
        "type": "Point",
        "coordinates": [
          145.9887499,
          -17.52264
        ]
      }
    },
    {
      "type": "Feature",
      "properties": {
        "title": "Innisfail Sugarbowl Lanes at Lyons Road",
        "tag": "790026",
        "stopId": "790026"
      },
      "geometry": {
        "type": "Point",
        "coordinates": [
          145.9904999,
          -17.51825
        ]
      }
    },
    {
      "type": "Feature",
      "properties": {
        "title": "Elizabeth Street near William St",
        "tag": "790027",
        "stopId": "790027"
      },
      "geometry": {
        "type": "Point",
        "coordinates": [
          146.0760899,
          -17.50104
        ]
      }
    },
    {
      "type": "Feature",
      "properties": {
        "title": "Alexander Street near OReilly Cl",
        "tag": "790028",
        "stopId": "790028"
      },
      "geometry": {
        "type": "Point",
        "coordinates": [
          146.0389199,
          -17.51684
        ]
      }
    },
    {
      "type": "Feature",
      "properties": {
        "title": "Pine St near Velution St",
        "tag": "790030",
        "stopId": "790030"
      },
      "geometry": {
        "type": "Point",
        "coordinates": [
          146.0169299,
          -17.52179
        ]
      }
    },
    {
      "type": "Feature",
      "properties": {
        "title": "Martin St near Ryan St",
        "tag": "790033",
        "stopId": "790033"
      },
      "geometry": {
        "type": "Point",
        "coordinates": [
          146.0365299,
          -17.52727
        ]
      }
    },
    {
      "type": "Feature",
      "properties": {
        "title": "Martin St near Mary St",
        "tag": "790034",
        "stopId": "790034"
      },
      "geometry": {
        "type": "Point",
        "coordinates": [
          146.0385599,
          -17.5282
        ]
      }
    },
    {
      "type": "Feature",
      "properties": {
        "title": "Coronation Dr near Scheu St",
        "tag": "790035",
        "stopId": "790035"
      },
      "geometry": {
        "type": "Point",
        "coordinates": [
          146.0320599,
          -17.53191
        ]
      }
    },
    {
      "type": "Feature",
      "properties": {
        "title": "Rankin St at Innisfail Hospital",
        "tag": "790037",
        "stopId": "790037"
      },
      "geometry": {
        "type": "Point",
        "coordinates": [
          146.0295599,
          -17.51918
        ]
      }
    },
    {
      "type": "Feature",
      "properties": {
        "title": "Emily St at The Lakes Residential Village",
        "tag": "790038",
        "stopId": "790038"
      },
      "geometry": {
        "type": "Point",
        "coordinates": [
          146.0255399,
          -17.51899
        ]
      }
    },
    {
      "type": "Feature",
      "properties": {
        "title": "Mourilyan Rd at Water Tower",
        "tag": "790044",
        "stopId": "790044"
      },
      "geometry": {
        "type": "Point",
        "coordinates": [
          146.0345399,
          -17.52956
        ]
      }
    },
    {
      "type": "Feature",
      "properties": {
        "title": "Mourilyan Rd near Rita St",
        "tag": "790045",
        "stopId": "790045"
      },
      "geometry": {
        "type": "Point",
        "coordinates": [
          146.0325799,
          -17.54236
        ]
      }
    },
    {
      "type": "Feature",
      "properties": {
        "title": "Tulip St near Warrina St (Hail n Ride)",
        "tag": "790051",
        "stopId": "790051"
      },
      "geometry": {
        "type": "Point",
        "coordinates": [
          146.0176199,
          -17.51819
        ]
      }
    },
    {
      "type": "Feature",
      "properties": {
        "title": "Aluart Rd near Colyer Cl",
        "tag": "790052",
        "stopId": "790052"
      },
      "geometry": {
        "type": "Point",
        "coordinates": [
          146.0384699,
          -17.51511
        ]
      }
    },
    {
      "type": "Feature",
      "properties": {
        "title": "Aluart Rd near Alexander St",
        "tag": "790053",
        "stopId": "790053"
      },
      "geometry": {
        "type": "Point",
        "coordinates": [
          146.0388399,
          -17.51515
        ]
      }
    },
    {
      "type": "Feature",
      "properties": {
        "title": "Alexander Street near OReilly Cl",
        "tag": "790054",
        "stopId": "790054"
      },
      "geometry": {
        "type": "Point",
        "coordinates": [
          146.0388999,
          -17.51694
        ]
      }
    },
    {
      "type": "Feature",
      "properties": {
        "title": "Katoora St near Nelson St",
        "tag": "790055",
        "stopId": "790055"
      },
      "geometry": {
        "type": "Point",
        "coordinates": [
          146.0389599,
          -17.5221
        ]
      }
    },
    {
      "type": "Feature",
      "properties": {
        "title": "Katoora St near Herbert St",
        "tag": "790056",
        "stopId": "790056"
      },
      "geometry": {
        "type": "Point",
        "coordinates": [
          146.0372899,
          -17.52228
        ]
      }
    },
    {
      "type": "Feature",
      "properties": {
        "title": "Flying Rish Point Rd near Tierney St",
        "tag": "790057",
        "stopId": "790057"
      },
      "geometry": {
        "type": "Point",
        "coordinates": [
          146.0358999,
          -17.51856
        ]
      }
    },
    {
      "type": "Feature",
      "properties": {
        "title": "Flying Fish Point Rd near Riverside Cr",
        "tag": "790058",
        "stopId": "790058"
      },
      "geometry": {
        "type": "Point",
        "coordinates": [
          146.0335799,
          -17.51837
        ]
      }
    },
    {
      "type": "Feature",
      "properties": {
        "title": "Paul St near Callendar Dr",
        "tag": "790059",
        "stopId": "790059"
      },
      "geometry": {
        "type": "Point",
        "coordinates": [
          146.0308299,
          -17.51283
        ]
      }
    },
    {
      "type": "Feature",
      "properties": {
        "title": "Callendar Dr near Peter St",
        "tag": "790061",
        "stopId": "790061"
      },
      "geometry": {
        "type": "Point",
        "coordinates": [
          146.0279899,
          -17.51372
        ]
      }
    },
    {
      "type": "Feature",
      "properties": {
        "title": "Nelson St near Ripple St",
        "tag": "790063",
        "stopId": "790063"
      },
      "geometry": {
        "type": "Point",
        "coordinates": [
          146.0397699,
          -17.52051
        ]
      }
    },
    {
      "type": "Feature",
      "properties": {
        "title": "Nelson St near Mayflower St",
        "tag": "790064",
        "stopId": "790064"
      },
      "geometry": {
        "type": "Point",
        "coordinates": [
          146.0398099,
          -17.51994
        ]
      }
    },
    {
      "type": "Feature",
      "properties": {
        "title": "Elizabeth Street near William St",
        "tag": "790067",
        "stopId": "790067"
      },
      "geometry": {
        "type": "Point",
        "coordinates": [
          146.0760099,
          -17.50147
        ]
      }
    },
    {
      "type": "Feature",
      "properties": {
        "title": "Maud St near Enid St",
        "tag": "790069",
        "stopId": "790069"
      },
      "geometry": {
        "type": "Point",
        "coordinates": [
          146.0747599,
          -17.49539
        ]
      }
    },
    {
      "type": "Feature",
      "properties": {
        "title": "Feldt St at Flying Fish Point",
        "tag": "790071",
        "stopId": "790071"
      },
      "geometry": {
        "type": "Point",
        "coordinates": [
          146.0761299,
          -17.49077
        ]
      }
    },
    {
      "type": "Feature",
      "properties": {
        "title": "Velution St near Palmerston Dr",
        "tag": "790082",
        "stopId": "790082"
      },
      "geometry": {
        "type": "Point",
        "coordinates": [
          146.0162499,
          -17.52457
        ]
      }
    },
    {
      "type": "Feature",
      "properties": {
        "title": "Velution St near Mahogany St",
        "tag": "790083",
        "stopId": "790083"
      },
      "geometry": {
        "type": "Point",
        "coordinates": [
          146.0162699,
          -17.52431
        ]
      }
    },
    {
      "type": "Feature",
      "properties": {
        "title": "Carmel St near Mourilyan Rd (Hail n Ride)",
        "tag": "790088",
        "stopId": "790088"
      },
      "geometry": {
        "type": "Point",
        "coordinates": [
          146.0331099,
          -17.53518
        ]
      }
    },
    {
      "type": "Feature",
      "properties": {
        "title": "Monica St near Auburn St",
        "tag": "790089",
        "stopId": "790089"
      },
      "geometry": {
        "type": "Point",
        "coordinates": [
          146.0318999,
          -17.54389
        ]
      }
    },
    {
      "type": "Feature",
      "properties": {
        "title": "Ryan St near Scheu St",
        "tag": "790093",
        "stopId": "790093"
      },
      "geometry": {
        "type": "Point",
        "coordinates": [
          146.0370099,
          -17.53222
        ]
      }
    },
    {
      "type": "Feature",
      "properties": {
        "title": "George St near Elizabeth St",
        "tag": "790095",
        "stopId": "790095"
      },
      "geometry": {
        "type": "Point",
        "coordinates": [
          146.0763399,
          -17.49627
        ]
      }
    }
  ],
  "copyright": "All data copyright Innisfail 2020."
}