{
  "type": "FeatureCollection",
  "features": [
    {
      "type": "Feature",
      "properties": {
        "title": "El Monte Station",
        "tag": "01170",
        "stopId": "1170"
      },
      "geometry": {
        "type": "Point",
        "coordinates": [
          -118.04526,
          34.0720799
        ]
      }
    },
    {
      "type": "Feature",
      "properties": {
        "title": "Ramona Blvd and Lexington Ave E",
        "tag": "02224",
        "stopId": "2224"
      },
      "geometry": {
        "type": "Point",
        "coordinates": [
          -118.0397,
          34.07192
        ]
      }
    },
    {
      "type": "Feature",
      "properties": {
        "title": "Ramona Blvd and Tyler Ave E",
        "tag": "02233",
        "stopId": "2233"
      },
      "geometry": {
        "type": "Point",
        "coordinates": [
          -118.0357199,
          34.07206
        ]
      }
    },
    {
      "type": "Feature",
      "properties": {
        "title": "Valley Blvd and Ramona Blvd E",
        "tag": "02235",
        "stopId": "2235"
      },
      "geometry": {
        "type": "Point",
        "coordinates": [
          -118.0326399,
          34.0722
        ]
      }
    },
    {
      "type": "Feature",
      "properties": {
        "title": "Valley Blvd and Johnson Ave E",
        "tag": "02621",
        "stopId": "2621"
      },
      "geometry": {
        "type": "Point",
        "coordinates": [
          -118.03108,
          34.07111
        ]
      }
    },
    {
      "type": "Feature",
      "properties": {
        "title": "Valley Blvd and Peck Rd E",
        "tag": "02625",
        "stopId": "2625"
      },
      "geometry": {
        "type": "Point",
        "coordinates": [
          -118.02846,
          34.06899
        ]
      }
    },
    {
      "type": "Feature",
      "properties": {
        "title": "Valley Blvd and La Madera Ave E",
        "tag": "02623",
        "stopId": "2623"
      },
      "geometry": {
        "type": "Point",
        "coordinates": [
          -118.02371,
          34.06573
        ]
      }
    },
    {
      "type": "Feature",
      "properties": {
        "title": "Mountain View Rd and Valley Blvd E",
        "tag": "02054",
        "stopId": "2054"
      },
      "geometry": {
        "type": "Point",
        "coordinates": [
          -118.02047,
          34.0641399
        ]
      }
    },
    {
      "type": "Feature",
      "properties": {
        "title": "Cogswell Rd and Exline St E",
        "tag": "00984",
        "stopId": "984"
      },
      "geometry": {
        "type": "Point",
        "coordinates": [
          -118.01722,
          34.0663699
        ]
      }
    },
    {
      "type": "Feature",
      "properties": {
        "title": "Cogswell Rd and Ferris Rd E",
        "tag": "00985",
        "stopId": "985"
      },
      "geometry": {
        "type": "Point",
        "coordinates": [
          -118.01557,
          34.0695699
        ]
      }
    },
    {
      "type": "Feature",
      "properties": {
        "title": "Cogswell Rd and Deana St E",
        "tag": "00983",
        "stopId": "983"
      },
      "geometry": {
        "type": "Point",
        "coordinates": [
          -118.0142499,
          34.07217
        ]
      }
    },
    {
      "type": "Feature",
      "properties": {
        "title": "Cogswell Rd and Ramona Blvd E",
        "tag": "00989",
        "stopId": "989"
      },
      "geometry": {
        "type": "Point",
        "coordinates": [
          -118.01282,
          34.0750199
        ]
      }
    },
    {
      "type": "Feature",
      "properties": {
        "title": "Cogswell Rd and Lambert Ave E",
        "tag": "00987",
        "stopId": "987"
      },
      "geometry": {
        "type": "Point",
        "coordinates": [
          -118.0107299,
          34.07925
        ]
      }
    },
    {
      "type": "Feature",
      "properties": {
        "title": "Cogswell Rd and Killian St E",
        "tag": "00986",
        "stopId": "986"
      },
      "geometry": {
        "type": "Point",
        "coordinates": [
          -118.00908,
          34.0826699
        ]
      }
    },
    {
      "type": "Feature",
      "properties": {
        "title": "Cogswell Rd and Lower Azusa Rd E",
        "tag": "00988",
        "stopId": "988"
      },
      "geometry": {
        "type": "Point",
        "coordinates": [
          -118.00663,
          34.0876599
        ]
      }
    },
    {
      "type": "Feature",
      "properties": {
        "title": "Lower Azusa Rd and Durfee Ave E",
        "tag": "01970",
        "stopId": "1970"
      },
      "geometry": {
        "type": "Point",
        "coordinates": [
          -118.0022299,
          34.08785
        ]
      }
    },
    {
      "type": "Feature",
      "properties": {
        "title": "Los Angeles St and Hornbrook Ave E",
        "tag": "01969",
        "stopId": "1969"
      },
      "geometry": {
        "type": "Point",
        "coordinates": [
          -117.9821399,
          34.09195
        ]
      }
    },
    {
      "type": "Feature",
      "properties": {
        "title": "Los Angeles St and Center St E",
        "tag": "01968",
        "stopId": "1968"
      },
      "geometry": {
        "type": "Point",
        "coordinates": [
          -117.9781699,
          34.09204
        ]
      }
    },
    {
      "type": "Feature",
      "properties": {
        "title": "Los Angeles St and Merced Ave E",
        "tag": "01979",
        "stopId": "1979"
      },
      "geometry": {
        "type": "Point",
        "coordinates": [
          -117.97351,
          34.0921199
        ]
      }
    },
    {
      "type": "Feature",
      "properties": {
        "title": "Baldwin Park Blvd and Los Angeles St S",
        "tag": "00808",
        "stopId": "808"
      },
      "geometry": {
        "type": "Point",
        "coordinates": [
          -117.9650499,
          34.0919
        ]
      }
    },
    {
      "type": "Feature",
      "properties": {
        "title": "Baldwin Park Blvd and Park Shadow Ct E",
        "tag": "00812",
        "stopId": "812"
      },
      "geometry": {
        "type": "Point",
        "coordinates": [
          -117.96498,
          34.08812
        ]
      }
    },
    {
      "type": "Feature",
      "properties": {
        "title": "Ramona Blvd and Baldwin Park Blvd E",
        "tag": "02212",
        "stopId": "2212"
      },
      "geometry": {
        "type": "Point",
        "coordinates": [
          -117.96427,
          34.0855299
        ]
      }
    },
    {
      "type": "Feature",
      "properties": {
        "title": "Ramona Blvd and Maine Ave",
        "tag": "03214",
        "stopId": "3214"
      },
      "geometry": {
        "type": "Point",
        "coordinates": [
          -117.9602299,
          34.08651
        ]
      }
    },
    {
      "type": "Feature",
      "properties": {
        "title": "Baldwin Park Metrolink",
        "tag": "02831",
        "stopId": "2831"
      },
      "geometry": {
        "type": "Point",
        "coordinates": [
          -117.9574,
          34.0861099
        ]
      }
    },
    {
      "type": "Feature",
      "properties": {
        "title": "Pacific Ave and Vineland Ave E",
        "tag": "02128",
        "stopId": "2128"
      },
      "geometry": {
        "type": "Point",
        "coordinates": [
          -117.9573599,
          34.0828499
        ]
      }
    },
    {
      "type": "Feature",
      "properties": {
        "title": "Pacific Ave and Puente Ave E",
        "tag": "02127",
        "stopId": "2127"
      },
      "geometry": {
        "type": "Point",
        "coordinates": [
          -117.95194,
          34.07886
        ]
      }
    },
    {
      "type": "Feature",
      "properties": {
        "title": "Pacific Ave and Garvey Ave E",
        "tag": "02125",
        "stopId": "2125"
      },
      "geometry": {
        "type": "Point",
        "coordinates": [
          -117.9449899,
          34.07343
        ]
      }
    },
    {
      "type": "Feature",
      "properties": {
        "title": "West Covina Pkwy and Toluca Ave E",
        "tag": "02665",
        "stopId": "2665"
      },
      "geometry": {
        "type": "Point",
        "coordinates": [
          -117.94085,
          34.0707
        ]
      }
    },
    {
      "type": "Feature",
      "properties": {
        "title": "West Covina Pkwy and Service Ave E",
        "tag": "02662",
        "stopId": "2662"
      },
      "geometry": {
        "type": "Point",
        "coordinates": [
          -117.9375499,
          34.06847
        ]
      }
    },
    {
      "type": "Feature",
      "properties": {
        "title": "West Covina Prkwy and Fashion Plaza Way E",
        "tag": "02660",
        "stopId": "2660"
      },
      "geometry": {
        "type": "Point",
        "coordinates": [
          -117.93343,
          34.0685999
        ]
      }
    },
    {
      "type": "Feature",
      "properties": {
        "title": "West Covina Pkwy and California Ave E",
        "tag": "02656",
        "stopId": "2656"
      },
      "geometry": {
        "type": "Point",
        "coordinates": [
          -117.93051,
          34.0685799
        ]
      }
    },
    {
      "type": "Feature",
      "properties": {
        "title": "Valinda Ave and Glendora Ave E",
        "tag": "02601",
        "stopId": "2601"
      },
      "geometry": {
        "type": "Point",
        "coordinates": [
          -117.92559,
          34.06675
        ]
      }
    },
    {
      "type": "Feature",
      "properties": {
        "title": "Valinda Ave and Cameron Ave E",
        "tag": "02596",
        "stopId": "2596"
      },
      "geometry": {
        "type": "Point",
        "coordinates": [
          -117.92552,
          34.0614299
        ]
      }
    },
    {
      "type": "Feature",
      "properties": {
        "title": "Valinda Ave and Vine Ave E",
        "tag": "02611",
        "stopId": "2611"
      },
      "geometry": {
        "type": "Point",
        "coordinates": [
          -117.9255699,
          34.05778
        ]
      }
    },
    {
      "type": "Feature",
      "properties": {
        "title": "Valinda Ave and Merced Ave E",
        "tag": "02606",
        "stopId": "2606"
      },
      "geometry": {
        "type": "Point",
        "coordinates": [
          -117.92562,
          34.0541899
        ]
      }
    },
    {
      "type": "Feature",
      "properties": {
        "title": "Valinda Ave and Francisquito Ave E",
        "tag": "02600",
        "stopId": "2600"
      },
      "geometry": {
        "type": "Point",
        "coordinates": [
          -117.92567,
          34.0505399
        ]
      }
    },
    {
      "type": "Feature",
      "properties": {
        "title": "Valinda Ave and Maplegrove St E",
        "tag": "02605",
        "stopId": "2605"
      },
      "geometry": {
        "type": "Point",
        "coordinates": [
          -117.92577,
          34.0444399
        ]
      }
    },
    {
      "type": "Feature",
      "properties": {
        "title": "Valinda Ave and Burtree St E",
        "tag": "02595",
        "stopId": "2595"
      },
      "geometry": {
        "type": "Point",
        "coordinates": [
          -117.9266399,
          34.0405
        ]
      }
    },
    {
      "type": "Feature",
      "properties": {
        "title": "Amar Rd and Valinda Ave E",
        "tag": "00609",
        "stopId": "609"
      },
      "geometry": {
        "type": "Point",
        "coordinates": [
          -117.9259199,
          34.0356
        ]
      }
    },
    {
      "type": "Feature",
      "properties": {
        "title": "Amar Rd and Lark Ellen Ave E",
        "tag": "00023",
        "stopId": "23"
      },
      "geometry": {
        "type": "Point",
        "coordinates": [
          -117.91931,
          34.035
        ]
      }
    },
    {
      "type": "Feature",
      "properties": {
        "title": "Amar Rd and Azusa Ave E",
        "tag": "00555",
        "stopId": "555"
      },
      "geometry": {
        "type": "Point",
        "coordinates": [
          -117.91332,
          34.0305399
        ]
      }
    },
    {
      "type": "Feature",
      "properties": {
        "title": "Amar Rd and Temple Ave E",
        "tag": "00603",
        "stopId": "603"
      },
      "geometry": {
        "type": "Point",
        "coordinates": [
          -117.9102999,
          34.0292099
        ]
      }
    },
    {
      "type": "Feature",
      "properties": {
        "title": "Amar Rd and Westport St E",
        "tag": "00614",
        "stopId": "614"
      },
      "geometry": {
        "type": "Point",
        "coordinates": [
          -117.90634,
          34.02712
        ]
      }
    },
    {
      "type": "Feature",
      "properties": {
        "title": "Shadow Oak Dr and Amar Rd E",
        "tag": "02447",
        "stopId": "2447"
      },
      "geometry": {
        "type": "Point",
        "coordinates": [
          -117.90309,
          34.02602
        ]
      }
    },
    {
      "type": "Feature",
      "properties": {
        "title": "Shadow Oak Dr and Woodgate Dr E",
        "tag": "02454",
        "stopId": "2454"
      },
      "geometry": {
        "type": "Point",
        "coordinates": [
          -117.9039699,
          34.02318
        ]
      }
    },
    {
      "type": "Feature",
      "properties": {
        "title": "Shadow Oak Dr and Gemini St E",
        "tag": "02448",
        "stopId": "2448"
      },
      "geometry": {
        "type": "Point",
        "coordinates": [
          -117.9028299,
          34.0193199
        ]
      }
    },
    {
      "type": "Feature",
      "properties": {
        "title": "Shadow Oak Dr and Rita Ln E",
        "tag": "02451",
        "stopId": "2451"
      },
      "geometry": {
        "type": "Point",
        "coordinates": [
          -117.89709,
          34.0187099
        ]
      }
    },
    {
      "type": "Feature",
      "properties": {
        "title": "Shadow Oak Dr and Nogales St E",
        "tag": "02449",
        "stopId": "2449"
      },
      "geometry": {
        "type": "Point",
        "coordinates": [
          -117.8904799,
          34.0201599
        ]
      }
    },
    {
      "type": "Feature",
      "properties": {
        "title": "Nogales St and Shakespeare Dr E",
        "tag": "02088",
        "stopId": "2088"
      },
      "geometry": {
        "type": "Point",
        "coordinates": [
          -117.88793,
          34.01701
        ]
      }
    },
    {
      "type": "Feature",
      "properties": {
        "title": "Nogales St and Amanda St E",
        "tag": "02079",
        "stopId": "2079"
      },
      "geometry": {
        "type": "Point",
        "coordinates": [
          -117.8866799,
          34.01374
        ]
      }
    },
    {
      "type": "Feature",
      "properties": {
        "title": "Nogales St and La Puente Rd E",
        "tag": "02084",
        "stopId": "2084"
      },
      "geometry": {
        "type": "Point",
        "coordinates": [
          -117.8870699,
          34.00992
        ]
      }
    },
    {
      "type": "Feature",
      "properties": {
        "title": "Nogales St and Fenmead St E",
        "tag": "02081",
        "stopId": "2081"
      },
      "geometry": {
        "type": "Point",
        "coordinates": [
          -117.8874599,
          34.0064
        ]
      }
    },
    {
      "type": "Feature",
      "properties": {
        "title": "Nogales St and Valley Blvd E",
        "tag": "02089",
        "stopId": "2089"
      },
      "geometry": {
        "type": "Point",
        "coordinates": [
          -117.88762,
          34.0046599
        ]
      }
    },
    {
      "type": "Feature",
      "properties": {
        "title": "Nogales St and San Jose Ave E",
        "tag": "02086",
        "stopId": "2086"
      },
      "geometry": {
        "type": "Point",
        "coordinates": [
          -117.8882699,
          33.99858
        ]
      }
    },
    {
      "type": "Feature",
      "properties": {
        "title": "Nogales St and Daisetta St E",
        "tag": "02080",
        "stopId": "2080"
      },
      "geometry": {
        "type": "Point",
        "coordinates": [
          -117.88918,
          33.9903699
        ]
      }
    },
    {
      "type": "Feature",
      "properties": {
        "title": "Colima Rd and Nogales St W",
        "tag": "02832",
        "stopId": "2832"
      },
      "geometry": {
        "type": "Point",
        "coordinates": [
          -117.88971,
          33.9875899
        ]
      }
    },
    {
      "type": "Feature",
      "properties": {
        "title": "Colima Rd and Paso Real Ave E",
        "tag": "01034",
        "stopId": "1034"
      },
      "geometry": {
        "type": "Point",
        "coordinates": [
          -117.89394,
          33.98786
        ]
      }
    },
    {
      "type": "Feature",
      "properties": {
        "title": "Colima Rd and Greencastle Ave W",
        "tag": "01009",
        "stopId": "1009"
      },
      "geometry": {
        "type": "Point",
        "coordinates": [
          -117.8966799,
          33.9879599
        ]
      }
    },
    {
      "type": "Feature",
      "properties": {
        "title": "Colima Rd and Jellick Ave W",
        "tag": "01014",
        "stopId": "1014"
      },
      "geometry": {
        "type": "Point",
        "coordinates": [
          -117.90092,
          33.98826
        ]
      }
    },
    {
      "type": "Feature",
      "properties": {
        "title": "Colima Rd and Batson Ave E",
        "tag": "00999",
        "stopId": "999"
      },
      "geometry": {
        "type": "Point",
        "coordinates": [
          -117.90336,
          33.98844
        ]
      }
    },
    {
      "type": "Feature",
      "properties": {
        "title": "Colima Rd and Fullerton Rd W",
        "tag": "01006",
        "stopId": "1006"
      },
      "geometry": {
        "type": "Point",
        "coordinates": [
          -117.90612,
          33.98856
        ]
      }
    },
    {
      "type": "Feature",
      "properties": {
        "title": "Colima Rd and Larkvane Rd E",
        "tag": "01016",
        "stopId": "1016"
      },
      "geometry": {
        "type": "Point",
        "coordinates": [
          -117.9094499,
          33.9887399
        ]
      }
    },
    {
      "type": "Feature",
      "properties": {
        "title": "Colima Rd and Walnut Hall Rd E",
        "tag": "01042",
        "stopId": "1042"
      },
      "geometry": {
        "type": "Point",
        "coordinates": [
          -117.9180899,
          33.9902899
        ]
      }
    },
    {
      "type": "Feature",
      "properties": {
        "title": "Colima Rd and Albatross Rd W",
        "tag": "00991",
        "stopId": "991"
      },
      "geometry": {
        "type": "Point",
        "coordinates": [
          -117.92496,
          33.99066
        ]
      }
    },
    {
      "type": "Feature",
      "properties": {
        "title": "Puente Hills Mall N",
        "tag": "02199",
        "stopId": "2199"
      },
      "geometry": {
        "type": "Point",
        "coordinates": [
          -117.92884,
          33.9940099
        ]
      }
    },
    {
      "type": "Feature",
      "properties": {
        "title": "Colima Rd and Albatross Rd E",
        "tag": "02893",
        "stopId": "2893"
      },
      "geometry": {
        "type": "Point",
        "coordinates": [
          -117.9246099,
          33.9904399
        ]
      }
    },
    {
      "type": "Feature",
      "properties": {
        "title": "Colima Rd and Walnut Hall Rd W",
        "tag": "02894",
        "stopId": "2894"
      },
      "geometry": {
        "type": "Point",
        "coordinates": [
          -117.91736,
          33.99006
        ]
      }
    },
    {
      "type": "Feature",
      "properties": {
        "title": "Colima Rd and Larkvane Rd W",
        "tag": "02896",
        "stopId": "2896"
      },
      "geometry": {
        "type": "Point",
        "coordinates": [
          -117.9099299,
          33.9885899
        ]
      }
    },
    {
      "type": "Feature",
      "properties": {
        "title": "Colima Rd and Fullerton Rd E",
        "tag": "02897",
        "stopId": "2897"
      },
      "geometry": {
        "type": "Point",
        "coordinates": [
          -117.90577,
          33.98835
        ]
      }
    },
    {
      "type": "Feature",
      "properties": {
        "title": "Colima Rd and Batson Ave W",
        "tag": "02898",
        "stopId": "2898"
      },
      "geometry": {
        "type": "Point",
        "coordinates": [
          -117.90403,
          33.98818
        ]
      }
    },
    {
      "type": "Feature",
      "properties": {
        "title": "Colima Rd and Jellick Ave E",
        "tag": "02899",
        "stopId": "2899"
      },
      "geometry": {
        "type": "Point",
        "coordinates": [
          -117.90142,
          33.98805
        ]
      }
    },
    {
      "type": "Feature",
      "properties": {
        "title": "Colima Rd and Desire Ave W",
        "tag": "02900",
        "stopId": "2900"
      },
      "geometry": {
        "type": "Point",
        "coordinates": [
          -117.89674,
          33.98783
        ]
      }
    },
    {
      "type": "Feature",
      "properties": {
        "title": "Colima Rd and Paso Real Ave W",
        "tag": "02901",
        "stopId": "2901"
      },
      "geometry": {
        "type": "Point",
        "coordinates": [
          -117.89313,
          33.98761
        ]
      }
    },
    {
      "type": "Feature",
      "properties": {
        "title": "Nogales St and Colima Rd W",
        "tag": "02827",
        "stopId": "2827"
      },
      "geometry": {
        "type": "Point",
        "coordinates": [
          -117.88913,
          33.9885499
        ]
      }
    },
    {
      "type": "Feature",
      "properties": {
        "title": "Nogales St and Daisetta St W",
        "tag": "00129",
        "stopId": "129"
      },
      "geometry": {
        "type": "Point",
        "coordinates": [
          -117.8889899,
          33.99032
        ]
      }
    },
    {
      "type": "Feature",
      "properties": {
        "title": "Nogales St and Walnut Dr W",
        "tag": "02902",
        "stopId": "2902"
      },
      "geometry": {
        "type": "Point",
        "coordinates": [
          -117.8882599,
          33.99647
        ]
      }
    },
    {
      "type": "Feature",
      "properties": {
        "title": "Nogales St and San Jose Ave W",
        "tag": "02903",
        "stopId": "2903"
      },
      "geometry": {
        "type": "Point",
        "coordinates": [
          -117.8879399,
          33.99973
        ]
      }
    },
    {
      "type": "Feature",
      "properties": {
        "title": "Nogales St and Valley Blvd W",
        "tag": "02904",
        "stopId": "2904"
      },
      "geometry": {
        "type": "Point",
        "coordinates": [
          -117.8874,
          34.0046499
        ]
      }
    },
    {
      "type": "Feature",
      "properties": {
        "title": "Nogales St and La Puente Rd W",
        "tag": "02906",
        "stopId": "2906"
      },
      "geometry": {
        "type": "Point",
        "coordinates": [
          -117.88675,
          34.0105799
        ]
      }
    },
    {
      "type": "Feature",
      "properties": {
        "title": "Nogales St and Amanda St W",
        "tag": "02907",
        "stopId": "2907"
      },
      "geometry": {
        "type": "Point",
        "coordinates": [
          -117.88647,
          34.0138599
        ]
      }
    },
    {
      "type": "Feature",
      "properties": {
        "title": "Nogales St and Shakespeare Dr W",
        "tag": "02908",
        "stopId": "2908"
      },
      "geometry": {
        "type": "Point",
        "coordinates": [
          -117.8883099,
          34.0178599
        ]
      }
    },
    {
      "type": "Feature",
      "properties": {
        "title": "Shadow Oak Dr and Nogales St W",
        "tag": "02909",
        "stopId": "2909"
      },
      "geometry": {
        "type": "Point",
        "coordinates": [
          -117.89078,
          34.0201999
        ]
      }
    },
    {
      "type": "Feature",
      "properties": {
        "title": "Shadow Oak Dr and Rita Ln W",
        "tag": "02910",
        "stopId": "2910"
      },
      "geometry": {
        "type": "Point",
        "coordinates": [
          -117.89706,
          34.0188699
        ]
      }
    },
    {
      "type": "Feature",
      "properties": {
        "title": "Shadow Oak Dr and Gemini St W",
        "tag": "02912",
        "stopId": "2912"
      },
      "geometry": {
        "type": "Point",
        "coordinates": [
          -117.90281,
          34.01953
        ]
      }
    },
    {
      "type": "Feature",
      "properties": {
        "title": "Shadow Oak Dr and Woodgate Dr W",
        "tag": "02914",
        "stopId": "2914"
      },
      "geometry": {
        "type": "Point",
        "coordinates": [
          -117.9035299,
          34.02353
        ]
      }
    },
    {
      "type": "Feature",
      "properties": {
        "title": "Amar Rd and Shadow Oak Dr W",
        "tag": "02915",
        "stopId": "2915"
      },
      "geometry": {
        "type": "Point",
        "coordinates": [
          -117.90343,
          34.02648
        ]
      }
    },
    {
      "type": "Feature",
      "properties": {
        "title": "Amar Rd and Westport St W",
        "tag": "00615",
        "stopId": "615"
      },
      "geometry": {
        "type": "Point",
        "coordinates": [
          -117.9068299,
          34.0276999
        ]
      }
    },
    {
      "type": "Feature",
      "properties": {
        "title": "Amar Rd and Temple Ave W",
        "tag": "00604",
        "stopId": "604"
      },
      "geometry": {
        "type": "Point",
        "coordinates": [
          -117.9103499,
          34.0295499
        ]
      }
    },
    {
      "type": "Feature",
      "properties": {
        "title": "Amar Rd and Azusa Ave W",
        "tag": "00556",
        "stopId": "556"
      },
      "geometry": {
        "type": "Point",
        "coordinates": [
          -117.91518,
          34.0318299
        ]
      }
    },
    {
      "type": "Feature",
      "properties": {
        "title": "Amar Rd and Lark Ellen Ave W",
        "tag": "00024",
        "stopId": "24"
      },
      "geometry": {
        "type": "Point",
        "coordinates": [
          -117.9199699,
          34.0353399
        ]
      }
    },
    {
      "type": "Feature",
      "properties": {
        "title": "Amar Rd and Valinda Ave W",
        "tag": "00610",
        "stopId": "610"
      },
      "geometry": {
        "type": "Point",
        "coordinates": [
          -117.92586,
          34.0358099
        ]
      }
    },
    {
      "type": "Feature",
      "properties": {
        "title": "Valinda Ave and Summer Pl W",
        "tag": "02963",
        "stopId": "2963"
      },
      "geometry": {
        "type": "Point",
        "coordinates": [
          -117.92654,
          34.0400999
        ]
      }
    },
    {
      "type": "Feature",
      "properties": {
        "title": "Valinda Ave and Maplegrove St W",
        "tag": "02917",
        "stopId": "2917"
      },
      "geometry": {
        "type": "Point",
        "coordinates": [
          -117.92562,
          34.0439999
        ]
      }
    },
    {
      "type": "Feature",
      "properties": {
        "title": "Valinda Ave and Francisquito Ave W",
        "tag": "02919",
        "stopId": "2919"
      },
      "geometry": {
        "type": "Point",
        "coordinates": [
          -117.92554,
          34.0502099
        ]
      }
    },
    {
      "type": "Feature",
      "properties": {
        "title": "Valinda Ave and Merced Ave W",
        "tag": "02920",
        "stopId": "2920"
      },
      "geometry": {
        "type": "Point",
        "coordinates": [
          -117.9254499,
          34.05382
        ]
      }
    },
    {
      "type": "Feature",
      "properties": {
        "title": "Valinda Ave and Vine Ave W",
        "tag": "02921",
        "stopId": "2921"
      },
      "geometry": {
        "type": "Point",
        "coordinates": [
          -117.9253999,
          34.05745
        ]
      }
    },
    {
      "type": "Feature",
      "properties": {
        "title": "Valinda Ave and Cameron Ave W",
        "tag": "02598",
        "stopId": "2598"
      },
      "geometry": {
        "type": "Point",
        "coordinates": [
          -117.92536,
          34.06135
        ]
      }
    },
    {
      "type": "Feature",
      "properties": {
        "title": "Valinda Ave and Glendora Ave W",
        "tag": "02923",
        "stopId": "2923"
      },
      "geometry": {
        "type": "Point",
        "coordinates": [
          -117.92537,
          34.0666499
        ]
      }
    },
    {
      "type": "Feature",
      "properties": {
        "title": "West Covina Pkwy and California Ave W",
        "tag": "02924",
        "stopId": "2924"
      },
      "geometry": {
        "type": "Point",
        "coordinates": [
          -117.92966,
          34.0687099
        ]
      }
    },
    {
      "type": "Feature",
      "properties": {
        "title": "West Covina Pkwy and Fashion Plaza Way S",
        "tag": "02654",
        "stopId": "2654"
      },
      "geometry": {
        "type": "Point",
        "coordinates": [
          -117.9330699,
          34.0687299
        ]
      }
    },
    {
      "type": "Feature",
      "properties": {
        "title": "West Covina Pkwy and Toluca Ave W",
        "tag": "02925",
        "stopId": "2925"
      },
      "geometry": {
        "type": "Point",
        "coordinates": [
          -117.93978,
          34.07014
        ]
      }
    },
    {
      "type": "Feature",
      "properties": {
        "title": "Pacific Ave and Garvey Ave W",
        "tag": "02926",
        "stopId": "2926"
      },
      "geometry": {
        "type": "Point",
        "coordinates": [
          -117.9443199,
          34.0733599
        ]
      }
    },
    {
      "type": "Feature",
      "properties": {
        "title": "Pacific Ave and Puente Ave W",
        "tag": "02928",
        "stopId": "2928"
      },
      "geometry": {
        "type": "Point",
        "coordinates": [
          -117.9526799,
          34.0795999
        ]
      }
    },
    {
      "type": "Feature",
      "properties": {
        "title": "Pacific Ave and Vineland Ave W",
        "tag": "02929",
        "stopId": "2929"
      },
      "geometry": {
        "type": "Point",
        "coordinates": [
          -117.9573399,
          34.0830199
        ]
      }
    },
    {
      "type": "Feature",
      "properties": {
        "title": "Ramona Blvd and Maine Ave",
        "tag": "02930",
        "stopId": "2930"
      },
      "geometry": {
        "type": "Point",
        "coordinates": [
          -117.9610699,
          34.08649
        ]
      }
    },
    {
      "type": "Feature",
      "properties": {
        "title": "Baldwin Park Blvd and Ramona Blvd N",
        "tag": "02932",
        "stopId": "2932"
      },
      "geometry": {
        "type": "Point",
        "coordinates": [
          -117.96471,
          34.0861999
        ]
      }
    },
    {
      "type": "Feature",
      "properties": {
        "title": "Los Angeles St and Merced Ave W",
        "tag": "02942",
        "stopId": "2942"
      },
      "geometry": {
        "type": "Point",
        "coordinates": [
          -117.97351,
          34.0922399
        ]
      }
    },
    {
      "type": "Feature",
      "properties": {
        "title": "Los Angeles St and Center St W",
        "tag": "02943",
        "stopId": "2943"
      },
      "geometry": {
        "type": "Point",
        "coordinates": [
          -117.9778199,
          34.09216
        ]
      }
    },
    {
      "type": "Feature",
      "properties": {
        "title": "Los Angeles St and Hornbrook Ave W",
        "tag": "02944",
        "stopId": "2944"
      },
      "geometry": {
        "type": "Point",
        "coordinates": [
          -117.98221,
          34.0921099
        ]
      }
    },
    {
      "type": "Feature",
      "properties": {
        "title": "Lower Azusa Rd and Roseglen St W",
        "tag": "02947",
        "stopId": "2947"
      },
      "geometry": {
        "type": "Point",
        "coordinates": [
          -118.0021199,
          34.08803
        ]
      }
    },
    {
      "type": "Feature",
      "properties": {
        "title": "Cogswell Rd and Lower Azusa Rd W",
        "tag": "02948",
        "stopId": "2948"
      },
      "geometry": {
        "type": "Point",
        "coordinates": [
          -118.00678,
          34.0875599
        ]
      }
    },
    {
      "type": "Feature",
      "properties": {
        "title": "Cogswell Rd and Killian St W",
        "tag": "02949",
        "stopId": "2949"
      },
      "geometry": {
        "type": "Point",
        "coordinates": [
          -118.00902,
          34.0830099
        ]
      }
    },
    {
      "type": "Feature",
      "properties": {
        "title": "Cogswell Rd and Lambert Ave W",
        "tag": "02950",
        "stopId": "2950"
      },
      "geometry": {
        "type": "Point",
        "coordinates": [
          -118.0108499,
          34.07933
        ]
      }
    },
    {
      "type": "Feature",
      "properties": {
        "title": "Cogswell Rd and Ramona Blvd W",
        "tag": "02951",
        "stopId": "2951"
      },
      "geometry": {
        "type": "Point",
        "coordinates": [
          -118.01277,
          34.0754399
        ]
      }
    },
    {
      "type": "Feature",
      "properties": {
        "title": "Cogswell Rd and Deana St W",
        "tag": "02952",
        "stopId": "2952"
      },
      "geometry": {
        "type": "Point",
        "coordinates": [
          -118.01419,
          34.0725999
        ]
      }
    },
    {
      "type": "Feature",
      "properties": {
        "title": "Cogswell Rd and Ferris Rd W",
        "tag": "02953",
        "stopId": "2953"
      },
      "geometry": {
        "type": "Point",
        "coordinates": [
          -118.0152499,
          34.07039
        ]
      }
    },
    {
      "type": "Feature",
      "properties": {
        "title": "Cogswell Rd and Exline St W",
        "tag": "02954",
        "stopId": "2954"
      },
      "geometry": {
        "type": "Point",
        "coordinates": [
          -118.01725,
          34.0665699
        ]
      }
    },
    {
      "type": "Feature",
      "properties": {
        "title": "Cogswell Rd and Garvey Ave W",
        "tag": "02829",
        "stopId": "2829"
      },
      "geometry": {
        "type": "Point",
        "coordinates": [
          -118.01886,
          34.0632599
        ]
      }
    },
    {
      "type": "Feature",
      "properties": {
        "title": "Valley Blvd and Moutain View Rd W",
        "tag": "02955",
        "stopId": "2955"
      },
      "geometry": {
        "type": "Point",
        "coordinates": [
          -118.0211099,
          34.0641299
        ]
      }
    },
    {
      "type": "Feature",
      "properties": {
        "title": "Valley Blvd and La Madera Ave W",
        "tag": "02956",
        "stopId": "2956"
      },
      "geometry": {
        "type": "Point",
        "coordinates": [
          -118.0233999,
          34.0656599
        ]
      }
    },
    {
      "type": "Feature",
      "properties": {
        "title": "Valley Blvd and Peck Rd W",
        "tag": "02957",
        "stopId": "2957"
      },
      "geometry": {
        "type": "Point",
        "coordinates": [
          -118.0282899,
          34.0691799
        ]
      }
    },
    {
      "type": "Feature",
      "properties": {
        "title": "Valley Blvd and Johnson Ave W",
        "tag": "02958",
        "stopId": "2958"
      },
      "geometry": {
        "type": "Point",
        "coordinates": [
          -118.03089,
          34.07117
        ]
      }
    },
    {
      "type": "Feature",
      "properties": {
        "title": "Ramona Blvd and Main St W",
        "tag": "02962",
        "stopId": "2962"
      },
      "geometry": {
        "type": "Point",
        "coordinates": [
          -118.0336499,
          34.0724099
        ]
      }
    },
    {
      "type": "Feature",
      "properties": {
        "title": "Ramona Blvd and Tyler Ave W",
        "tag": "02959",
        "stopId": "2959"
      },
      "geometry": {
        "type": "Point",
        "coordinates": [
          -118.0363799,
          34.0721
        ]
      }
    },
    {
      "type": "Feature",
      "properties": {
        "title": "Ramona Blvd and Lexington Ave W",
        "tag": "02960",
        "stopId": "2960"
      },
      "geometry": {
        "type": "Point",
        "coordinates": [
          -118.0400399,
          34.0720699
        ]
      }
    },
    {
      "type": "Feature",
      "properties": {
        "title": "Colima Rd and Manor Gate Rd N",
        "tag": "01019",
        "stopId": "1019"
      },
      "geometry": {
        "type": "Point",
        "coordinates": [
          -117.9343599,
          33.9909399
        ]
      }
    },
    {
      "type": "Feature",
      "properties": {
        "title": "Colima Rd and Countrywood Ave E",
        "tag": "02977",
        "stopId": "2977"
      },
      "geometry": {
        "type": "Point",
        "coordinates": [
          -117.94168,
          33.9913899
        ]
      }
    },
    {
      "type": "Feature",
      "properties": {
        "title": "Colima Rd and Halliburton Rd N",
        "tag": "01012",
        "stopId": "1012"
      },
      "geometry": {
        "type": "Point",
        "coordinates": [
          -117.94575,
          33.9899499
        ]
      }
    },
    {
      "type": "Feature",
      "properties": {
        "title": "Colima Rd and Country Canyon Rd W",
        "tag": "02983",
        "stopId": "2983"
      },
      "geometry": {
        "type": "Point",
        "coordinates": [
          -117.94904,
          33.9880099
        ]
      }
    },
    {
      "type": "Feature",
      "properties": {
        "title": "Colima Rd and Punta Del Este Dr N",
        "tag": "01036",
        "stopId": "1036"
      },
      "geometry": {
        "type": "Point",
        "coordinates": [
          -117.95398,
          33.9860799
        ]
      }
    },
    {
      "type": "Feature",
      "properties": {
        "title": "Colima Rd and Stimson Ave N",
        "tag": "01039",
        "stopId": "1039"
      },
      "geometry": {
        "type": "Point",
        "coordinates": [
          -117.95949,
          33.9830699
        ]
      }
    },
    {
      "type": "Feature",
      "properties": {
        "title": "Colima Rd and Allenton Ave N",
        "tag": "00993",
        "stopId": "993"
      },
      "geometry": {
        "type": "Point",
        "coordinates": [
          -117.96664,
          33.98131
        ]
      }
    },
    {
      "type": "Feature",
      "properties": {
        "title": "Hacienda Blvd and Colima Rd N",
        "tag": "01659",
        "stopId": "1659"
      },
      "geometry": {
        "type": "Point",
        "coordinates": [
          -117.97292,
          33.9817399
        ]
      }
    },
    {
      "type": "Feature",
      "properties": {
        "title": "Hacienda Blvd and Los Altos Dr N",
        "tag": "01675",
        "stopId": "1675"
      },
      "geometry": {
        "type": "Point",
        "coordinates": [
          -117.97111,
          33.9863399
        ]
      }
    },
    {
      "type": "Feature",
      "properties": {
        "title": "Hacienda Blvd and La Subida Dr N",
        "tag": "01673",
        "stopId": "1673"
      },
      "geometry": {
        "type": "Point",
        "coordinates": [
          -117.97008,
          33.9895099
        ]
      }
    },
    {
      "type": "Feature",
      "properties": {
        "title": "Hacienda Blvd and Tetley St N",
        "tag": "01689",
        "stopId": "1689"
      },
      "geometry": {
        "type": "Point",
        "coordinates": [
          -117.96853,
          33.99272
        ]
      }
    },
    {
      "type": "Feature",
      "properties": {
        "title": "Hacienda Blvd and Newton St N",
        "tag": "01684",
        "stopId": "1684"
      },
      "geometry": {
        "type": "Point",
        "coordinates": [
          -117.9680899,
          33.99586
        ]
      }
    },
    {
      "type": "Feature",
      "properties": {
        "title": "Hacienda Blvd and Halliburton Rd N",
        "tag": "01672",
        "stopId": "1672"
      },
      "geometry": {
        "type": "Point",
        "coordinates": [
          -117.96735,
          33.9980399
        ]
      }
    },
    {
      "type": "Feature",
      "properties": {
        "title": "Hacienda Blvd and Lujon St N",
        "tag": "01678",
        "stopId": "1678"
      },
      "geometry": {
        "type": "Point",
        "coordinates": [
          -117.9663399,
          34.00097
        ]
      }
    },
    {
      "type": "Feature",
      "properties": {
        "title": "Hacienda Blvd and Three Palms St N",
        "tag": "01692",
        "stopId": "1692"
      },
      "geometry": {
        "type": "Point",
        "coordinates": [
          -117.9649099,
          34.0051
        ]
      }
    },
    {
      "type": "Feature",
      "properties": {
        "title": "Hacienda Blvd and Gale Ave N",
        "tag": "01666",
        "stopId": "1666"
      },
      "geometry": {
        "type": "Point",
        "coordinates": [
          -117.96275,
          34.0110799
        ]
      }
    },
    {
      "type": "Feature",
      "properties": {
        "title": "Hacienda Blvd and Don Julian Rd N",
        "tag": "01661",
        "stopId": "1661"
      },
      "geometry": {
        "type": "Point",
        "coordinates": [
          -117.9595299,
          34.01765
        ]
      }
    },
    {
      "type": "Feature",
      "properties": {
        "title": "Hacienda Blvd and Valley Blvd",
        "tag": "01695",
        "stopId": "1695"
      },
      "geometry": {
        "type": "Point",
        "coordinates": [
          -117.95768,
          34.0205899
        ]
      }
    },
    {
      "type": "Feature",
      "properties": {
        "title": "Stafford St and Hacienda Blvd",
        "tag": "01688",
        "stopId": "1688"
      },
      "geometry": {
        "type": "Point",
        "coordinates": [
          -117.9564999,
          34.02311
        ]
      }
    },
    {
      "type": "Feature",
      "properties": {
        "title": "Glendora Ave and Stafford St. N",
        "tag": "02479",
        "stopId": "2479"
      },
      "geometry": {
        "type": "Point",
        "coordinates": [
          -117.95382,
          34.0207199
        ]
      }
    },
    {
      "type": "Feature",
      "properties": {
        "title": "Glendora Ave and Rowland St N",
        "tag": "01537",
        "stopId": "1537"
      },
      "geometry": {
        "type": "Point",
        "coordinates": [
          -117.9523399,
          34.0235
        ]
      }
    },
    {
      "type": "Feature",
      "properties": {
        "title": "Glendora Ave and Hill St N",
        "tag": "02811",
        "stopId": "2811"
      },
      "geometry": {
        "type": "Point",
        "coordinates": [
          -117.95102,
          34.0263099
        ]
      }
    },
    {
      "type": "Feature",
      "properties": {
        "title": "Temple Ave and Glendora Ave N",
        "tag": "02542",
        "stopId": "2542"
      },
      "geometry": {
        "type": "Point",
        "coordinates": [
          -117.9510799,
          34.0282999
        ]
      }
    },
    {
      "type": "Feature",
      "properties": {
        "title": "Temple Ave & Hacienda Blvd N",
        "tag": "01669",
        "stopId": "1669"
      },
      "geometry": {
        "type": "Point",
        "coordinates": [
          -117.95363,
          34.03015
        ]
      }
    },
    {
      "type": "Feature",
      "properties": {
        "title": "Hacienda Blvd and Glendora Ave N",
        "tag": "02812",
        "stopId": "2812"
      },
      "geometry": {
        "type": "Point",
        "coordinates": [
          -117.95063,
          34.0332099
        ]
      }
    },
    {
      "type": "Feature",
      "properties": {
        "title": "Hacienda Blvd and Amar Rd N",
        "tag": "01657",
        "stopId": "1657"
      },
      "geometry": {
        "type": "Point",
        "coordinates": [
          -117.94978,
          34.0375899
        ]
      }
    },
    {
      "type": "Feature",
      "properties": {
        "title": "Hacienda Blvd and Fairgrove Ave N",
        "tag": "01663",
        "stopId": "1663"
      },
      "geometry": {
        "type": "Point",
        "coordinates": [
          -117.9493299,
          34.04201
        ]
      }
    },
    {
      "type": "Feature",
      "properties": {
        "title": "Hacienda Blvd and Maplegrove Ave N",
        "tag": "01681",
        "stopId": "1681"
      },
      "geometry": {
        "type": "Point",
        "coordinates": [
          -117.94874,
          34.0458399
        ]
      }
    },
    {
      "type": "Feature",
      "properties": {
        "title": "Hacienda Blvd and Francisquito Ave N",
        "tag": "01665",
        "stopId": "1665"
      },
      "geometry": {
        "type": "Point",
        "coordinates": [
          -117.9461699,
          34.04833
        ]
      }
    },
    {
      "type": "Feature",
      "properties": {
        "title": "Glendora Ave and Francisquito Ave N",
        "tag": "02813",
        "stopId": "2813"
      },
      "geometry": {
        "type": "Point",
        "coordinates": [
          -117.94353,
          34.0507599
        ]
      }
    },
    {
      "type": "Feature",
      "properties": {
        "title": "Glendora Ave and Michelle St N",
        "tag": "01683",
        "stopId": "1683"
      },
      "geometry": {
        "type": "Point",
        "coordinates": [
          -117.94099,
          34.0530699
        ]
      }
    },
    {
      "type": "Feature",
      "properties": {
        "title": "Glendora Ave and Merced Ave N",
        "tag": "01682",
        "stopId": "1682"
      },
      "geometry": {
        "type": "Point",
        "coordinates": [
          -117.93804,
          34.0557399
        ]
      }
    },
    {
      "type": "Feature",
      "properties": {
        "title": "Glendora Ave and Vine Ave E",
        "tag": "01543",
        "stopId": "1543"
      },
      "geometry": {
        "type": "Point",
        "coordinates": [
          -117.9358299,
          34.05775
        ]
      }
    },
    {
      "type": "Feature",
      "properties": {
        "title": "Glendora Ave  and Cameron Ave N",
        "tag": "01497",
        "stopId": "1497"
      },
      "geometry": {
        "type": "Point",
        "coordinates": [
          -117.93147,
          34.0617199
        ]
      }
    },
    {
      "type": "Feature",
      "properties": {
        "title": "Vincent Ave and Glendora Ave N",
        "tag": "02642",
        "stopId": "2642"
      },
      "geometry": {
        "type": "Point",
        "coordinates": [
          -117.9272699,
          34.06606
        ]
      }
    },
    {
      "type": "Feature",
      "properties": {
        "title": "Sunset Ave and West Covina Pkwy N",
        "tag": "02663",
        "stopId": "2663"
      },
      "geometry": {
        "type": "Point",
        "coordinates": [
          -117.93767,
          34.0691699
        ]
      }
    },
    {
      "type": "Feature",
      "properties": {
        "title": "Sunset Ave. &  Plaza Dr.",
        "tag": "02526",
        "stopId": "2526"
      },
      "geometry": {
        "type": "Point",
        "coordinates": [
          -117.9367499,
          34.07071
        ]
      }
    },
    {
      "type": "Feature",
      "properties": {
        "title": "Sunset Ave and Workman Ave N",
        "tag": "02534",
        "stopId": "2534"
      },
      "geometry": {
        "type": "Point",
        "coordinates": [
          -117.93523,
          34.0757099
        ]
      }
    },
    {
      "type": "Feature",
      "properties": {
        "title": "Sunset Ave and Rowland Ave. N",
        "tag": "02524",
        "stopId": "2524"
      },
      "geometry": {
        "type": "Point",
        "coordinates": [
          -117.93483,
          34.0793099
        ]
      }
    },
    {
      "type": "Feature",
      "properties": {
        "title": "Sunset Ave and Puente Ave N",
        "tag": "02522",
        "stopId": "2522"
      },
      "geometry": {
        "type": "Point",
        "coordinates": [
          -117.93446,
          34.0825499
        ]
      }
    },
    {
      "type": "Feature",
      "properties": {
        "title": "Irwindale Ave and Badillo St N",
        "tag": "01872",
        "stopId": "1872"
      },
      "geometry": {
        "type": "Point",
        "coordinates": [
          -117.93403,
          34.08707
        ]
      }
    },
    {
      "type": "Feature",
      "properties": {
        "title": "Irwindale Ave and San Bernardino Rd N",
        "tag": "01889",
        "stopId": "1889"
      },
      "geometry": {
        "type": "Point",
        "coordinates": [
          -117.9340499,
          34.0895598
        ]
      }
    },
    {
      "type": "Feature",
      "properties": {
        "title": "Irwindale Ave and Queenside Dr N",
        "tag": "01874",
        "stopId": "1874"
      },
      "geometry": {
        "type": "Point",
        "coordinates": [
          -117.9341099,
          34.0931799
        ]
      }
    },
    {
      "type": "Feature",
      "properties": {
        "title": "Irwindale Ave and Cypress St N",
        "tag": "01876",
        "stopId": "1876"
      },
      "geometry": {
        "type": "Point",
        "coordinates": [
          -117.93405,
          34.09649
        ]
      }
    },
    {
      "type": "Feature",
      "properties": {
        "title": "Irwindale Ave and Calle del Norte N",
        "tag": "01883",
        "stopId": "1883"
      },
      "geometry": {
        "type": "Point",
        "coordinates": [
          -117.9340599,
          34.1052
        ]
      }
    },
    {
      "type": "Feature",
      "properties": {
        "title": "Irwindale Ave and Arrow Hwy N",
        "tag": "01870",
        "stopId": "1870"
      },
      "geometry": {
        "type": "Point",
        "coordinates": [
          -117.93405,
          34.1075499
        ]
      }
    },
    {
      "type": "Feature",
      "properties": {
        "title": "Irwindale Ave and Gladstone St N",
        "tag": "01881",
        "stopId": "1881"
      },
      "geometry": {
        "type": "Point",
        "coordinates": [
          -117.93386,
          34.1146599
        ]
      }
    },
    {
      "type": "Feature",
      "properties": {
        "title": "Irwindale Ave and McKinley St N",
        "tag": "01887",
        "stopId": "1887"
      },
      "geometry": {
        "type": "Point",
        "coordinates": [
          -117.93379,
          34.1195599
        ]
      }
    },
    {
      "type": "Feature",
      "properties": {
        "title": "Irwindale Ave and Gateway Bus Ct N",
        "tag": "01879",
        "stopId": "1879"
      },
      "geometry": {
        "type": "Point",
        "coordinates": [
          -117.93362,
          34.1249999
        ]
      }
    },
    {
      "type": "Feature",
      "properties": {
        "title": "Irwindale Gold Line Station",
        "tag": "03607",
        "stopId": "3607"
      },
      "geometry": {
        "type": "Point",
        "coordinates": [
          -117.9336799,
          34.1287799
        ]
      }
    },
    {
      "type": "Feature",
      "properties": {
        "title": "Foothill Blvd and Irwindale Ave E",
        "tag": "01253",
        "stopId": "1253"
      },
      "geometry": {
        "type": "Point",
        "coordinates": [
          -117.9329499,
          34.1335699
        ]
      }
    },
    {
      "type": "Feature",
      "properties": {
        "title": "Foothill Blvd and Todd Ave E",
        "tag": "01311",
        "stopId": "1311"
      },
      "geometry": {
        "type": "Point",
        "coordinates": [
          -117.9244599,
          34.1335199
        ]
      }
    },
    {
      "type": "Feature",
      "properties": {
        "title": "Foothill Blvd and Vernon Ave E",
        "tag": "01329",
        "stopId": "1329"
      },
      "geometry": {
        "type": "Point",
        "coordinates": [
          -117.91543,
          34.13349
        ]
      }
    },
    {
      "type": "Feature",
      "properties": {
        "title": "Foothill Blvd and Orange Ave E",
        "tag": "01284",
        "stopId": "1284"
      },
      "geometry": {
        "type": "Point",
        "coordinates": [
          -117.91242,
          34.13347
        ]
      }
    },
    {
      "type": "Feature",
      "properties": {
        "title": "Foothill Blvd and San Gabriel Blvd N",
        "tag": "01301",
        "stopId": "1301"
      },
      "geometry": {
        "type": "Point",
        "coordinates": [
          -117.90891,
          34.13346
        ]
      }
    },
    {
      "type": "Feature",
      "properties": {
        "title": "Azusa Ave and 9th St. N",
        "tag": "00737",
        "stopId": "737"
      },
      "geometry": {
        "type": "Point",
        "coordinates": [
          -117.90742,
          34.1375599
        ]
      }
    },
    {
      "type": "Feature",
      "properties": {
        "title": "San Gabriel Blvd and Sierra Madre Ave",
        "tag": "02386",
        "stopId": "2386"
      },
      "geometry": {
        "type": "Point",
        "coordinates": [
          -117.90901,
          34.1464099
        ]
      }
    },
    {
      "type": "Feature",
      "properties": {
        "title": "Hacienda Blvd and Nelson Ave N",
        "tag": "00008",
        "stopId": "08"
      },
      "geometry": {
        "type": "Point",
        "coordinates": [
          -117.95757,
          34.0262199
        ]
      }
    },
    {
      "type": "Feature",
      "properties": {
        "title": "Hacienda Blvd and Temple Ave N",
        "tag": "00003",
        "stopId": "03"
      },
      "geometry": {
        "type": "Point",
        "coordinates": [
          -117.95376,
          34.0303099
        ]
      }
    },
    {
      "type": "Feature",
      "properties": {
        "title": "Foothill Blvd and San Gabriel Blvd W",
        "tag": "01303",
        "stopId": "1303"
      },
      "geometry": {
        "type": "Point",
        "coordinates": [
          -117.9092999,
          34.1336399
        ]
      }
    },
    {
      "type": "Feature",
      "properties": {
        "title": "Foothill Blvd and Orange Ave W",
        "tag": "01287",
        "stopId": "1287"
      },
      "geometry": {
        "type": "Point",
        "coordinates": [
          -117.91247,
          34.13367
        ]
      }
    },
    {
      "type": "Feature",
      "properties": {
        "title": "Foothill Blvd and Vernon Ave W",
        "tag": "01332",
        "stopId": "1332"
      },
      "geometry": {
        "type": "Point",
        "coordinates": [
          -117.91585,
          34.13367
        ]
      }
    },
    {
      "type": "Feature",
      "properties": {
        "title": "Foothill Blvd and Todd Ave W",
        "tag": "01314",
        "stopId": "1314"
      },
      "geometry": {
        "type": "Point",
        "coordinates": [
          -117.9246599,
          34.1337299
        ]
      }
    },
    {
      "type": "Feature",
      "properties": {
        "title": "Irwindale Ave and Foothil Blvd S",
        "tag": "01254",
        "stopId": "1254"
      },
      "geometry": {
        "type": "Point",
        "coordinates": [
          -117.9336899,
          34.1332399
        ]
      }
    },
    {
      "type": "Feature",
      "properties": {
        "title": "Irwindale Ave and Gateway Bus Ct S",
        "tag": "01880",
        "stopId": "1880"
      },
      "geometry": {
        "type": "Point",
        "coordinates": [
          -117.9339099,
          34.12491
        ]
      }
    },
    {
      "type": "Feature",
      "properties": {
        "title": "Irwindale Ave and McKinley Ave S",
        "tag": "01888",
        "stopId": "1888"
      },
      "geometry": {
        "type": "Point",
        "coordinates": [
          -117.9340099,
          34.1194899
        ]
      }
    },
    {
      "type": "Feature",
      "properties": {
        "title": "Irwindale Ave and Gladstone St S",
        "tag": "01882",
        "stopId": "1882"
      },
      "geometry": {
        "type": "Point",
        "coordinates": [
          -117.93413,
          34.1136199
        ]
      }
    },
    {
      "type": "Feature",
      "properties": {
        "title": "Irwindale Ave and Arrow Hwy S",
        "tag": "01871",
        "stopId": "1871"
      },
      "geometry": {
        "type": "Point",
        "coordinates": [
          -117.93429,
          34.1076199
        ]
      }
    },
    {
      "type": "Feature",
      "properties": {
        "title": "Irwindale Ave and Juarez St S",
        "tag": "01884",
        "stopId": "1884"
      },
      "geometry": {
        "type": "Point",
        "coordinates": [
          -117.93432,
          34.1050599
        ]
      }
    },
    {
      "type": "Feature",
      "properties": {
        "title": "Irwindale Ave and Tapia St S",
        "tag": "01886",
        "stopId": "1886"
      },
      "geometry": {
        "type": "Point",
        "coordinates": [
          -117.9343699,
          34.10081
        ]
      }
    },
    {
      "type": "Feature",
      "properties": {
        "title": "Irwindale Ave and Cypress St S",
        "tag": "01877",
        "stopId": "1877"
      },
      "geometry": {
        "type": "Point",
        "coordinates": [
          -117.9343499,
          34.0962699
        ]
      }
    },
    {
      "type": "Feature",
      "properties": {
        "title": "Irwindale Ave and Queenside Dr S",
        "tag": "01875",
        "stopId": "1875"
      },
      "geometry": {
        "type": "Point",
        "coordinates": [
          -117.9342699,
          34.0934199
        ]
      }
    },
    {
      "type": "Feature",
      "properties": {
        "title": "Irwindale Ave and San Bernardino Rd S",
        "tag": "01890",
        "stopId": "1890"
      },
      "geometry": {
        "type": "Point",
        "coordinates": [
          -117.9342899,
          34.09001
        ]
      }
    },
    {
      "type": "Feature",
      "properties": {
        "title": "Irwindale Ave and Badillo St S",
        "tag": "01873",
        "stopId": "1873"
      },
      "geometry": {
        "type": "Point",
        "coordinates": [
          -117.93425,
          34.0871399
        ]
      }
    },
    {
      "type": "Feature",
      "properties": {
        "title": "Sunset Ave and Puente Ave S",
        "tag": "02523",
        "stopId": "2523"
      },
      "geometry": {
        "type": "Point",
        "coordinates": [
          -117.9347,
          34.0824899
        ]
      }
    },
    {
      "type": "Feature",
      "properties": {
        "title": "Sunset Ave and Rowland Ave S",
        "tag": "02525",
        "stopId": "2525"
      },
      "geometry": {
        "type": "Point",
        "coordinates": [
          -117.9351,
          34.0788299
        ]
      }
    },
    {
      "type": "Feature",
      "properties": {
        "title": "Sunset Ave and Workman Ave S",
        "tag": "02535",
        "stopId": "2535"
      },
      "geometry": {
        "type": "Point",
        "coordinates": [
          -117.9354999,
          34.07518
        ]
      }
    },
    {
      "type": "Feature",
      "properties": {
        "title": "Sunset Ave. &  Robert O. Young",
        "tag": "02501",
        "stopId": "2501"
      },
      "geometry": {
        "type": "Point",
        "coordinates": [
          -117.9372,
          34.0702599
        ]
      }
    },
    {
      "type": "Feature",
      "properties": {
        "title": "West Covina Prkwy and Fashion Plaza Way S",
        "tag": "02661",
        "stopId": "2661"
      },
      "geometry": {
        "type": "Point",
        "coordinates": [
          -117.9336499,
          34.0686399
        ]
      }
    },
    {
      "type": "Feature",
      "properties": {
        "title": "Vincent Ave and Glendora Ave S",
        "tag": "02643",
        "stopId": "2643"
      },
      "geometry": {
        "type": "Point",
        "coordinates": [
          -117.9274899,
          34.06614
        ]
      }
    },
    {
      "type": "Feature",
      "properties": {
        "title": "Glendora Ave and Cameron Ave S",
        "tag": "01505",
        "stopId": "1505"
      },
      "geometry": {
        "type": "Point",
        "coordinates": [
          -117.9316899,
          34.06179
        ]
      }
    },
    {
      "type": "Feature",
      "properties": {
        "title": "Glendora Ave and Hong Kong Plaza S",
        "tag": "01523",
        "stopId": "1523"
      },
      "geometry": {
        "type": "Point",
        "coordinates": [
          -117.93581,
          34.0580499
        ]
      }
    },
    {
      "type": "Feature",
      "properties": {
        "title": "Glendora Ave and Merced Ave S",
        "tag": "01526",
        "stopId": "1526"
      },
      "geometry": {
        "type": "Point",
        "coordinates": [
          -117.93875,
          34.0553999
        ]
      }
    },
    {
      "type": "Feature",
      "properties": {
        "title": "Glendora Ave and Michelle St S",
        "tag": "01529",
        "stopId": "1529"
      },
      "geometry": {
        "type": "Point",
        "coordinates": [
          -117.9411599,
          34.05327
        ]
      }
    },
    {
      "type": "Feature",
      "properties": {
        "title": "Glendora Ave and Francisquito Ave S",
        "tag": "02814",
        "stopId": "2814"
      },
      "geometry": {
        "type": "Point",
        "coordinates": [
          -117.9437199,
          34.05087
        ]
      }
    },
    {
      "type": "Feature",
      "properties": {
        "title": "Hacienda Blvd and Francisquito Ave S",
        "tag": "01519",
        "stopId": "1519"
      },
      "geometry": {
        "type": "Point",
        "coordinates": [
          -117.9467999,
          34.04807
        ]
      }
    },
    {
      "type": "Feature",
      "properties": {
        "title": "Hacienda Blvd and Maplegrove St S",
        "tag": "01524",
        "stopId": "1524"
      },
      "geometry": {
        "type": "Point",
        "coordinates": [
          -117.9491599,
          34.04557
        ]
      }
    },
    {
      "type": "Feature",
      "properties": {
        "title": "Hacienda Blvd and Unruh Ave S",
        "tag": "01542",
        "stopId": "1542"
      },
      "geometry": {
        "type": "Point",
        "coordinates": [
          -117.9496399,
          34.04165
        ]
      }
    },
    {
      "type": "Feature",
      "properties": {
        "title": "Hacienda Blvd and Amar Rd S",
        "tag": "01658",
        "stopId": "1658"
      },
      "geometry": {
        "type": "Point",
        "coordinates": [
          -117.95005,
          34.0374799
        ]
      }
    },
    {
      "type": "Feature",
      "properties": {
        "title": "Hacienda Blvd and Glendora Ave S",
        "tag": "01670",
        "stopId": "1670"
      },
      "geometry": {
        "type": "Point",
        "coordinates": [
          -117.9510999,
          34.0330599
        ]
      }
    },
    {
      "type": "Feature",
      "properties": {
        "title": "Temple Ave and Hacienda Blvd S",
        "tag": "02545",
        "stopId": "2545"
      },
      "geometry": {
        "type": "Point",
        "coordinates": [
          -117.9536,
          34.02996
        ]
      }
    },
    {
      "type": "Feature",
      "properties": {
        "title": "Temple Ave and Glendora Ave S",
        "tag": "02543",
        "stopId": "2543"
      },
      "geometry": {
        "type": "Point",
        "coordinates": [
          -117.9510399,
          34.0281
        ]
      }
    },
    {
      "type": "Feature",
      "properties": {
        "title": "Glendora Ave and Hill St S",
        "tag": "01522",
        "stopId": "1522"
      },
      "geometry": {
        "type": "Point",
        "coordinates": [
          -117.9511,
          34.0266899
        ]
      }
    },
    {
      "type": "Feature",
      "properties": {
        "title": "Glendora Ave and Nelson Ave S",
        "tag": "01532",
        "stopId": "1532"
      },
      "geometry": {
        "type": "Point",
        "coordinates": [
          -117.95278,
          34.0230499
        ]
      }
    },
    {
      "type": "Feature",
      "properties": {
        "title": "Glendora Ave and Stafford St S",
        "tag": "01540",
        "stopId": "1540"
      },
      "geometry": {
        "type": "Point",
        "coordinates": [
          -117.95417,
          34.0202699
        ]
      }
    },
    {
      "type": "Feature",
      "properties": {
        "title": "Stafford St and Hacienda Blvd",
        "tag": "02480",
        "stopId": "2480"
      },
      "geometry": {
        "type": "Point",
        "coordinates": [
          -117.95619,
          34.0233199
        ]
      }
    },
    {
      "type": "Feature",
      "properties": {
        "title": "Hacienda Blvd and Valley Blvd",
        "tag": "01696",
        "stopId": "1696"
      },
      "geometry": {
        "type": "Point",
        "coordinates": [
          -117.9582299,
          34.02042
        ]
      }
    },
    {
      "type": "Feature",
      "properties": {
        "title": "Hacienda Blvd and Don Julian Rd S",
        "tag": "01662",
        "stopId": "1662"
      },
      "geometry": {
        "type": "Point",
        "coordinates": [
          -117.95981,
          34.0176999
        ]
      }
    },
    {
      "type": "Feature",
      "properties": {
        "title": "Hacienda Blvd and Gale Ave S",
        "tag": "01667",
        "stopId": "1667"
      },
      "geometry": {
        "type": "Point",
        "coordinates": [
          -117.96319,
          34.0105199
        ]
      }
    },
    {
      "type": "Feature",
      "properties": {
        "title": "Hacienda Blvd and Three Palms St S",
        "tag": "01693",
        "stopId": "1693"
      },
      "geometry": {
        "type": "Point",
        "coordinates": [
          -117.96515,
          34.0050999
        ]
      }
    },
    {
      "type": "Feature",
      "properties": {
        "title": "Hacienda Blvd and Lujon St. S",
        "tag": "01679",
        "stopId": "1679"
      },
      "geometry": {
        "type": "Point",
        "coordinates": [
          -117.9663799,
          34.0015
        ]
      }
    },
    {
      "type": "Feature",
      "properties": {
        "title": "Hacienda Blvd and Newton St S",
        "tag": "01685",
        "stopId": "1685"
      },
      "geometry": {
        "type": "Point",
        "coordinates": [
          -117.9682099,
          33.9963
        ]
      }
    },
    {
      "type": "Feature",
      "properties": {
        "title": "Hacienda Blvd and Tetley St S",
        "tag": "01690",
        "stopId": "1690"
      },
      "geometry": {
        "type": "Point",
        "coordinates": [
          -117.9688499,
          33.99258
        ]
      }
    },
    {
      "type": "Feature",
      "properties": {
        "title": "Hacienda Blvd and La Subida Dr S",
        "tag": "01674",
        "stopId": "1674"
      },
      "geometry": {
        "type": "Point",
        "coordinates": [
          -117.97037,
          33.9894899
        ]
      }
    },
    {
      "type": "Feature",
      "properties": {
        "title": "Hacienda Blvd and Los Altos Dr S",
        "tag": "01676",
        "stopId": "1676"
      },
      "geometry": {
        "type": "Point",
        "coordinates": [
          -117.9714899,
          33.98591
        ]
      }
    },
    {
      "type": "Feature",
      "properties": {
        "title": "Colima Rd and Hacienda Blvd S",
        "tag": "01660",
        "stopId": "1660"
      },
      "geometry": {
        "type": "Point",
        "coordinates": [
          -117.97247,
          33.9811799
        ]
      }
    },
    {
      "type": "Feature",
      "properties": {
        "title": "Colima Rd and Allenton Ave S",
        "tag": "00994",
        "stopId": "994"
      },
      "geometry": {
        "type": "Point",
        "coordinates": [
          -117.9660199,
          33.9810099
        ]
      }
    },
    {
      "type": "Feature",
      "properties": {
        "title": "Colima Rd and Sierra Ridge Wy S",
        "tag": "01038",
        "stopId": "1038"
      },
      "geometry": {
        "type": "Point",
        "coordinates": [
          -117.9596799,
          33.9827
        ]
      }
    },
    {
      "type": "Feature",
      "properties": {
        "title": "Colima Rd and Punta Del Este Dr S",
        "tag": "01037",
        "stopId": "1037"
      },
      "geometry": {
        "type": "Point",
        "coordinates": [
          -117.9536299,
          33.98599
        ]
      }
    },
    {
      "type": "Feature",
      "properties": {
        "title": "Colima Rd and Country Canyon Rd E",
        "tag": "03134",
        "stopId": "3134"
      },
      "geometry": {
        "type": "Point",
        "coordinates": [
          -117.9487599,
          33.98792
        ]
      }
    },
    {
      "type": "Feature",
      "properties": {
        "title": "Colima Rd and Dawn Haven Rd S",
        "tag": "02981",
        "stopId": "2981"
      },
      "geometry": {
        "type": "Point",
        "coordinates": [
          -117.94502,
          33.9901599
        ]
      }
    },
    {
      "type": "Feature",
      "properties": {
        "title": "Colima Rd and Countrywood Ave S",
        "tag": "02979",
        "stopId": "2979"
      },
      "geometry": {
        "type": "Point",
        "coordinates": [
          -117.94147,
          33.9911899
        ]
      }
    },
    {
      "type": "Feature",
      "properties": {
        "title": "Colima Rd and Manor Gate Rd S",
        "tag": "01020",
        "stopId": "1020"
      },
      "geometry": {
        "type": "Point",
        "coordinates": [
          -117.93472,
          33.9908
        ]
      }
    },
    {
      "type": "Feature",
      "properties": {
        "title": "Hacienda Blvd and Temple Ave S",
        "tag": "00002",
        "stopId": "02"
      },
      "geometry": {
        "type": "Point",
        "coordinates": [
          -117.9541199,
          34.03026
        ]
      }
    },
    {
      "type": "Feature",
      "properties": {
        "title": "Hacienda Blvd and Nelson Ave S",
        "tag": "00006",
        "stopId": "06"
      },
      "geometry": {
        "type": "Point",
        "coordinates": [
          -117.9578099,
          34.02607
        ]
      }
    },
    {
      "type": "Feature",
      "properties": {
        "title": "Raymond Ave and Walnut St",
        "tag": "02240",
        "stopId": "2240"
      },
      "geometry": {
        "type": "Point",
        "coordinates": [
          -118.14884,
          34.1488299
        ]
      }
    },
    {
      "type": "Feature",
      "properties": {
        "title": "Green St and Raymond Ave E",
        "tag": "00015",
        "stopId": "15"
      },
      "geometry": {
        "type": "Point",
        "coordinates": [
          -118.1489899,
          34.14445
        ]
      }
    },
    {
      "type": "Feature",
      "properties": {
        "title": "Colorado Blvd and Arroyo Pkwy E",
        "tag": "01054",
        "stopId": "1054"
      },
      "geometry": {
        "type": "Point",
        "coordinates": [
          -118.14697,
          34.14575
        ]
      }
    },
    {
      "type": "Feature",
      "properties": {
        "title": "Colorado Blvd and Garfield Ave E",
        "tag": "01061",
        "stopId": "1061"
      },
      "geometry": {
        "type": "Point",
        "coordinates": [
          -118.14438,
          34.14576
        ]
      }
    },
    {
      "type": "Feature",
      "properties": {
        "title": "Colorado Blvd and Los Robles Ave E",
        "tag": "01070",
        "stopId": "1070"
      },
      "geometry": {
        "type": "Point",
        "coordinates": [
          -118.14115,
          34.14576
        ]
      }
    },
    {
      "type": "Feature",
      "properties": {
        "title": "Colorado Blvd and El Molino Ave E",
        "tag": "01060",
        "stopId": "1060"
      },
      "geometry": {
        "type": "Point",
        "coordinates": [
          -118.13664,
          34.1458299
        ]
      }
    },
    {
      "type": "Feature",
      "properties": {
        "title": "Colorado Blvd and Lake Ave E",
        "tag": "01068",
        "stopId": "1068"
      },
      "geometry": {
        "type": "Point",
        "coordinates": [
          -118.13218,
          34.1458399
        ]
      }
    },
    {
      "type": "Feature",
      "properties": {
        "title": "Colorado Blvd and Catalina Ave E",
        "tag": "01058",
        "stopId": "1058"
      },
      "geometry": {
        "type": "Point",
        "coordinates": [
          -118.1290999,
          34.14585
        ]
      }
    },
    {
      "type": "Feature",
      "properties": {
        "title": "Colorado Blvd and Hill Ave E",
        "tag": "01066",
        "stopId": "1066"
      },
      "geometry": {
        "type": "Point",
        "coordinates": [
          -118.1210299,
          34.14588
        ]
      }
    },
    {
      "type": "Feature",
      "properties": {
        "title": "Colorado Blvd and Sierra Bonita Ave E",
        "tag": "01088",
        "stopId": "1088"
      },
      "geometry": {
        "type": "Point",
        "coordinates": [
          -118.11732,
          34.1458999
        ]
      }
    },
    {
      "type": "Feature",
      "properties": {
        "title": "Colorado Blvd and Allen Ave E",
        "tag": "01052",
        "stopId": "1052"
      },
      "geometry": {
        "type": "Point",
        "coordinates": [
          -118.11338,
          34.1459199
        ]
      }
    },
    {
      "type": "Feature",
      "properties": {
        "title": "Colorado Blvd and Sierra Madre Blvd E",
        "tag": "01089",
        "stopId": "1089"
      },
      "geometry": {
        "type": "Point",
        "coordinates": [
          -118.10121,
          34.14601
        ]
      }
    },
    {
      "type": "Feature",
      "properties": {
        "title": "San Gabriel Blvd and Colorado Blvd E",
        "tag": "02387",
        "stopId": "2387"
      },
      "geometry": {
        "type": "Point",
        "coordinates": [
          -118.0945,
          34.1465699
        ]
      }
    },
    {
      "type": "Feature",
      "properties": {
        "title": "Foothill Blvd and San Gabriel Blvd E",
        "tag": "02801",
        "stopId": "2801"
      },
      "geometry": {
        "type": "Point",
        "coordinates": [
          -118.0938299,
          34.14979
        ]
      }
    },
    {
      "type": "Feature",
      "properties": {
        "title": "Foothill Blvd and Sunnyslope Ave E",
        "tag": "02795",
        "stopId": "2795"
      },
      "geometry": {
        "type": "Point",
        "coordinates": [
          -118.09018,
          34.1498699
        ]
      }
    },
    {
      "type": "Feature",
      "properties": {
        "title": "Foothill Blvd and Santa Paula Ave E",
        "tag": "03129",
        "stopId": "3129"
      },
      "geometry": {
        "type": "Point",
        "coordinates": [
          -118.0850399,
          34.14998
        ]
      }
    },
    {
      "type": "Feature",
      "properties": {
        "title": "Foothill Blvd and Sierra Madre Villa Ave E",
        "tag": "02471",
        "stopId": "2471"
      },
      "geometry": {
        "type": "Point",
        "coordinates": [
          -118.0821699,
          34.14997
        ]
      }
    },
    {
      "type": "Feature",
      "properties": {
        "title": "Rosemead Blvd and Foothill Blvd E",
        "tag": "02796",
        "stopId": "2796"
      },
      "geometry": {
        "type": "Point",
        "coordinates": [
          -118.0735699,
          34.14979
        ]
      }
    },
    {
      "type": "Feature",
      "properties": {
        "title": "Rosemead Blvd and Colorado Blvd E",
        "tag": "01085",
        "stopId": "1085"
      },
      "geometry": {
        "type": "Point",
        "coordinates": [
          -118.0735299,
          34.1460299
        ]
      }
    },
    {
      "type": "Feature",
      "properties": {
        "title": "Rosemead Blvd and Del Mar Blvd",
        "tag": "03685",
        "stopId": "3685"
      },
      "geometry": {
        "type": "Point",
        "coordinates": [
          -118.0735099,
          34.1425599
        ]
      }
    },
    {
      "type": "Feature",
      "properties": {
        "title": "Rosemead Blvd and California Blvd E",
        "tag": "06119",
        "stopId": "6119"
      },
      "geometry": {
        "type": "Point",
        "coordinates": [
          -118.07338,
          34.1341
        ]
      }
    },
    {
      "type": "Feature",
      "properties": {
        "title": "Huntington Dr and Rosemead Blvd E",
        "tag": "02261",
        "stopId": "2261"
      },
      "geometry": {
        "type": "Point",
        "coordinates": [
          -118.07235,
          34.13021
        ]
      }
    },
    {
      "type": "Feature",
      "properties": {
        "title": "Huntington Dr and Sunset Blvd  E",
        "tag": "01818",
        "stopId": "1818"
      },
      "geometry": {
        "type": "Point",
        "coordinates": [
          -118.0647099,
          34.13077
        ]
      }
    },
    {
      "type": "Feature",
      "properties": {
        "title": "Hungtington Dr and Golden West Ave E",
        "tag": "03615",
        "stopId": "3615"
      },
      "geometry": {
        "type": "Point",
        "coordinates": [
          -118.0604299,
          34.13112
        ]
      }
    },
    {
      "type": "Feature",
      "properties": {
        "title": "Huntington Dr and Baldwin Ave E",
        "tag": "01759",
        "stopId": "1759"
      },
      "geometry": {
        "type": "Point",
        "coordinates": [
          -118.05412,
          34.1315799
        ]
      }
    },
    {
      "type": "Feature",
      "properties": {
        "title": "Westfield Santa Anita",
        "tag": "02439",
        "stopId": "2439"
      },
      "geometry": {
        "type": "Point",
        "coordinates": [
          -118.05052,
          34.1329899
        ]
      }
    },
    {
      "type": "Feature",
      "properties": {
        "title": "Huntington Dr and Holly Ave  E",
        "tag": "01781",
        "stopId": "1781"
      },
      "geometry": {
        "type": "Point",
        "coordinates": [
          -118.04618,
          34.13148
        ]
      }
    },
    {
      "type": "Feature",
      "properties": {
        "title": "Huntington Dr and Centennial Way E",
        "tag": "01771",
        "stopId": "1771"
      },
      "geometry": {
        "type": "Point",
        "coordinates": [
          -118.03925,
          34.1359199
        ]
      }
    },
    {
      "type": "Feature",
      "properties": {
        "title": "Huntington Dr and Santa Clara St E",
        "tag": "01814",
        "stopId": "1814"
      },
      "geometry": {
        "type": "Point",
        "coordinates": [
          -118.0347299,
          34.13988
        ]
      }
    },
    {
      "type": "Feature",
      "properties": {
        "title": "Huntington Dr and Santa Anita Ave E",
        "tag": "01812",
        "stopId": "1812"
      },
      "geometry": {
        "type": "Point",
        "coordinates": [
          -118.03125,
          34.1399599
        ]
      }
    },
    {
      "type": "Feature",
      "properties": {
        "title": "Huntington Dr and 1st St E",
        "tag": "01753",
        "stopId": "1753"
      },
      "geometry": {
        "type": "Point",
        "coordinates": [
          -118.0279,
          34.1399999
        ]
      }
    },
    {
      "type": "Feature",
      "properties": {
        "title": "Huntington Dr and 2nd St E",
        "tag": "01755",
        "stopId": "1755"
      },
      "geometry": {
        "type": "Point",
        "coordinates": [
          -118.02459,
          34.1400599
        ]
      }
    },
    {
      "type": "Feature",
      "properties": {
        "title": "Huntington Dr and 5th St E",
        "tag": "01757",
        "stopId": "1757"
      },
      "geometry": {
        "type": "Point",
        "coordinates": [
          -118.02025,
          34.1401099
        ]
      }
    },
    {
      "type": "Feature",
      "properties": {
        "title": "Huntington Dr and Monterey Ave E",
        "tag": "01791",
        "stopId": "1791"
      },
      "geometry": {
        "type": "Point",
        "coordinates": [
          -118.0136799,
          34.14014
        ]
      }
    },
    {
      "type": "Feature",
      "properties": {
        "title": "Huntington Dr and Mayflower Ave E",
        "tag": "01789",
        "stopId": "1789"
      },
      "geometry": {
        "type": "Point",
        "coordinates": [
          -118.01006,
          34.1402199
        ]
      }
    },
    {
      "type": "Feature",
      "properties": {
        "title": "Huntington Dr and Magnolia Ave E",
        "tag": "01787",
        "stopId": "1787"
      },
      "geometry": {
        "type": "Point",
        "coordinates": [
          -118.0054499,
          34.14032
        ]
      }
    },
    {
      "type": "Feature",
      "properties": {
        "title": "Huntington Dr and Myrtle Ave E",
        "tag": "01803",
        "stopId": "1803"
      },
      "geometry": {
        "type": "Point",
        "coordinates": [
          -117.9997299,
          34.14038
        ]
      }
    },
    {
      "type": "Feature",
      "properties": {
        "title": "Huntington Dr and California Ave E",
        "tag": "01769",
        "stopId": "1769"
      },
      "geometry": {
        "type": "Point",
        "coordinates": [
          -117.9952699,
          34.14043
        ]
      }
    },
    {
      "type": "Feature",
      "properties": {
        "title": "Huntington Dr and Shamrock Ave E",
        "tag": "01816",
        "stopId": "1816"
      },
      "geometry": {
        "type": "Point",
        "coordinates": [
          -117.9903999,
          34.1404599
        ]
      }
    },
    {
      "type": "Feature",
      "properties": {
        "title": "Huntington Dr and Mountain E",
        "tag": "01799",
        "stopId": "1799"
      },
      "geometry": {
        "type": "Point",
        "coordinates": [
          -117.98676,
          34.13947
        ]
      }
    },
    {
      "type": "Feature",
      "properties": {
        "title": "Huntington Dr and Mountain Vista Plaza E",
        "tag": "01800",
        "stopId": "1800"
      },
      "geometry": {
        "type": "Point",
        "coordinates": [
          -117.98304,
          34.1395099
        ]
      }
    },
    {
      "type": "Feature",
      "properties": {
        "title": "Huntington Dr and Buena Vista St E",
        "tag": "01767",
        "stopId": "1767"
      },
      "geometry": {
        "type": "Point",
        "coordinates": [
          -117.97721,
          34.13951
        ]
      }
    },
    {
      "type": "Feature",
      "properties": {
        "title": "Huntington Dr and Brycedale Ave E",
        "tag": "01764",
        "stopId": "1764"
      },
      "geometry": {
        "type": "Point",
        "coordinates": [
          -117.9746699,
          34.13956
        ]
      }
    },
    {
      "type": "Feature",
      "properties": {
        "title": "Huntington Dr and Highland Ave E",
        "tag": "01777",
        "stopId": "1777"
      },
      "geometry": {
        "type": "Point",
        "coordinates": [
          -117.96643,
          34.1396099
        ]
      }
    },
    {
      "type": "Feature",
      "properties": {
        "title": "Huntington Dr and Elmhurst Ave E",
        "tag": "01761",
        "stopId": "1761"
      },
      "geometry": {
        "type": "Point",
        "coordinates": [
          -117.9594899,
          34.13961
        ]
      }
    },
    {
      "type": "Feature",
      "properties": {
        "title": "Huntington Dr and Mount Olive Dr E",
        "tag": "01793",
        "stopId": "1793"
      },
      "geometry": {
        "type": "Point",
        "coordinates": [
          -117.95506,
          34.1396599
        ]
      }
    },
    {
      "type": "Feature",
      "properties": {
        "title": "Huntington Dr and Crestfield Dr E",
        "tag": "01772",
        "stopId": "1772"
      },
      "geometry": {
        "type": "Point",
        "coordinates": [
          -117.9518699,
          34.1396799
        ]
      }
    },
    {
      "type": "Feature",
      "properties": {
        "title": "Huntington Dr and Las Lomas Rd E",
        "tag": "01785",
        "stopId": "1785"
      },
      "geometry": {
        "type": "Point",
        "coordinates": [
          -117.94714,
          34.13901
        ]
      }
    },
    {
      "type": "Feature",
      "properties": {
        "title": "Azusa Intermodal Transit Center",
        "tag": "00177",
        "stopId": "177"
      },
      "geometry": {
        "type": "Point",
        "coordinates": [
          -117.90693,
          34.1354399
        ]
      }
    },
    {
      "type": "Feature",
      "properties": {
        "title": "Foothill Blvd and Irwindale Ave W",
        "tag": "01255",
        "stopId": "1255"
      },
      "geometry": {
        "type": "Point",
        "coordinates": [
          -117.93323,
          34.1337799
        ]
      }
    },
    {
      "type": "Feature",
      "properties": {
        "title": "Huntington Dr and Las Lomas Rd W",
        "tag": "01786",
        "stopId": "1786"
      },
      "geometry": {
        "type": "Point",
        "coordinates": [
          -117.94727,
          34.13929
        ]
      }
    },
    {
      "type": "Feature",
      "properties": {
        "title": "Huntington Dr and Crestfield Dr W",
        "tag": "01773",
        "stopId": "1773"
      },
      "geometry": {
        "type": "Point",
        "coordinates": [
          -117.9519499,
          34.1398799
        ]
      }
    },
    {
      "type": "Feature",
      "properties": {
        "title": "Huntington Dr and Mount Olive Dr W",
        "tag": "01794",
        "stopId": "1794"
      },
      "geometry": {
        "type": "Point",
        "coordinates": [
          -117.95603,
          34.1398799
        ]
      }
    },
    {
      "type": "Feature",
      "properties": {
        "title": "Huntington Dr and Bradbourne Ave W",
        "tag": "01762",
        "stopId": "1762"
      },
      "geometry": {
        "type": "Point",
        "coordinates": [
          -117.9595,
          34.1398499
        ]
      }
    },
    {
      "type": "Feature",
      "properties": {
        "title": "Huntington Dr and Highland Ave W",
        "tag": "01780",
        "stopId": "1780"
      },
      "geometry": {
        "type": "Point",
        "coordinates": [
          -117.96732,
          34.1397699
        ]
      }
    },
    {
      "type": "Feature",
      "properties": {
        "title": "Huntington Dr and Cotter Ave",
        "tag": "02792",
        "stopId": "2792"
      },
      "geometry": {
        "type": "Point",
        "coordinates": [
          -117.9730299,
          34.1397799
        ]
      }
    },
    {
      "type": "Feature",
      "properties": {
        "title": "Huntington Dr and Buena Vista St W",
        "tag": "01768",
        "stopId": "1768"
      },
      "geometry": {
        "type": "Point",
        "coordinates": [
          -117.97794,
          34.1397399
        ]
      }
    },
    {
      "type": "Feature",
      "properties": {
        "title": "Huntington Dr and Mountain Vista Plaza W",
        "tag": "01801",
        "stopId": "1801"
      },
      "geometry": {
        "type": "Point",
        "coordinates": [
          -117.9838199,
          34.13968
        ]
      }
    },
    {
      "type": "Feature",
      "properties": {
        "title": "Huntington Dr and Mountain Ave W",
        "tag": "01798",
        "stopId": "1798"
      },
      "geometry": {
        "type": "Point",
        "coordinates": [
          -117.98668,
          34.1396599
        ]
      }
    },
    {
      "type": "Feature",
      "properties": {
        "title": "Huntington Dr and Shamrock Ave W",
        "tag": "01817",
        "stopId": "1817"
      },
      "geometry": {
        "type": "Point",
        "coordinates": [
          -117.99049,
          34.1406599
        ]
      }
    },
    {
      "type": "Feature",
      "properties": {
        "title": "Huntington Dr and California Ave W",
        "tag": "01770",
        "stopId": "1770"
      },
      "geometry": {
        "type": "Point",
        "coordinates": [
          -117.9959499,
          34.1405999
        ]
      }
    },
    {
      "type": "Feature",
      "properties": {
        "title": "Huntington Dr and Myrtle Ave W",
        "tag": "01804",
        "stopId": "1804"
      },
      "geometry": {
        "type": "Point",
        "coordinates": [
          -118.0013399,
          34.14055
        ]
      }
    },
    {
      "type": "Feature",
      "properties": {
        "title": "Huntington Dr and Magnolia Ave W",
        "tag": "01788",
        "stopId": "1788"
      },
      "geometry": {
        "type": "Point",
        "coordinates": [
          -118.0055499,
          34.14049
        ]
      }
    },
    {
      "type": "Feature",
      "properties": {
        "title": "Huntington Dr and Mayflower Ave W",
        "tag": "01790",
        "stopId": "1790"
      },
      "geometry": {
        "type": "Point",
        "coordinates": [
          -118.0093699,
          34.14043
        ]
      }
    },
    {
      "type": "Feature",
      "properties": {
        "title": "Huntington Dr and Monterey Ave W",
        "tag": "01792",
        "stopId": "1792"
      },
      "geometry": {
        "type": "Point",
        "coordinates": [
          -118.0152,
          34.1403699
        ]
      }
    },
    {
      "type": "Feature",
      "properties": {
        "title": "Huntington Dr and 5th St W",
        "tag": "01758",
        "stopId": "1758"
      },
      "geometry": {
        "type": "Point",
        "coordinates": [
          -118.0199799,
          34.14034
        ]
      }
    },
    {
      "type": "Feature",
      "properties": {
        "title": "Huntington Dr and 2nd St W",
        "tag": "01756",
        "stopId": "1756"
      },
      "geometry": {
        "type": "Point",
        "coordinates": [
          -118.0246299,
          34.14023
        ]
      }
    },
    {
      "type": "Feature",
      "properties": {
        "title": "Huntington Dr and 1st St W",
        "tag": "01754",
        "stopId": "1754"
      },
      "geometry": {
        "type": "Point",
        "coordinates": [
          -118.02893,
          34.1401699
        ]
      }
    },
    {
      "type": "Feature",
      "properties": {
        "title": "Huntington Dr and Santa Anita Ave W",
        "tag": "01813",
        "stopId": "1813"
      },
      "geometry": {
        "type": "Point",
        "coordinates": [
          -118.03179,
          34.1401599
        ]
      }
    },
    {
      "type": "Feature",
      "properties": {
        "title": "Huntington Dr and Santa Clara St W",
        "tag": "01815",
        "stopId": "1815"
      },
      "geometry": {
        "type": "Point",
        "coordinates": [
          -118.03487,
          34.1401099
        ]
      }
    },
    {
      "type": "Feature",
      "properties": {
        "title": "Huntington Dr and Santa Anita Medical Plaza W",
        "tag": "01782",
        "stopId": "1782"
      },
      "geometry": {
        "type": "Point",
        "coordinates": [
          -118.0425899,
          34.13475
        ]
      }
    },
    {
      "type": "Feature",
      "properties": {
        "title": "Huntington Dr and Holly Ave W",
        "tag": "01784",
        "stopId": "1784"
      },
      "geometry": {
        "type": "Point",
        "coordinates": [
          -118.0465199,
          34.1318699
        ]
      }
    },
    {
      "type": "Feature",
      "properties": {
        "title": "Huntington Dr and Baldwin Ave W",
        "tag": "01760",
        "stopId": "1760"
      },
      "geometry": {
        "type": "Point",
        "coordinates": [
          -118.0548999,
          34.1319
        ]
      }
    },
    {
      "type": "Feature",
      "properties": {
        "title": "Hungtington Dr and Golden West Ave W",
        "tag": "03614",
        "stopId": "3614"
      },
      "geometry": {
        "type": "Point",
        "coordinates": [
          -118.06113,
          34.1313999
        ]
      }
    },
    {
      "type": "Feature",
      "properties": {
        "title": "Huntington Dr and Sunset Blvd W",
        "tag": "01776",
        "stopId": "1776"
      },
      "geometry": {
        "type": "Point",
        "coordinates": [
          -118.0656399,
          34.13109
        ]
      }
    },
    {
      "type": "Feature",
      "properties": {
        "title": "Rosemead Blvd and Huntington Dr W",
        "tag": "01775",
        "stopId": "1775"
      },
      "geometry": {
        "type": "Point",
        "coordinates": [
          -118.07301,
          34.1310999
        ]
      }
    },
    {
      "type": "Feature",
      "properties": {
        "title": "Rosemead Blvd and California Blvd W",
        "tag": "06118",
        "stopId": "6118"
      },
      "geometry": {
        "type": "Point",
        "coordinates": [
          -118.07305,
          34.13522
        ]
      }
    },
    {
      "type": "Feature",
      "properties": {
        "title": "Rosemead Blvd and Blanche St",
        "tag": "03686",
        "stopId": "3686"
      },
      "geometry": {
        "type": "Point",
        "coordinates": [
          -118.07315,
          34.14268
        ]
      }
    },
    {
      "type": "Feature",
      "properties": {
        "title": "Rosemead Blvd and Colorado Blvd W",
        "tag": "02793",
        "stopId": "2793"
      },
      "geometry": {
        "type": "Point",
        "coordinates": [
          -118.0732199,
          34.1466299
        ]
      }
    },
    {
      "type": "Feature",
      "properties": {
        "title": "Foothill Blvd and Rosemead Blvd W",
        "tag": "01293",
        "stopId": "1293"
      },
      "geometry": {
        "type": "Point",
        "coordinates": [
          -118.07395,
          34.1502699
        ]
      }
    },
    {
      "type": "Feature",
      "properties": {
        "title": "Foothill Blvd and Sierra Madre Villa Ave W",
        "tag": "01304",
        "stopId": "1304"
      },
      "geometry": {
        "type": "Point",
        "coordinates": [
          -118.08209,
          34.1501699
        ]
      }
    },
    {
      "type": "Feature",
      "properties": {
        "title": "Foothill Blvd and Santa Paula Ave W",
        "tag": "03128",
        "stopId": "3128"
      },
      "geometry": {
        "type": "Point",
        "coordinates": [
          -118.0854799,
          34.15007
        ]
      }
    },
    {
      "type": "Feature",
      "properties": {
        "title": "Foothill Blvd and Sunnyslope Ave W",
        "tag": "01310",
        "stopId": "1310"
      },
      "geometry": {
        "type": "Point",
        "coordinates": [
          -118.0908399,
          34.1500499
        ]
      }
    },
    {
      "type": "Feature",
      "properties": {
        "title": "San Gabriel Blvd and Foothill Blvd  W",
        "tag": "02794",
        "stopId": "2794"
      },
      "geometry": {
        "type": "Point",
        "coordinates": [
          -118.09441,
          34.1496099
        ]
      }
    },
    {
      "type": "Feature",
      "properties": {
        "title": "Colorado Blvd and San Gabriel Blvd W",
        "tag": "01086",
        "stopId": "1086"
      },
      "geometry": {
        "type": "Point",
        "coordinates": [
          -118.0949,
          34.1462299
        ]
      }
    },
    {
      "type": "Feature",
      "properties": {
        "title": "Colorado Blvd and Sierra Madre Blvd W",
        "tag": "01090",
        "stopId": "1090"
      },
      "geometry": {
        "type": "Point",
        "coordinates": [
          -118.1021099,
          34.1461899
        ]
      }
    },
    {
      "type": "Feature",
      "properties": {
        "title": "Colorado Blvd and Allen Ave W",
        "tag": "01053",
        "stopId": "1053"
      },
      "geometry": {
        "type": "Point",
        "coordinates": [
          -118.1134499,
          34.1461099
        ]
      }
    },
    {
      "type": "Feature",
      "properties": {
        "title": "Colorado Blvd and Hill Ave W",
        "tag": "01067",
        "stopId": "1067"
      },
      "geometry": {
        "type": "Point",
        "coordinates": [
          -118.1217399,
          34.14606
        ]
      }
    },
    {
      "type": "Feature",
      "properties": {
        "title": "Colorado Blvd and Catalina Ave W",
        "tag": "01059",
        "stopId": "1059"
      },
      "geometry": {
        "type": "Point",
        "coordinates": [
          -118.1296699,
          34.1460099
        ]
      }
    },
    {
      "type": "Feature",
      "properties": {
        "title": "Colorado Blvd and Lake Ave W",
        "tag": "01069",
        "stopId": "1069"
      },
      "geometry": {
        "type": "Point",
        "coordinates": [
          -118.13303,
          34.1459299
        ]
      }
    },
    {
      "type": "Feature",
      "properties": {
        "title": "Colorado Blvd and Madison Ave W",
        "tag": "03005",
        "stopId": "3005"
      },
      "geometry": {
        "type": "Point",
        "coordinates": [
          -118.13864,
          34.1459999
        ]
      }
    },
    {
      "type": "Feature",
      "properties": {
        "title": "Colorado Blvd and Los Robles Ave W",
        "tag": "01071",
        "stopId": "1071"
      },
      "geometry": {
        "type": "Point",
        "coordinates": [
          -118.1417499,
          34.14588
        ]
      }
    },
    {
      "type": "Feature",
      "properties": {
        "title": "Colorado Blvd and Garfield Ave W",
        "tag": "01063",
        "stopId": "1063"
      },