{
  "type": "FeatureCollection",
  "features": [
    {
      "type": "Feature",
      "properties": {
        "title": "Lincoln Way at Beach Ave.",
        "tag": "2000",
        "stopId": "2000"
      },
      "geometry": {
        "type": "Point",
        "coordinates": [
          -93.639,
          42.0225899
        ]
      }
    },
    {
      "type": "Feature",
      "properties": {
        "title": "Lincoln Way at Beach Ave.",
        "tag": "2001",
        "stopId": "2001"
      },
      "geometry": {
        "type": "Point",
        "coordinates": [
          -93.64004,
          42.0228899
        ]
      }
    },
    {
      "type": "Feature",
      "properties": {
        "title": "Buchanan Hall",
        "tag": "2010",
        "stopId": "2010"
      },
      "geometry": {
        "type": "Point",
        "coordinates": [
          -93.6424499,
          42.02265
        ]
      }
    },
    {
      "type": "Feature",
      "properties": {
        "title": "Lincoln Way at Union Dr.",
        "tag": "2011",
        "stopId": "2011"
      },
      "geometry": {
        "type": "Point",
        "coordinates": [
          -93.64224,
          42.0228799
        ]
      }
    },
    {
      "type": "Feature",
      "properties": {
        "title": "Lincoln Way at Lynn Ave.",
        "tag": "2020",
        "stopId": "2020"
      },
      "geometry": {
        "type": "Point",
        "coordinates": [
          -93.6457299,
          42.02263
        ]
      }
    },
    {
      "type": "Feature",
      "properties": {
        "title": "Lincoln Way at Lynn Ave.",
        "tag": "2021",
        "stopId": "2021"
      },
      "geometry": {
        "type": "Point",
        "coordinates": [
          -93.6469599,
          42.0228999
        ]
      }
    },
    {
      "type": "Feature",
      "properties": {
        "title": "Kingland Systems",
        "tag": "2030",
        "stopId": "2030"
      },
      "geometry": {
        "type": "Point",
        "coordinates": [
          -93.64918,
          42.02267
        ]
      }
    },
    {
      "type": "Feature",
      "properties": {
        "title": "Lake Laverne",
        "tag": "2040",
        "stopId": "2040"
      },
      "geometry": {
        "type": "Point",
        "coordinates": [
          -93.64953,
          42.0235199
        ]
      }
    },
    {
      "type": "Feature",
      "properties": {
        "title": "Lower Friley",
        "tag": "2041",
        "stopId": "2041"
      },
      "geometry": {
        "type": "Point",
        "coordinates": [
          -93.6498899,
          42.0235599
        ]
      }
    },
    {
      "type": "Feature",
      "properties": {
        "title": "Upper Friley",
        "tag": "2050",
        "stopId": "2050"
      },
      "geometry": {
        "type": "Point",
        "coordinates": [
          -93.6505399,
          42.02495
        ]
      }
    },
    {
      "type": "Feature",
      "properties": {
        "title": "Student Services",
        "tag": "2051",
        "stopId": "2051"
      },
      "geometry": {
        "type": "Point",
        "coordinates": [
          -93.6506999,
          42.0252399
        ]
      }
    },
    {
      "type": "Feature",
      "properties": {
        "title": "State Gym",
        "tag": "2060",
        "stopId": "2060"
      },
      "geometry": {
        "type": "Point",
        "coordinates": [
          -93.65269,
          42.0252899
        ]
      }
    },
    {
      "type": "Feature",
      "properties": {
        "title": "Beyer Hall",
        "tag": "2061",
        "stopId": "2061"
      },
      "geometry": {
        "type": "Point",
        "coordinates": [
          -93.65296,
          42.0254699
        ]
      }
    },
    {
      "type": "Feature",
      "properties": {
        "title": "West St. at Hyland Ave.",
        "tag": "2070",
        "stopId": "2070"
      },
      "geometry": {
        "type": "Point",
        "coordinates": [
          -93.65523,
          42.02528
        ]
      }
    },
    {
      "type": "Feature",
      "properties": {
        "title": "West St. at Hyland Ave.",
        "tag": "2071",
        "stopId": "2071"
      },
      "geometry": {
        "type": "Point",
        "coordinates": [
          -93.6554299,
          42.0254199
        ]
      }
    },
    {
      "type": "Feature",
      "properties": {
        "title": "Morrill Rd. at Union Dr.",
        "tag": "2100",
        "stopId": "2100"
      },
      "geometry": {
        "type": "Point",
        "coordinates": [
          -93.64697,
          42.0243699
        ]
      }
    },
    {
      "type": "Feature",
      "properties": {
        "title": "Morrill Rd. at Memorial Union",
        "tag": "2101",
        "stopId": "2101"
      },
      "geometry": {
        "type": "Point",
        "coordinates": [
          -93.6467599,
          42.02374
        ]
      }
    },
    {
      "type": "Feature",
      "properties": {
        "title": "Lake Laverne",
        "tag": "2110",
        "stopId": "2110"
      },
      "geometry": {
        "type": "Point",
        "coordinates": [
          -93.649,
          42.024
        ]
      }
    },
    {
      "type": "Feature",
      "properties": {
        "title": "Maple Hall",
        "tag": "2200",
        "stopId": "2200"
      },
      "geometry": {
        "type": "Point",
        "coordinates": [
          -93.63919,
          42.0238299
        ]
      }
    },
    {
      "type": "Feature",
      "properties": {
        "title": "Beach Rd. at Linden Hall",
        "tag": "2201",
        "stopId": "2201"
      },
      "geometry": {
        "type": "Point",
        "coordinates": [
          -93.6395599,
          42.02323
        ]
      }
    },
    {
      "type": "Feature",
      "properties": {
        "title": "Lied Recreation",
        "tag": "2210",
        "stopId": "2210"
      },
      "geometry": {
        "type": "Point",
        "coordinates": [
          -93.63888,
          42.0264299
        ]
      }
    },
    {
      "type": "Feature",
      "properties": {
        "title": "Beach Rd. at Forker Hall",
        "tag": "2211",
        "stopId": "2211"
      },
      "geometry": {
        "type": "Point",
        "coordinates": [
          -93.6390699,
          42.0261499
        ]
      }
    },
    {
      "type": "Feature",
      "properties": {
        "title": "General Serivces South",
        "tag": "2221",
        "stopId": "2221"
      },
      "geometry": {
        "type": "Point",
        "coordinates": [
          -93.6406799,
          42.0273399
        ]
      }
    },
    {
      "type": "Feature",
      "properties": {
        "title": "General Serivces West",
        "tag": "2230",
        "stopId": "2230"
      },
      "geometry": {
        "type": "Point",
        "coordinates": [
          -93.6414,
          42.0281699
        ]
      }
    },
    {
      "type": "Feature",
      "properties": {
        "title": "Agronomy Hall",
        "tag": "2231",
        "stopId": "2231"
      },
      "geometry": {
        "type": "Point",
        "coordinates": [
          -93.6416199,
          42.02819
        ]
      }
    },
    {
      "type": "Feature",
      "properties": {
        "title": "Parks Library",
        "tag": "2241",
        "stopId": "2241"
      },
      "geometry": {
        "type": "Point",
        "coordinates": [
          -93.6481099,
          42.02791
        ]
      }
    },
    {
      "type": "Feature",
      "properties": {
        "title": "Beardshear Hall",
        "tag": "2251",
        "stopId": "2251"
      },
      "geometry": {
        "type": "Point",
        "coordinates": [
          -93.6480699,
          42.02606
        ]
      }
    },
    {
      "type": "Feature",
      "properties": {
        "title": "Memorial Union",
        "tag": "2260",
        "stopId": "2260"
      },
      "geometry": {
        "type": "Point",
        "coordinates": [
          -93.64618,
          42.0246799
        ]
      }
    },
    {
      "type": "Feature",
      "properties": {
        "title": "Memorial Union",
        "tag": "2261",
        "stopId": "2261"
      },
      "geometry": {
        "type": "Point",
        "coordinates": [
          -93.64597,
          42.0245
        ]
      }
    },
    {
      "type": "Feature",
      "properties": {
        "title": "Wallace Rd. at Gerdin Hall",
        "tag": "2270",
        "stopId": "2270"
      },
      "geometry": {
        "type": "Point",
        "coordinates": [
          -93.6438199,
          42.0252499
        ]
      }
    },
    {
      "type": "Feature",
      "properties": {
        "title": "Wallace Rd. at Gerdin Hall",
        "tag": "2271",
        "stopId": "2271"
      },
      "geometry": {
        "type": "Point",
        "coordinates": [
          -93.6434099,
          42.0254
        ]
      }
    },
    {
      "type": "Feature",
      "properties": {
        "title": "Food Science",
        "tag": "2280",
        "stopId": "2280"
      },
      "geometry": {
        "type": "Point",
        "coordinates": [
          -93.6422999,
          42.0264699
        ]
      }
    },
    {
      "type": "Feature",
      "properties": {
        "title": "Wallace Rd. at Forker Hall",
        "tag": "2281",
        "stopId": "2281"
      },
      "geometry": {
        "type": "Point",
        "coordinates": [
          -93.64194,
          42.02662
        ]
      }
    },
    {
      "type": "Feature",
      "properties": {
        "title": "Beach Ave. at Lincoln Way",
        "tag": "2301",
        "stopId": "2301"
      },
      "geometry": {
        "type": "Point",
        "coordinates": [
          -93.63958,
          42.0223199
        ]
      }
    },
    {
      "type": "Feature",
      "properties": {
        "title": "Union Drive at the Knoll",
        "tag": "2311",
        "stopId": "2311"
      },
      "geometry": {
        "type": "Point",
        "coordinates": [
          -93.6430899,
          42.02386
        ]
      }
    },
    {
      "type": "Feature",
      "properties": {
        "title": "University Blvd. at Stange Rd.",
        "tag": "2490",
        "stopId": "2490"
      },
      "geometry": {
        "type": "Point",
        "coordinates": [
          -93.6436499,
          42.03043
        ]
      }
    },
    {
      "type": "Feature",
      "properties": {
        "title": "University Blvd. at Stange Rd.",
        "tag": "2491",
        "stopId": "2491"
      },
      "geometry": {
        "type": "Point",
        "coordinates": [
          -93.64403,
          42.0306399
        ]
      }
    },
    {
      "type": "Feature",
      "properties": {
        "title": "Bessey Hall",
        "tag": "2500",
        "stopId": "2500"
      },
      "geometry": {
        "type": "Point",
        "coordinates": [
          -93.644,
          42.0288199
        ]
      }
    },
    {
      "type": "Feature",
      "properties": {
        "title": "Kildee Hall",
        "tag": "2501",
        "stopId": "2501"
      },
      "geometry": {
        "type": "Point",
        "coordinates": [
          -93.64445,
          42.0289399
        ]
      }
    },
    {
      "type": "Feature",
      "properties": {
        "title": "Physics Hall",
        "tag": "2511",
        "stopId": "2511"
      },
      "geometry": {
        "type": "Point",
        "coordinates": [
          -93.64687,
          42.0289499
        ]
      }
    },
    {
      "type": "Feature",
      "properties": {
        "title": "Parks Library",
        "tag": "2520",
        "stopId": "2520"
      },
      "geometry": {
        "type": "Point",
        "coordinates": [
          -93.64855,
          42.02882
        ]
      }
    },
    {
      "type": "Feature",
      "properties": {
        "title": "Gilman Hall",
        "tag": "2521",
        "stopId": "2521"
      },
      "geometry": {
        "type": "Point",
        "coordinates": [
          -93.6488799,
          42.0289699
        ]
      }
    },
    {
      "type": "Feature",
      "properties": {
        "title": "Coover Hall",
        "tag": "2530",
        "stopId": "2530"
      },
      "geometry": {
        "type": "Point",
        "coordinates": [
          -93.6508199,
          42.02881
        ]
      }
    },
    {
      "type": "Feature",
      "properties": {
        "title": "Armory",
        "tag": "2531",
        "stopId": "2531"
      },
      "geometry": {
        "type": "Point",
        "coordinates": [
          -93.6509899,
          42.0289599
        ]
      }
    },
    {
      "type": "Feature",
      "properties": {
        "title": "Sweeney Hall",
        "tag": "2540",
        "stopId": "2540"
      },
      "geometry": {
        "type": "Point",
        "coordinates": [
          -93.65176,
          42.0276599
        ]
      }
    },
    {
      "type": "Feature",
      "properties": {
        "title": "Howe Hall",
        "tag": "2541",
        "stopId": "2541"
      },
      "geometry": {
        "type": "Point",
        "coordinates": [
          -93.6520699,
          42.02747
        ]
      }
    },
    {
      "type": "Feature",
      "properties": {
        "title": "Mortensen Rd. at West Bus Turnaround",
        "tag": "3261",
        "stopId": "3261"
      },
      "geometry": {
        "type": "Point",
        "coordinates": [
          -93.69577,
          42.0154999
        ]
      }
    },
    {
      "type": "Feature",
      "properties": {
        "title": "Mortensen Rd. at Wilder Blvd.",
        "tag": "3270",
        "stopId": "3270"
      },
      "geometry": {
        "type": "Point",
        "coordinates": [
          -93.68883,
          42.0136
        ]
      }
    },
    {
      "type": "Feature",
      "properties": {
        "title": "Mortensen Rd. at Wilder Blvd.",
        "tag": "3271",
        "stopId": "3271"
      },
      "geometry": {
        "type": "Point",
        "coordinates": [
          -93.68923,
          42.0138799
        ]
      }
    },
    {
      "type": "Feature",
      "properties": {
        "title": "Mortensen Rd. at Miller Ave.",
        "tag": "3280",
        "stopId": "3280"
      },
      "geometry": {
        "type": "Point",
        "coordinates": [
          -93.6866099,
          42.0134799
        ]
      }
    },
    {
      "type": "Feature",
      "properties": {
        "title": "Mortensen Rd. at Miller Ave.",
        "tag": "3281",
        "stopId": "3281"
      },
      "geometry": {
        "type": "Point",
        "coordinates": [
          -93.68721,
          42.0138399
        ]
      }
    },
    {
      "type": "Feature",
      "properties": {
        "title": "Mortensen Rd. at Poe Ave.",
        "tag": "3290",
        "stopId": "3290"
      },
      "geometry": {
        "type": "Point",
        "coordinates": [
          -93.6844499,
          42.0128
        ]
      }
    },
    {
      "type": "Feature",
      "properties": {
        "title": "Mortensen Rd. at Poe Ave.",
        "tag": "3291",
        "stopId": "3291"
      },
      "geometry": {
        "type": "Point",
        "coordinates": [
          -93.68466,
          42.01313
        ]
      }
    },
    {
      "type": "Feature",
      "properties": {
        "title": "Mortensen Rd. at Coconino Rd.",
        "tag": "3300",
        "stopId": "3300"
      },
      "geometry": {
        "type": "Point",
        "coordinates": [
          -93.67579,
          42.01196
        ]
      }
    },
    {
      "type": "Feature",
      "properties": {
        "title": "Mortensen Rd. at Pinon Rd.",
        "tag": "3301",
        "stopId": "3301"
      },
      "geometry": {
        "type": "Point",
        "coordinates": [
          -93.6751099,
          42.0121699
        ]
      }
    },
    {
      "type": "Feature",
      "properties": {
        "title": "Mortensen Rd. at Dotson Dr.",
        "tag": "3310",
        "stopId": "3310"
      },
      "geometry": {
        "type": "Point",
        "coordinates": [
          -93.6735499,
          42.01197
        ]
      }
    },
    {
      "type": "Feature",
      "properties": {
        "title": "Mortensen Rd. at Seagrave Blvd.",
        "tag": "3320",
        "stopId": "3320"
      },
      "geometry": {
        "type": "Point",
        "coordinates": [
          -93.6708199,
          42.01193
        ]
      }
    },
    {
      "type": "Feature",
      "properties": {
        "title": "Mortensen Rd. at Seagrave Blvd.",
        "tag": "3321",
        "stopId": "3321"
      },
      "geometry": {
        "type": "Point",
        "coordinates": [
          -93.67202,
          42.0121399
        ]
      }
    },
    {
      "type": "Feature",
      "properties": {
        "title": "Ames Middle School",
        "tag": "3333",
        "stopId": "3333"
      },
      "geometry": {
        "type": "Point",
        "coordinates": [
          -93.6715,
          42.0122499
        ]
      }
    },
    {
      "type": "Feature",
      "properties": {
        "title": "Alcott Ave. at Todd Dr.",
        "tag": "3440",
        "stopId": "3440"
      },
      "geometry": {
        "type": "Point",
        "coordinates": [
          -93.68212,
          42.0222499
        ]
      }
    },
    {
      "type": "Feature",
      "properties": {
        "title": "Todd Dr. at Thackery Ave.",
        "tag": "3450",
        "stopId": "3450"
      },
      "geometry": {
        "type": "Point",
        "coordinates": [
          -93.68448,
          42.02185
        ]
      }
    },
    {
      "type": "Feature",
      "properties": {
        "title": "Lincoln Way at Alcott Ave.",
        "tag": "3461",
        "stopId": "3461"
      },
      "geometry": {
        "type": "Point",
        "coordinates": [
          -93.68241,
          42.0230499
        ]
      }
    },
    {
      "type": "Feature",
      "properties": {
        "title": "Dickenson Ave. at Mortensen Rd.",
        "tag": "3470",
        "stopId": "3470"
      },
      "geometry": {
        "type": "Point",
        "coordinates": [
          -93.68155,
          42.0126399
        ]
      }
    },
    {
      "type": "Feature",
      "properties": {
        "title": "Dickenson Ave. at Steinbeck St.",
        "tag": "3480",
        "stopId": "3480"
      },
      "geometry": {
        "type": "Point",
        "coordinates": [
          -93.68101,
          42.01401
        ]
      }
    },
    {
      "type": "Feature",
      "properties": {
        "title": "Steinbeck St. at S. Dakota Ave.",
        "tag": "3490",
        "stopId": "3490"
      },
      "geometry": {
        "type": "Point",
        "coordinates": [
          -93.67916,
          42.01445
        ]
      }
    },
    {
      "type": "Feature",
      "properties": {
        "title": "S. Dakota Ave. at Clemens Blvd.",
        "tag": "3500",
        "stopId": "3500"
      },
      "geometry": {
        "type": "Point",
        "coordinates": [
          -93.67855,
          42.0181199
        ]
      }
    },
    {
      "type": "Feature",
      "properties": {
        "title": "S. Dakota Ave. at Clemens Blvd.",
        "tag": "3501",
        "stopId": "3501"
      },
      "geometry": {
        "type": "Point",
        "coordinates": [
          -93.6787999,
          42.0176499
        ]
      }
    },
    {
      "type": "Feature",
      "properties": {
        "title": "S. Dakota Ave. at Todd Dr.",
        "tag": "3510",
        "stopId": "3510"
      },
      "geometry": {
        "type": "Point",
        "coordinates": [
          -93.67859,
          42.02145
        ]
      }
    },
    {
      "type": "Feature",
      "properties": {
        "title": "S. Dakota Ave. at Todd Dr.",
        "tag": "3511",
        "stopId": "3511"
      },
      "geometry": {
        "type": "Point",
        "coordinates": [
          -93.6788499,
          42.0211199
        ]
      }
    },
    {
      "type": "Feature",
      "properties": {
        "title": "S. Dakota Ave. at Lincoln Swing",
        "tag": "3521",
        "stopId": "3521"
      },
      "geometry": {
        "type": "Point",
        "coordinates": [
          -93.67885,
          42.0222099
        ]
      }
    },
    {
      "type": "Feature",
      "properties": {
        "title": "Lincoln Way at S. Dakota Ave.",
        "tag": "3530",
        "stopId": "3530"
      },
      "geometry": {
        "type": "Point",
        "coordinates": [
          -93.67821,
          42.02286
        ]
      }
    },
    {
      "type": "Feature",
      "properties": {
        "title": "Lincoln Way at N. Dakota Ave.",
        "tag": "3531",
        "stopId": "3531"
      },
      "geometry": {
        "type": "Point",
        "coordinates": [
          -93.6791599,
          42.0230799
        ]
      }
    },
    {
      "type": "Feature",
      "properties": {
        "title": "Lincoln Way at Beedle Dr.",
        "tag": "3540",
        "stopId": "3540"
      },
      "geometry": {
        "type": "Point",
        "coordinates": [
          -93.67275,
          42.0227999
        ]
      }
    },
    {
      "type": "Feature",
      "properties": {
        "title": "Lincoln Way at Hickory Dr.",
        "tag": "3541",
        "stopId": "3541"
      },
      "geometry": {
        "type": "Point",
        "coordinates": [
          -93.6735699,
          42.0230399
        ]
      }
    },
    {
      "type": "Feature",
      "properties": {
        "title": "Lincoln Way at Marshall Ave.",
        "tag": "3550",
        "stopId": "3550"
      },
      "geometry": {
        "type": "Point",
        "coordinates": [
          -93.6684799,
          42.02271
        ]
      }
    },
    {
      "type": "Feature",
      "properties": {
        "title": "Lincoln Way at Marshall Ave.",
        "tag": "3551",
        "stopId": "3551"
      },
      "geometry": {
        "type": "Point",
        "coordinates": [
          -93.66994,
          42.0229899
        ]
      }
    },
    {
      "type": "Feature",
      "properties": {
        "title": "Lincoln Way at S. Franklin Ave.",
        "tag": "3560",
        "stopId": "3560"
      },
      "geometry": {
        "type": "Point",
        "coordinates": [
          -93.66429,
          42.02272
        ]
      }
    },
    {
      "type": "Feature",
      "properties": {
        "title": "Lincoln Way at Franklin Ave.",
        "tag": "3561",
        "stopId": "3561"
      },
      "geometry": {
        "type": "Point",
        "coordinates": [
          -93.66559,
          42.0229099
        ]
      }
    },
    {
      "type": "Feature",
      "properties": {
        "title": "Lincoln Way at S. Wilmoth Ave.",
        "tag": "3570",
        "stopId": "3570"
      },
      "geometry": {
        "type": "Point",
        "coordinates": [
          -93.6613399,
          42.02267
        ]
      }
    },
    {
      "type": "Feature",
      "properties": {
        "title": "Lincoln Way at Wilmoth Ave.",
        "tag": "3571",
        "stopId": "3571"
      },
      "geometry": {
        "type": "Point",
        "coordinates": [
          -93.66207,
          42.0228599
        ]
      }
    },
    {
      "type": "Feature",
      "properties": {
        "title": "Lincoln Way at State Ave.",
        "tag": "3580",
        "stopId": "3580"
      },
      "geometry": {
        "type": "Point",
        "coordinates": [
          -93.65847,
          42.02264
        ]
      }
    },
    {
      "type": "Feature",
      "properties": {
        "title": "Lincoln Way at State Ave.",
        "tag": "3581",
        "stopId": "3581"
      },
      "geometry": {
        "type": "Point",
        "coordinates": [
          -93.65942,
          42.0228099
        ]
      }
    },
    {
      "type": "Feature",
      "properties": {
        "title": "Hyland Ave. at Lincoln Way",
        "tag": "3590",
        "stopId": "3590"
      },
      "geometry": {
        "type": "Point",
        "coordinates": [
          -93.6555,
          42.0231499
        ]
      }
    },
    {
      "type": "Feature",
      "properties": {
        "title": "Hyland Ave. at Lincoln Way",
        "tag": "3591",
        "stopId": "3591"
      },
      "geometry": {
        "type": "Point",
        "coordinates": [
          -93.6556999,
          42.02302
        ]
      }
    },
    {
      "type": "Feature",
      "properties": {
        "title": "Lincoln Way at Sheldon Ave.",
        "tag": "3700",
        "stopId": "3700"
      },
      "geometry": {
        "type": "Point",
        "coordinates": [
          -93.6532699,
          42.02266
        ]
      }
    },
    {
      "type": "Feature",
      "properties": {
        "title": "Hyland Ave. at Sheldon",
        "tag": "3800",
        "stopId": "3800"
      },
      "geometry": {
        "type": "Point",
        "coordinates": [
          -93.65558,
          42.0285399
        ]
      }
    },
    {
      "type": "Feature",
      "properties": {
        "title": "Hyland Ave. at Oakland St.",
        "tag": "3801",
        "stopId": "3801"
      },
      "geometry": {
        "type": "Point",
        "coordinates": [
          -93.6558099,
          42.0284399
        ]
      }
    },
    {
      "type": "Feature",
      "properties": {
        "title": "Hyland Ave. at Forest Hills Dr.",
        "tag": "3810",
        "stopId": "3810"
      },
      "geometry": {
        "type": "Point",
        "coordinates": [
          -93.65556,
          42.03084
        ]
      }
    },
    {
      "type": "Feature",
      "properties": {
        "title": "Hyland Ave. at Forest Hills Dr.",
        "tag": "3811",
        "stopId": "3811"
      },
      "geometry": {
        "type": "Point",
        "coordinates": [
          -93.6557799,
          42.0310099
        ]
      }
    },
    {
      "type": "Feature",
      "properties": {
        "title": "Hyland Ave. at Ross Rd.",
        "tag": "3820",
        "stopId": "3820"
      },
      "geometry": {
        "type": "Point",
        "coordinates": [
          -93.65551,
          42.0333099
        ]
      }
    },
    {
      "type": "Feature",
      "properties": {
        "title": "Hyland Ave. at Ontario St.",
        "tag": "3831",
        "stopId": "3831"
      },
      "geometry": {
        "type": "Point",
        "coordinates": [
          -93.6557299,
          42.03407
        ]
      }
    },
    {
      "type": "Feature",
      "properties": {
        "title": "Ontario St. at Hyland Ave.",
        "tag": "3841",
        "stopId": "3841"
      },
      "geometry": {
        "type": "Point",
        "coordinates": [
          -93.65714,
          42.0345499
        ]
      }
    },
    {
      "type": "Feature",
      "properties": {
        "title": "Ontario St. at Iowa Ave.",
        "tag": "3850",
        "stopId": "3850"
      },
      "geometry": {
        "type": "Point",
        "coordinates": [
          -93.6589099,
          42.03439
        ]
      }
    },
    {
      "type": "Feature",
      "properties": {
        "title": "Ontario St. at Iowa Cir.",
        "tag": "3851",
        "stopId": "3851"
      },
      "geometry": {
        "type": "Point",
        "coordinates": [
          -93.6595799,
          42.0345499
        ]
      }
    },
    {
      "type": "Feature",
      "properties": {
        "title": "Ontario St. at Wisconsin Ave.",
        "tag": "3860",
        "stopId": "3860"
      },
      "geometry": {
        "type": "Point",
        "coordinates": [
          -93.6613599,
          42.03439
        ]
      }
    },
    {
      "type": "Feature",
      "properties": {
        "title": "Ontario St. at Minnesota Ave.",
        "tag": "3861",
        "stopId": "3861"
      },
      "geometry": {
        "type": "Point",
        "coordinates": [
          -93.6625399,
          42.03455
        ]
      }
    },
    {
      "type": "Feature",
      "properties": {
        "title": "Ontario St. at Scholl Rd.",
        "tag": "3870",
        "stopId": "3870"
      },
      "geometry": {
        "type": "Point",
        "coordinates": [
          -93.66514,
          42.03439
        ]
      }
    },
    {
      "type": "Feature",
      "properties": {
        "title": "Ontario St. at Scholl Rd.",
        "tag": "3871",
        "stopId": "3871"
      },
      "geometry": {
        "type": "Point",
        "coordinates": [
          -93.66578,
          42.0345499
        ]
      }
    },
    {
      "type": "Feature",
      "properties": {
        "title": "Ontario St. at Garfield Ave.",
        "tag": "3880",
        "stopId": "3880"
      },
      "geometry": {
        "type": "Point",
        "coordinates": [
          -93.66821,
          42.0343999
        ]
      }
    },
    {
      "type": "Feature",
      "properties": {
        "title": "Ontario St. at Garfield Ave.",
        "tag": "3881",
        "stopId": "3881"
      },
      "geometry": {
        "type": "Point",
        "coordinates": [
          -93.67004,
          42.0345699
        ]
      }
    },
    {
      "type": "Feature",
      "properties": {
        "title": "Ontario St. at Alabama Ln.",
        "tag": "3890",
        "stopId": "3890"
      },
      "geometry": {
        "type": "Point",
        "coordinates": [
          -93.67192,
          42.03441
        ]
      }
    },
    {
      "type": "Feature",
      "properties": {
        "title": "Ontario St. at Alabama Ln.",
        "tag": "3891",
        "stopId": "3891"
      },
      "geometry": {
        "type": "Point",
        "coordinates": [
          -93.67228,
          42.0346199
        ]
      }
    },
    {
      "type": "Feature",
      "properties": {
        "title": "Ontario St. at Arizona Ave.",
        "tag": "3894",
        "stopId": "3894"
      },
      "geometry": {
        "type": "Point",
        "coordinates": [
          -93.6746999,
          42.03446
        ]
      }
    },
    {
      "type": "Feature",
      "properties": {
        "title": "Ontario St. at Woodstock Ave.",
        "tag": "3900",
        "stopId": "3900"
      },
      "geometry": {
        "type": "Point",
        "coordinates": [
          -93.67694,
          42.0346499
        ]
      }
    },
    {
      "type": "Feature",
      "properties": {
        "title": "Ontario St. at Sawyer School",
        "tag": "3901",
        "stopId": "3901"
      },
      "geometry": {
        "type": "Point",
        "coordinates": [
          -93.67727,
          42.03445
        ]
      }
    },
    {
      "type": "Feature",
      "properties": {
        "title": "Ontario St. at Delaware Ave.",
        "tag": "3910",
        "stopId": "3910"
      },
      "geometry": {
        "type": "Point",
        "coordinates": [
          -93.68014,
          42.03449
        ]
      }
    },
    {
      "type": "Feature",
      "properties": {
        "title": "Ontario St. at Delaware Ave.",
        "tag": "3911",
        "stopId": "3911"
      },
      "geometry": {
        "type": "Point",
        "coordinates": [
          -93.68054,
          42.0346599
        ]
      }
    },
    {
      "type": "Feature",
      "properties": {
        "title": "Ontario St. at Georgia Ave.",
        "tag": "3920",
        "stopId": "3920"
      },
      "geometry": {
        "type": "Point",
        "coordinates": [
          -93.68223,
          42.03444
        ]
      }
    },
    {
      "type": "Feature",
      "properties": {
        "title": "Ontario St. at Georgia Ave.",
        "tag": "3921",
        "stopId": "3921"
      },
      "geometry": {
        "type": "Point",
        "coordinates": [
          -93.6829599,
          42.0346299
        ]
      }
    },
    {
      "type": "Feature",
      "properties": {
        "title": "Ontario St. at Illinois Ave.",
        "tag": "3930",
        "stopId": "3930"
      },
      "geometry": {
        "type": "Point",
        "coordinates": [
          -93.6845699,
          42.03443
        ]
      }
    },
    {
      "type": "Feature",
      "properties": {
        "title": "Ontario St. at Illinois Ave.",
        "tag": "3931",
        "stopId": "3931"
      },
      "geometry": {
        "type": "Point",
        "coordinates": [
          -93.6855099,
          42.0345799
        ]
      }
    },
    {
      "type": "Feature",
      "properties": {
        "title": "Ontario St. at Kentucky Ave.",
        "tag": "3940",
        "stopId": "3940"
      },
      "geometry": {
        "type": "Point",
        "coordinates": [
          -93.6868199,
          42.03441
        ]
      }
    },
    {
      "type": "Feature",
      "properties": {
        "title": "Ontario St. at Kentucky Ave.",
        "tag": "3941",
        "stopId": "3941"
      },
      "geometry": {
        "type": "Point",
        "coordinates": [
          -93.6882399,
          42.0345599
        ]
      }
    },
    {
      "type": "Feature",
      "properties": {
        "title": "Ontario St. at California Ave.",
        "tag": "3951",
        "stopId": "3951"
      },
      "geometry": {
        "type": "Point",
        "coordinates": [
          -93.69104,
          42.0347199
        ]
      }
    },
    {
      "type": "Feature",
      "properties": {
        "title": "Grand Ave. at 30th St.",
        "tag": "4000",
        "stopId": "4000"
      },
      "geometry": {
        "type": "Point",
        "coordinates": [
          -93.62043,
          42.0515199
        ]
      }
    },
    {
      "type": "Feature",
      "properties": {
        "title": "Grand Ave. at Wheeler St.",
        "tag": "4010",
        "stopId": "4010"
      },
      "geometry": {
        "type": "Point",
        "coordinates": [
          -93.62045,
          42.05418
        ]
      }
    },
    {
      "type": "Feature",
      "properties": {
        "title": "Grand Ave. at Wheeler St.",
        "tag": "4011",
        "stopId": "4011"
      },
      "geometry": {
        "type": "Point",
        "coordinates": [
          -93.6208299,
          42.05361
        ]
      }
    },
    {
      "type": "Feature",
      "properties": {
        "title": "Bloomington Rd. at Grand Ave.",
        "tag": "4020",
        "stopId": "4020"
      },
      "geometry": {
        "type": "Point",
        "coordinates": [
          -93.6209599,
          42.05586
        ]
      }
    },
    {
      "type": "Feature",
      "properties": {
        "title": "Bloomington Rd. at Grand Ave.",
        "tag": "4021",
        "stopId": "4021"
      },
      "geometry": {
        "type": "Point",
        "coordinates": [
          -93.6211299,
          42.0561399
        ]
      }
    },
    {
      "type": "Feature",
      "properties": {
        "title": "Bloomington Rd. at Roy Key Ave.",
        "tag": "4030",
        "stopId": "4030"
      },
      "geometry": {
        "type": "Point",
        "coordinates": [
          -93.6226199,
          42.05589
        ]
      }
    },
    {
      "type": "Feature",
      "properties": {
        "title": "Bloomington Rd. at Roy Key Ave.",
        "tag": "4031",
        "stopId": "4031"
      },
      "geometry": {
        "type": "Point",
        "coordinates": [
          -93.62334,
          42.0561199
        ]
      }
    },
    {
      "type": "Feature",
      "properties": {
        "title": "Bloomington Rd. at Hoover Ave.",
        "tag": "4040",
        "stopId": "4040"
      },
      "geometry": {
        "type": "Point",
        "coordinates": [
          -93.6299199,
          42.05578
        ]
      }
    },
    {
      "type": "Feature",
      "properties": {
        "title": "Bloomington Rd. at Hoover Ave.",
        "tag": "4041",
        "stopId": "4041"
      },
      "geometry": {
        "type": "Point",
        "coordinates": [
          -93.6306499,
          42.0559899
        ]
      }
    },
    {
      "type": "Feature",
      "properties": {
        "title": "Bloomington Rd. at Fletcher Blvd.",
        "tag": "4050",
        "stopId": "4050"
      },
      "geometry": {
        "type": "Point",
        "coordinates": [
          -93.6346699,
          42.05636
        ]
      }
    },
    {
      "type": "Feature",
      "properties": {
        "title": "Bloomington Rd. at Fletcher Blvd.",
        "tag": "4051",
        "stopId": "4051"
      },
      "geometry": {
        "type": "Point",
        "coordinates": [
          -93.6339799,
          42.0564299
        ]
      }
    },
    {
      "type": "Feature",
      "properties": {
        "title": "Bloomington Rd. at Eisenhower Ave.",
        "tag": "4060",
        "stopId": "4060"
      },
      "geometry": {
        "type": "Point",
        "coordinates": [
          -93.6376199,
          42.05631
        ]
      }
    },
    {
      "type": "Feature",
      "properties": {
        "title": "Bloomington Rd. at Eisenhower Ave.",
        "tag": "4061",
        "stopId": "4061"
      },
      "geometry": {
        "type": "Point",
        "coordinates": [
          -93.6382599,
          42.0564499
        ]
      }
    },
    {
      "type": "Feature",
      "properties": {
        "title": "Bloomington Rd. at Hyde Ave.",
        "tag": "4070",
        "stopId": "4070"
      },
      "geometry": {
        "type": "Point",
        "coordinates": [
          -93.64113,
          42.05621
        ]
      }
    },
    {
      "type": "Feature",
      "properties": {
        "title": "Bloomington Rd. at Hyde Ave.",
        "tag": "4071",
        "stopId": "4071"
      },
      "geometry": {
        "type": "Point",
        "coordinates": [
          -93.6416,
          42.0563999
        ]
      }
    },
    {
      "type": "Feature",
      "properties": {
        "title": "Stange Rd. at Bloomington Rd. Rd.",
        "tag": "4080",
        "stopId": "4080"
      },
      "geometry": {
        "type": "Point",
        "coordinates": [
          -93.64466,
          42.056
        ]
      }
    },
    {
      "type": "Feature",
      "properties": {
        "title": "Stange Rd. at Bloomington Rd.",
        "tag": "4081",
        "stopId": "4081"
      },
      "geometry": {
        "type": "Point",
        "coordinates": [
          -93.6452399,
          42.0559399
        ]
      }
    },
    {
      "type": "Feature",
      "properties": {
        "title": "Stange Rd. at Yorkshire Rd.",
        "tag": "4090",
        "stopId": "4090"
      },
      "geometry": {
        "type": "Point",
        "coordinates": [
          -93.64473,
          42.0540599
        ]
      }
    },
    {
      "type": "Feature",
      "properties": {
        "title": "Stange Rd. at Yorkshire Rd.",
        "tag": "4091",
        "stopId": "4091"
      },
      "geometry": {
        "type": "Point",
        "coordinates": [
          -93.6452199,
          42.05405
        ]
      }
    },
    {
      "type": "Feature",
      "properties": {
        "title": "Stange Rd. at Aspen Rd.",
        "tag": "4100",
        "stopId": "4100"
      },
      "geometry": {
        "type": "Point",
        "coordinates": [
          -93.64476,
          42.0506399
        ]
      }
    },
    {
      "type": "Feature",
      "properties": {
        "title": "Stange Rd. at Aspen Rd.",
        "tag": "4101",
        "stopId": "4101"
      },
      "geometry": {
        "type": "Point",
        "coordinates": [
          -93.64551,
          42.0496399
        ]
      }
    },
    {
      "type": "Feature",
      "properties": {
        "title": "Stange Rd. at Northridge Pkwy",
        "tag": "4104",
        "stopId": "4104"
      },
      "geometry": {
        "type": "Point",
        "coordinates": [
          -93.64489,
          42.0495199
        ]
      }
    },
    {
      "type": "Feature",
      "properties": {
        "title": "Stange Rd. at Camden Dr.",
        "tag": "4110",
        "stopId": "4110"
      },
      "geometry": {
        "type": "Point",
        "coordinates": [
          -93.64471,
          42.04682
        ]
      }
    },
    {
      "type": "Feature",
      "properties": {
        "title": "Stange Rd. at Bristol Dr.",
        "tag": "4111",
        "stopId": "4111"
      },
      "geometry": {
        "type": "Point",
        "coordinates": [
          -93.6450899,
          42.0467999
        ]
      }
    },
    {
      "type": "Feature",
      "properties": {
        "title": "Stange Rd. at Greensboro Dr.",
        "tag": "4120",
        "stopId": "4120"
      },
      "geometry": {
        "type": "Point",
        "coordinates": [
          -93.64476,
          42.0439599
        ]
      }
    },
    {
      "type": "Feature",
      "properties": {
        "title": "Stange Rd. at Greensboro Dr.",
        "tag": "4121",
        "stopId": "4121"
      },
      "geometry": {
        "type": "Point",
        "coordinates": [
          -93.6449599,
          42.0435899
        ]
      }
    },
    {
      "type": "Feature",
      "properties": {
        "title": "Stange Rd. at Blankenburg Dr.",
        "tag": "4130",
        "stopId": "4130"
      },
      "geometry": {
        "type": "Point",
        "coordinates": [
          -93.64472,
          42.0417099
        ]
      }
    },
    {
      "type": "Feature",
      "properties": {
        "title": "Stange Rd. at Blankenburg Dr.",
        "tag": "4131",
        "stopId": "4131"
      },
      "geometry": {
        "type": "Point",
        "coordinates": [
          -93.6449399,
          42.0412899
        ]
      }
    },
    {
      "type": "Feature",
      "properties": {
        "title": "#100 University Village",
        "tag": "4140",
        "stopId": "4140"
      },
      "geometry": {
        "type": "Point",
        "coordinates": [
          -93.6447,
          42.03923
        ]
      }
    },
    {
      "type": "Feature",
      "properties": {
        "title": "Stange Rd. at Bruner St.",
        "tag": "4141",
        "stopId": "4141"
      },
      "geometry": {
        "type": "Point",
        "coordinates": [
          -93.6449299,
          42.0391199
        ]
      }
    },
    {
      "type": "Feature",
      "properties": {
        "title": "30th St. at Regency Ct.",
        "tag": "4200",
        "stopId": "4200"
      },
      "geometry": {
        "type": "Point",
        "coordinates": [
          -93.62577,
          42.051
        ]
      }
    },
    {
      "type": "Feature",
      "properties": {
        "title": "30th St. at Regency Ct.",
        "tag": "4201",
        "stopId": "4201"
      },
      "geometry": {
        "type": "Point",
        "coordinates": [
          -93.62603,
          42.0512099
        ]
      }
    },
    {
      "type": "Feature",
      "properties": {
        "title": "Northwestern Ave. at 30th St.",
        "tag": "4210",
        "stopId": "4210"
      },
      "geometry": {
        "type": "Point",
        "coordinates": [
          -93.62705,
          42.05082
        ]
      }
    },
    {
      "type": "Feature",
      "properties": {
        "title": "Northwestern Ave. at 30th St.",
        "tag": "4211",
        "stopId": "4211"
      },
      "geometry": {
        "type": "Point",
        "coordinates": [
          -93.6272899,
          42.05069
        ]
      }
    },
    {
      "type": "Feature",
      "properties": {
        "title": "Northwestern Ave. at Johnson St.",
        "tag": "4220",
        "stopId": "4220"
      },
      "geometry": {
        "type": "Point",
        "coordinates": [
          -93.62707,
          42.0492399
        ]
      }
    },
    {
      "type": "Feature",
      "properties": {
        "title": "Northwestern Ave. at Johnson St.",
        "tag": "4221",
        "stopId": "4221"
      },
      "geometry": {
        "type": "Point",
        "coordinates": [
          -93.6270999,
          42.0487599
        ]
      }
    },
    {
      "type": "Feature",
      "properties": {
        "title": "Northwestern Ave. at 26th",
        "tag": "4230",
        "stopId": "4230"
      },
      "geometry": {
        "type": "Point",
        "coordinates": [
          -93.62582,
          42.0474899
        ]
      }
    },
    {
      "type": "Feature",
      "properties": {
        "title": "Northwestern Ave. at 26th St.",
        "tag": "4231",
        "stopId": "4231"
      },
      "geometry": {
        "type": "Point",
        "coordinates": [
          -93.6259899,
          42.04717
        ]
      }
    },
    {
      "type": "Feature",
      "properties": {
        "title": "Northwestern Ave. at 24th St.",
        "tag": "4240",
        "stopId": "4240"
      },
      "geometry": {
        "type": "Point",
        "coordinates": [
          -93.62577,
          42.0459
        ]
      }
    },
    {
      "type": "Feature",
      "properties": {
        "title": "24th St. at Northwestern Ave.",
        "tag": "4241",
        "stopId": "4241"
      },
      "geometry": {
        "type": "Point",
        "coordinates": [
          -93.62631,
          42.0457099
        ]
      }
    },
    {
      "type": "Feature",
      "properties": {
        "title": "24th St. at Hoover Ave.",
        "tag": "4250",
        "stopId": "4250"
      },
      "geometry": {
        "type": "Point",
        "coordinates": [
          -93.6299999,
          42.04551
        ]
      }
    },
    {
      "type": "Feature",
      "properties": {
        "title": "24th St. at Hoover Ave.",
        "tag": "4251",
        "stopId": "4251"
      },
      "geometry": {
        "type": "Point",
        "coordinates": [
          -93.63084,
          42.0456499
        ]
      }
    },
    {
      "type": "Feature",
      "properties": {
        "title": "24th St. at Hayes Ave.",
        "tag": "4260",
        "stopId": "4260"
      },
      "geometry": {
        "type": "Point",
        "coordinates": [
          -93.63313,
          42.0454699
        ]
      }
    },
    {
      "type": "Feature",
      "properties": {
        "title": "24th St. at Hayes Ave.",
        "tag": "4261",
        "stopId": "4261"
      },
      "geometry": {
        "type": "Point",
        "coordinates": [
          -93.63393,
          42.0456299
        ]
      }
    },
    {
      "type": "Feature",
      "properties": {
        "title": "24th St. at Northcrest Dr.",
        "tag": "4270",
        "stopId": "4270"
      },
      "geometry": {
        "type": "Point",
        "coordinates": [
          -93.6357999,
          42.04541
        ]
      }
    },
    {
      "type": "Feature",
      "properties": {
        "title": "24th St. at Northcrest Dr.",
        "tag": "4271",
        "stopId": "4271"
      },
      "geometry": {
        "type": "Point",
        "coordinates": [
          -93.6355699,
          42.0455799
        ]
      }
    },
    {
      "type": "Feature",
      "properties": {
        "title": "24th St. at Prairie View West",
        "tag": "4280",
        "stopId": "4280"
      },
      "geometry": {
        "type": "Point",
        "coordinates": [
          -93.6387799,
          42.04539
        ]
      }
    },
    {
      "type": "Feature",
      "properties": {
        "title": "24th St. at Kent Ave.",
        "tag": "4281",
        "stopId": "4281"
      },
      "geometry": {
        "type": "Point",
        "coordinates": [
          -93.6391399,
          42.0455399
        ]
      }
    },
    {
      "type": "Feature",
      "properties": {
        "title": "Edenburn Dr. at #40 Schilletter",
        "tag": "4300",
        "stopId": "4300"
      },
      "geometry": {
        "type": "Point",
        "coordinates": [
          -93.6421,
          42.0450299
        ]
      }
    },
    {
      "type": "Feature",
      "properties": {
        "title": "Edenburn Dr. at #27 Schilletter",
        "tag": "4311",
        "stopId": "4311"
      },
      "geometry": {
        "type": "Point",
        "coordinates": [
          -93.6403999,
          42.04433
        ]
      }
    },
    {
      "type": "Feature",
      "properties": {
        "title": "Stotts Rd. at Edenburn Dr.",
        "tag": "4321",
        "stopId": "4321"
      },
      "geometry": {
        "type": "Point",
        "coordinates": [
          -93.6413399,
          42.0428199
        ]
      }
    },
    {
      "type": "Feature",
      "properties": {
        "title": "Stotts Rd. at Blankenburg Dr.",
        "tag": "4331",
        "stopId": "4331"
      },
      "geometry": {
        "type": "Point",
        "coordinates": [
          -93.6409999,
          42.0415299
        ]
      }
    },
    {
      "type": "Feature",
      "properties": {
        "title": "University Village Laundry",
        "tag": "4341",
        "stopId": "4341"
      },
      "geometry": {
        "type": "Point",
        "coordinates": [
          -93.64211,
          42.04125
        ]
      }
    },
    {
      "type": "Feature",
      "properties": {
        "title": "Long Rd. at #130 University Village",
        "tag": "4351",
        "stopId": "4351"
      },
      "geometry": {
        "type": "Point",
        "coordinates": [
          -93.6436499,
          42.0407699
        ]
      }
    },
    {
      "type": "Feature",
      "properties": {
        "title": "Bruner Dr. at Long Rd.  (#100 UV)",
        "tag": "4361",
        "stopId": "4361"
      },
      "geometry": {
        "type": "Point",
        "coordinates": [
          -93.64387,
          42.0392299
        ]
      }
    },
    {
      "type": "Feature",
      "properties": {
        "title": "#42 Frederiksen",
        "tag": "4400",
        "stopId": "4400"
      },
      "geometry": {
        "type": "Point",
        "coordinates": [
          -93.64156,
          42.0335999
        ]
      }
    },
    {
      "type": "Feature",
      "properties": {
        "title": "#33 Frederiksen",
        "tag": "4411",
        "stopId": "4411"
      },
      "geometry": {
        "type": "Point",
        "coordinates": [
          -93.6405099,
          42.0342099
        ]
      }
    },
    {
      "type": "Feature",
      "properties": {
        "title": "#31 Frederiksen",
        "tag": "4421",
        "stopId": "4421"
      },
      "geometry": {
        "type": "Point",
        "coordinates": [
          -93.6417599,
          42.0341799
        ]
      }
    },
    {
      "type": "Feature",
      "properties": {
        "title": "Frederiksen at #22",
        "tag": "4430",
        "stopId": "4430"
      },
      "geometry": {
        "type": "Point",
        "coordinates": [
          -93.64379,
          42.03374
        ]
      }
    },
    {
      "type": "Feature",
      "properties": {
        "title": "#11 Frederiksen",
        "tag": "4431",
        "stopId": "4431"
      },
      "geometry": {
        "type": "Point",
        "coordinates": [
          -93.6440399,
          42.0339999
        ]
      }
    },
    {
      "type": "Feature",
      "properties": {
        "title": "Stange Rd. at Frederiksen",
        "tag": "4500",
        "stopId": "4500"
      },
      "geometry": {
        "type": "Point",
        "coordinates": [
          -93.64463,
          42.03426
        ]
      }
    },
    {
      "type": "Feature",
      "properties": {
        "title": "Stange Rd. at Frederiksen",
        "tag": "4501",
        "stopId": "4501"
      },
      "geometry": {
        "type": "Point",
        "coordinates": [
          -93.6448399,
          42.0335
        ]
      }
    },
    {
      "type": "Feature",
      "properties": {
        "title": "North Grand Mall",
        "tag": "5001",
        "stopId": "5001"
      },
      "geometry": {
        "type": "Point",
        "coordinates": [
          -93.62186,
          42.0496299
        ]
      }
    },
    {
      "type": "Feature",
      "properties": {
        "title": "30th St. at Wal Mart",
        "tag": "5004",
        "stopId": "5004"
      },
      "geometry": {
        "type": "Point",
        "coordinates": [
          -93.6223699,
          42.0511
        ]
      }
    },
    {
      "type": "Feature",
      "properties": {
        "title": "30th St. at Grand Ave.",
        "tag": "5005",
        "stopId": "5005"
      },
      "geometry": {
        "type": "Point",
        "coordinates": [
          -93.6217,
          42.0512599
        ]
      }
    },
    {
      "type": "Feature",
      "properties": {
        "title": "Duff Ave. at Kellogg Ave.",
        "tag": "5010",
        "stopId": "5010"
      },
      "geometry": {
        "type": "Point",
        "coordinates": [
          -93.6185399,
          42.05108
        ]
      }
    },
    {
      "type": "Feature",
      "properties": {
        "title": "Duff Ave. at Kellogg Ave.",
        "tag": "5011",
        "stopId": "5011"
      },
      "geometry": {
        "type": "Point",
        "coordinates": [
          -93.6191199,
          42.0512799
        ]
      }
    },
    {
      "type": "Feature",
      "properties": {
        "title": "Duff Ave. at Northwood Dr.",
        "tag": "5020",
        "stopId": "5020"
      },
      "geometry": {
        "type": "Point",
        "coordinates": [
          -93.61404,
          42.04857
        ]
      }
    },
    {
      "type": "Feature",
      "properties": {
        "title": "Duff Ave. at Northwood Dr.",
        "tag": "5021",
        "stopId": "5021"
      },
      "geometry": {
        "type": "Point",
        "coordinates": [
          -93.6142999,
          42.0483999
        ]
      }
    },
    {
      "type": "Feature",
      "properties": {
        "title": "Duff Ave. at 24th St.",
        "tag": "5030",
        "stopId": "5030"
      },
      "geometry": {
        "type": "Point",
        "coordinates": [
          -93.61402,
          42.0460899
        ]
      }
    },
    {
      "type": "Feature",
      "properties": {
        "title": "Duff Ave. at 24th St.",
        "tag": "5031",
        "stopId": "5031"
      },
      "geometry": {
        "type": "Point",
        "coordinates": [
          -93.6142599,
          42.0453299
        ]
      }
    },
    {
      "type": "Feature",
      "properties": {
        "title": "Duff Ave. at Douglas Ave.",
        "tag": "5040",
        "stopId": "5040"
      },
      "geometry": {
        "type": "Point",
        "coordinates": [
          -93.61225,
          42.0439399
        ]
      }
    },
    {
      "type": "Feature",
      "properties": {
        "title": "Duff Ave. at 22nd St.",
        "tag": "5041",
        "stopId": "5041"
      },
      "geometry": {
        "type": "Point",
        "coordinates": [
          -93.6128499,
          42.04396
        ]
      }
    },
    {
      "type": "Feature",
      "properties": {
        "title": "Duff Ave. at 20th St.",
        "tag": "5050",
        "stopId": "5050"
      },
      "geometry": {
        "type": "Point",
        "coordinates": [
          -93.6106,
          42.04239
        ]
      }
    },
    {
      "type": "Feature",
      "properties": {
        "title": "Duff Ave. at 20th St.",
        "tag": "5051",
        "stopId": "5051"
      },
      "geometry": {
        "type": "Point",
        "coordinates": [
          -93.6108299,
          42.04175
        ]
      }
    },
    {
      "type": "Feature",
      "properties": {
        "title": "Duff Ave. at O'Neil Dr.",
        "tag": "5060",
        "stopId": "5060"
      },
      "geometry": {
        "type": "Point",
        "coordinates": [
          -93.6105899,
          42.0404699
        ]
      }
    },
    {
      "type": "Feature",
      "properties": {
        "title": "Duff Ave. at O'Neil Dr.",
        "tag": "5061",
        "stopId": "5061"
      },
      "geometry": {
        "type": "Point",
        "coordinates": [
          -93.6108199,
          42.04003
        ]
      }
    },
    {
      "type": "Feature",
      "properties": {
        "title": "Duff Ave. at 16th St.",
        "tag": "5070",
        "stopId": "5070"
      },
      "geometry": {
        "type": "Point",
        "coordinates": [
          -93.61058,
          42.0386
        ]
      }
    },
    {
      "type": "Feature",
      "properties": {
        "title": "Duff Ave. at 16th St.",
        "tag": "5071",
        "stopId": "5071"
      },
      "geometry": {
        "type": "Point",
        "coordinates": [
          -93.6107999,
          42.0380499
        ]
      }
    },
    {
      "type": "Feature",
      "properties": {
        "title": "Duff Ave. at 14th St.",
        "tag": "5080",
        "stopId": "5080"
      },
      "geometry": {
        "type": "Point",
        "coordinates": [
          -93.61058,
          42.03595
        ]
      }
    },
    {
      "type": "Feature",
      "properties": {
        "title": "Duff Ave. at 14th St.",
        "tag": "5081",
        "stopId": "5081"
      },
      "geometry": {
        "type": "Point",
        "coordinates": [
          -93.6107999,
          42.0354399
        ]
      }
    },
    {
      "type": "Feature",
      "properties": {
        "title": "Duff Ave. at 12th St.",
        "tag": "5090",
        "stopId": "5090"
      },
      "geometry": {
        "type": "Point",
        "coordinates": [
          -93.61051,
          42.03337
        ]
      }
    },
    {
      "type": "Feature",
      "properties": {
        "title": "Duff Ave. at 12th St.",
        "tag": "5091",
        "stopId": "5091"
      },
      "geometry": {
        "type": "Point",
        "coordinates": [
          -93.6107699,
          42.03327
        ]
      }
    },
    {
      "type": "Feature",
      "properties": {
        "title": "Mary Greely Hospital",
        "tag": "5100",
        "stopId": "5100"
      },
      "geometry": {
        "type": "Point",
        "coordinates": [
          -93.61049,
          42.0322399
        ]
      }
    },
    {
      "type": "Feature",
      "properties": {
        "title": "Mary Greely Hospital",
        "tag": "5101",
        "stopId": "5101"
      },
      "geometry": {
        "type": "Point",
        "coordinates": [
          -93.61071,
          42.0316299
        ]
      }
    },
    {
      "type": "Feature",
      "properties": {
        "title": "Duff Ave. at 9th St.",
        "tag": "5110",
        "stopId": "5110"
      },
      "geometry": {
        "type": "Point",
        "coordinates": [
          -93.61046,
          42.0303299
        ]
      }
    },
    {
      "type": "Feature",
      "properties": {
        "title": "Duff Ave. at 9th St.",
        "tag": "5111",
        "stopId": "5111"
      },
      "geometry": {
        "type": "Point",
        "coordinates": [
          -93.6106699,
          42.0298099
        ]
      }
    },
    {
      "type": "Feature",
      "properties": {
        "title": "Duff Ave. at 7th St.",
        "tag": "5120",
        "stopId": "5120"
      },
      "geometry": {
        "type": "Point",
        "coordinates": [
          -93.6104,
          42.02822
        ]
      }
    },
    {
      "type": "Feature",
      "properties": {
        "title": "Duff Ave. at 8th St.",
        "tag": "5121",
        "stopId": "5121"
      },
      "geometry": {
        "type": "Point",
        "coordinates": [
          -93.6106199,
          42.02871
        ]
      }
    },
    {
      "type": "Feature",
      "properties": {
        "title": "Duff Ave. at 6th St.",
        "tag": "5130",
        "stopId": "5130"
      },
      "geometry": {
        "type": "Point",
        "coordinates": [
          -93.61037,
          42.02707
        ]
      }
    },
    {
      "type": "Feature",
      "properties": {
        "title": "6th St. at Duff Ave.",
        "tag": "5131",
        "stopId": "5131"
      },
      "geometry": {
        "type": "Point",
        "coordinates": [
          -93.6110899,
          42.0270299
        ]
      }
    },
    {
      "type": "Feature",
      "properties": {
        "title": "Douglas Ave. at 6th St.",
        "tag": "5200",
        "stopId": "5200"
      },
      "geometry": {
        "type": "Point",
        "coordinates": [
          -93.61202,
          42.0268099
        ]
      }
    },
    {
      "type": "Feature",
      "properties": {
        "title": "Ames Public Library",
        "tag": "5201",
        "stopId": "5201"
      },
      "geometry": {
        "type": "Point",
        "coordinates": [
          -93.6121999,
          42.0265599
        ]
      }
    },
    {
      "type": "Feature",
      "properties": {
        "title": "5th St. at Kellogg Ave.",
        "tag": "5210",
        "stopId": "5210"
      },
      "geometry": {
        "type": "Point",
        "coordinates": [
          -93.6135099,
          42.0258
        ]
      }
    },
    {
      "type": "Feature",
      "properties": {
        "title": "5th St. at Kellogg Ave.",
        "tag": "5211",
        "stopId": "5211"
      },
      "geometry": {
        "type": "Point",
        "coordinates": [
          -93.61407,
          42.0259599
        ]
      }
    },
    {
      "type": "Feature",
      "properties": {
        "title": "Grand Ave. at 28th St.",
        "tag": "5301",
        "stopId": "5301"
      },
      "geometry": {
        "type": "Point",
        "coordinates": [
          -93.62032,
          42.0477299
        ]
      }
    },
    {
      "type": "Feature",
      "properties": {
        "title": "Grand Ave. at 24th St.",
        "tag": "5310",
        "stopId": "5310"
      },
      "geometry": {
        "type": "Point",
        "coordinates": [
          -93.6207199,
          42.0449799
        ]
      }
    },
    {
      "type": "Feature",
      "properties": {
        "title": "Grand Ave. at 24th St.",
        "tag": "5311",
        "stopId": "5311"
      },
      "geometry": {
        "type": "Point",
        "coordinates": [
          -93.62033,
          42.04611
        ]
      }
    },
    {
      "type": "Feature",
      "properties": {
        "title": "20th St. at Grand Ave.",
        "tag": "5320",
        "stopId": "5320"
      },
      "geometry": {
        "type": "Point",
        "coordinates": [
          -93.6209099,
          42.04197
        ]
      }
    },
    {
      "type": "Feature",
      "properties": {
        "title": "20th St. at Grand Ave.",
        "tag": "5321",
        "stopId": "5321"
      },
      "geometry": {
        "type": "Point",
        "coordinates": [
          -93.62082,
          42.0421599
        ]
      }
    },
    {
      "type": "Feature",
      "properties": {
        "title": "20th St. at Melrose Ave.",
        "tag": "5330",
        "stopId": "5330"
      },
      "geometry": {
        "type": "Point",
        "coordinates": [
          -93.6225699,
          42.04198
        ]
      }
    },
    {
      "type": "Feature",
      "properties": {
        "title": "20th St. at Melrose Ave.",
        "tag": "5331",
        "stopId": "5331"
      },
      "geometry": {
        "type": "Point",
        "coordinates": [
          -93.62297,
          42.0421299
        ]
      }
    },
    {
      "type": "Feature",
      "properties": {
        "title": "20th St. at Northwestern Ave.",
        "tag": "5340",
        "stopId": "5340"
      },
      "geometry": {
        "type": "Point",
        "coordinates": [
          -93.62559,
          42.04195
        ]
      }
    },
    {
      "type": "Feature",
      "properties": {
        "title": "20th St. at Northwestern Ave.",
        "tag": "5341",
        "stopId": "5341"
      },
      "geometry": {
        "type": "Point",
        "coordinates": [
          -93.62537,
          42.0421199
        ]
      }
    },
    {
      "type": "Feature",
      "properties": {
        "title": "16th St. at Northwestern Ave.",
        "tag": "5350",
        "stopId": "5350"
      },
      "geometry": {
        "type": "Point",
        "coordinates": [
          -93.6254099,
          42.0382
        ]
      }
    },
    {
      "type": "Feature",
      "properties": {
        "title": "16th St. at Northwestern Ave.",
        "tag": "5351",
        "stopId": "5351"
      },
      "geometry": {
        "type": "Point",
        "coordinates": [
          -93.6254199,
          42.0383599
        ]
      }
    },
    {
      "type": "Feature",
      "properties": {
        "title": "16th St. at Roosevelt Ave.",
        "tag": "5360",
        "stopId": "5360"
      },
      "geometry": {
        "type": "Point",
        "coordinates": [
          -93.62221,
          42.03824
        ]
      }
    },
    {
      "type": "Feature",
      "properties": {
        "title": "16th St. at Roosevelt Ave.",
        "tag": "5361",
        "stopId": "5361"
      },
      "geometry": {
        "type": "Point",
        "coordinates": [
          -93.6228399,
          42.0383899
        ]
      }
    },
    {
      "type": "Feature",
      "properties": {
        "title": "16th St. at Grand Ave.",
        "tag": "5370",
        "stopId": "5370"
      },
      "geometry": {
        "type": "Point",
        "coordinates": [
          -93.62102,
          42.03823
        ]
      }
    },
    {
      "type": "Feature",
      "properties": {
        "title": "16th St. at Grand Ave.",
        "tag": "5371",
        "stopId": "5371"
      },
      "geometry": {
        "type": "Point",
        "coordinates": [
          -93.62087,
          42.0383999
        ]
      }
    },
    {
      "type": "Feature",
      "properties": {
        "title": "Grand Ave. at 13th",
        "tag": "5380",
        "stopId": "5380"
      },
      "geometry": {
        "type": "Point",
        "coordinates": [
          -93.62027,
          42.0349
        ]
      }
    },
    {
      "type": "Feature",
      "properties": {
        "title": "Grand Ave. at 13th St.",
        "tag": "5381",
        "stopId": "5381"
      },
      "geometry": {
        "type": "Point",
        "coordinates": [
          -93.6205199,
          42.0341899
        ]
      }
    },
    {
      "type": "Feature",
      "properties": {
        "title": "Grand Ave. at 11th",
        "tag": "5390",
        "stopId": "5390"
      },
      "geometry": {
        "type": "Point",
        "coordinates": [
          -93.62022,
          42.0324199
        ]
      }
    },
    {
      "type": "Feature",
      "properties": {
        "title": "Grand Ave. at 11th St.",
        "tag": "5391",
        "stopId": "5391"
      },
      "geometry": {
        "type": "Point",
        "coordinates": [
          -93.6204499,
          42.0317899
        ]
      }
    },
    {
      "type": "Feature",
      "properties": {
        "title": "9th St. at Grand Ave.",
        "tag": "5400",
        "stopId": "5400"
      },
      "geometry": {
        "type": "Point",
        "coordinates": [
          -93.6197699,
          42.03014
        ]
      }
    },
    {
      "type": "Feature",
      "properties": {
        "title": "9th St. at Grand Ave.",
        "tag": "5401",
        "stopId": "5401"
      },
      "geometry": {
        "type": "Point",
        "coordinates": [
          -93.6198999,
          42.0302899
        ]
      }
    },
    {
      "type": "Feature",
      "properties": {
        "title": "Clark Ave. at 9th St.",
        "tag": "5410",
        "stopId": "5410"
      },
      "geometry": {
        "type": "Point",
        "coordinates": [
          -93.61684,
          42.02995
        ]
      }
    },
    {
      "type": "Feature",
      "properties": {
        "title": "Clark Ave. at 9th St.",
        "tag": "5411",
        "stopId": "5411"
      },
      "geometry": {
        "type": "Point",
        "coordinates": [
          -93.6171199,
          42.0295499
        ]
      }
    },
    {
      "type": "Feature",
      "properties": {
        "title": "Clark Ave. at 7th St.",
        "tag": "5420",
        "stopId": "5420"
      },
      "geometry": {
        "type": "Point",
        "coordinates": [
          -93.61678,
          42.02798
        ]
      }
    },
    {
      "type": "Feature",
      "properties": {
        "title": "Clark Ave. at 6th St.",
        "tag": "5421",
        "stopId": "5421"
      },
      "geometry": {
        "type": "Point",
        "coordinates": [
          -93.6170499,
          42.0271199
        ]
      }
    },
    {
      "type": "Feature",
      "properties": {
        "title": "City Hall",
        "tag": "5500",
        "stopId": "5500"
      },
      "geometry": {
        "type": "Point",
        "coordinates": [
          -93.61757,
          42.0257599
        ]
      }
    },
    {
      "type": "Feature",
      "properties": {
        "title": "City Hall",
        "tag": "5501",
        "stopId": "5501"
      },
      "geometry": {
        "type": "Point",
        "coordinates": [
          -93.61783,
          42.0259299
        ]
      }
    },
    {
      "type": "Feature",
      "properties": {
        "title": "Allan Dr. at Grand Ave.",
        "tag": "5510",
        "stopId": "5510"
      },
      "geometry": {
        "type": "Point",
        "coordinates": [
          -93.62043,
          42.02558
        ]
      }
    },
    {
      "type": "Feature",
      "properties": {
        "title": "Lincoln Way at Elm Ave.",
        "tag": "5520",
        "stopId": "5520"
      },
      "geometry": {
        "type": "Point",
        "coordinates": [
          -93.6230099,
          42.02273
        ]
      }
    },
    {
      "type": "Feature",
      "properties": {
        "title": "Lincoln Way at Elm Ave.",
        "tag": "5521",
        "stopId": "5521"
      },
      "geometry": {
        "type": "Point",
        "coordinates": [
          -93.6227999,
          42.0230199
        ]
      }
    },
    {
      "type": "Feature",
      "properties": {
        "title": "Lincoln Way at Maple Ave.",
        "tag": "5531",
        "stopId": "5531"
      },
      "geometry": {
        "type": "Point",
        "coordinates": [
          -93.6255,
          42.0229399
        ]
      }
    },
    {
      "type": "Feature",
      "properties": {
        "title": "Lincoln Way at S. Hazel Ave.",
        "tag": "5540",
        "stopId": "5540"
      },
      "geometry": {
        "type": "Point",
        "coordinates": [
          -93.6265099,
          42.02278
        ]
      }
    },
    {
      "type": "Feature",
      "properties": {
        "title": "Lincoln Way at Hazel Ave.",
        "tag": "5541",
        "stopId": "5541"
      },
      "geometry": {
        "type": "Point",
        "coordinates": [
          -93.62723,
          42.0229299
        ]
      }
    },
    {
      "type": "Feature",
      "properties": {
        "title": "Lincoln Way at S. Russell Ave.",
        "tag": "5550",
        "stopId": "5550"
      },
      "geometry": {
        "type": "Point",
        "coordinates": [
          -93.6278199,
          42.02277
        ]
      }
    },
    {
      "type": "Feature",
      "properties": {
        "title": "Lincoln Way at Russell Ave.",
        "tag": "5551",
        "stopId": "5551"
      },
      "geometry": {
        "type": "Point",
        "coordinates": [
          -93.62858,
          42.0229199
        ]
      }
    },
    {
      "type": "Feature",
      "properties": {
        "title": "Hilton Coliseum",
        "tag": "5560",
        "stopId": "5560"
      },
      "geometry": {
        "type": "Point",
        "coordinates": [
          -93.63507,
          42.02269
        ]
      }
    },
    {
      "type": "Feature",
      "properties": {
        "title": "Lincoln Way at Hilton Coliseum",
        "tag": "5561",
        "stopId": "5561"
      },
      "geometry": {
        "type": "Point",
        "coordinates": [
          -93.63517,
          42.0228999
        ]
      }
    },
    {
      "type": "Feature",
      "properties": {
        "title": "5th St. at Pearle Ave.",
        "tag": "5610",
        "stopId": "5610"
      },
      "geometry": {
        "type": "Point",
        "coordinates": [
          -93.6197499,
          42.02574
        ]
      }
    },
    {
      "type": "Feature",
      "properties": {
        "title": "Northwestern Ave. at 5th St.",
        "tag": "5620",
        "stopId": "5620"
      },
      "geometry": {
        "type": "Point",
        "coordinates": [
          -93.62191,
          42.02598
        ]
      }
    },
    {
      "type": "Feature",
      "properties": {
        "title": "Northwestern Ave. at 6th St.",
        "tag": "5630",
        "stopId": "5630"
      },
      "geometry": {
        "type": "Point",
        "coordinates": [
          -93.6225799,
          42.02654
        ]
      }
    },
    {
      "type": "Feature",
      "properties": {
        "title": "6th St. at Northwestern Ave.",
        "tag": "5631",
        "stopId": "5631"
      },
      "geometry": {
        "type": "Point",
        "coordinates": [
          -93.62335,
          42.0268699
        ]
      }
    },
    {
      "type": "Feature",
      "properties": {
        "title": "6th St. at Brookridge Ave.",
        "tag": "5640",
        "stopId": "5640"
      },
      "geometry": {
        "type": "Point",
        "coordinates": [
          -93.62613,
          42.0266
        ]
      }
    },
    {
      "type": "Feature",
      "properties": {
        "title": "6th St. at Brookridge Ave.",
        "tag": "5641",
        "stopId": "5641"
      },
      "geometry": {
        "type": "Point",
        "coordinates": [
          -93.62652,
          42.0268199
        ]
      }
    },
    {
      "type": "Feature",
      "properties": {
        "title": "6th St. at Brookside Park",
        "tag": "5650",
        "stopId": "5650"
      },
      "geometry": {
        "type": "Point",
        "coordinates": [
          -93.6299499,
          42.0282399
        ]
      }
    },
    {
      "type": "Feature",
      "properties": {
        "title": "6th St. at Brookside Park",
        "tag": "5651",
        "stopId": "5651"
      },
      "geometry": {
        "type": "Point",
        "coordinates": [
          -93.63057,
          42.0286199
        ]
      }
    },
    {
      "type": "Feature",
      "properties": {
        "title": "6th St. at University Blvd.",
        "tag": "5661",
        "stopId": "5661"
      },
      "geometry": {
        "type": "Point",
        "coordinates": [
          -93.6334999,
          42.0277999
        ]
      }
    },
    {
      "type": "Feature",
      "properties": {
        "title": "University Blvd. at CyRide Rd.",
        "tag": "5670",
        "stopId": "5670"
      },
      "geometry": {
        "type": "Point",
        "coordinates": [
          -93.63587,
          42.0289
        ]
      }
    },
    {
      "type": "Feature",
      "properties": {
        "title": "University Blvd. at Haber Rd.",
        "tag": "5680",
        "stopId": "5680"
      },
      "geometry": {
        "type": "Point",
        "coordinates": [
          -93.63839,
          42.02975
        ]
      }
    },
    {
      "type": "Feature",
      "properties": {
        "title": "University Blvd. at Haber Rd.",
        "tag": "5681",
        "stopId": "5681"
      },
      "geometry": {
        "type": "Point",
        "coordinates": [
          -93.63907,
          42.0301299
        ]
      }
    },
    {
      "type": "Feature",
      "properties": {
        "title": "Iowa State Center",
        "tag": "6000",
        "stopId": "6000"
      },
      "geometry": {
        "type": "Point",
        "coordinates": [
          -93.63722,
          42.0172299
        ]
      }
    },
    {
      "type": "Feature",
      "properties": {
        "title": "Beach Ave. at Sunset Dr.",
        "tag": "6450",
        "stopId": "6450"
      },
      "geometry": {
        "type": "Point",
        "coordinates": [
          -93.63939,
          42.02069
        ]
      }
    },
    {
      "type": "Feature",
      "properties": {
        "title": "Beach Ave. at Sunset Dr.",
        "tag": "6451",
        "stopId": "6451"
      },
      "geometry": {
        "type": "Point",
        "coordinates": [
          -93.6395899,
          42.02079
        ]
      }
    },
    {
      "type": "Feature",
      "properties": {
        "title": "S. 4th St. at Beach Ave.",
        "tag": "6460",
        "stopId": "6460"
      },
      "geometry": {
        "type": "Point",
        "coordinates": [
          -93.6386199,
          42.01614
        ]
      }
    },
    {
      "type": "Feature",
      "properties": {
        "title": "S. 4th St. at Beach Ave.",
        "tag": "6461",
        "stopId": "6461"
      },
      "geometry": {
        "type": "Point",
        "coordinates": [
          -93.6391499,
          42.0162899
        ]
      }
    },
    {
      "type": "Feature",
      "properties": {
        "title": "Jack Trice Stadium",
        "tag": "6470",
        "stopId": "6470"
      },
      "geometry": {
        "type": "Point",
        "coordinates": [
          -93.6356599,
          42.01614
        ]
      }
    },
    {
      "type": "Feature",
      "properties": {
        "title": "S. 4th St. at Victory Lane",
        "tag": "6471",
        "stopId": "6471"
      },
      "geometry": {
        "type": "Point",
        "coordinates": [
          -93.6355899,
          42.0163299
        ]
      }
    },
    {
      "type": "Feature",
      "properties": {
        "title": "S. 4th St. at University Blvd.",
        "tag": "6480",
        "stopId": "6480"
      },
      "geometry": {
        "type": "Point",
        "coordinates": [
          -93.6310799,
          42.01626
        ]
      }
    },
    {
      "type": "Feature",
      "properties": {
        "title": "S. 4th St. at University Blvd.",
        "tag": "6481",
        "stopId": "6481"
      },
      "geometry": {
        "type": "Point",
        "coordinates": [
          -93.6328,
          42.0163799
        ]
      }
    },
    {
      "type": "Feature",
      "properties": {
        "title": "S. 4th St. at S. Maple",
        "tag": "6490",
        "stopId": "6490"
      },
      "geometry": {
        "type": "Point",
        "coordinates": [
          -93.62647,
          42.01912
        ]
      }
    },
    {
      "type": "Feature",
      "properties": {
        "title": "S. 4th St. at S. Hazel Ave.",
        "tag": "6491",
        "stopId": "6491"
      },
      "geometry": {
        "type": "Point",
        "coordinates": [
          -93.6270399,
          42.0192799
        ]
      }
    },
    {
      "type": "Feature",
      "properties": {
        "title": "S. 3rd St. at HyVee",
        "tag": "6510",
        "stopId": "6510"
      },
      "geometry": {
        "type": "Point",
        "coordinates": [
          -93.61995,
          42.01924
        ]
      }
    },
    {
      "type": "Feature",
      "properties": {
        "title": "S. 4th St. at Grand Ave.",
        "tag": "6511",
        "stopId": "6511"
      },
      "geometry": {
        "type": "Point",
        "coordinates": [
          -93.6213,
          42.0193799
        ]
      }
    },
    {
      "type": "Feature",
      "properties": {
        "title": "S. 3rd St. at Pear Tree",
        "tag": "6520",
        "stopId": "6520"
      },
      "geometry": {
        "type": "Point",
        "coordinates": [
          -93.61808,
          42.01984
        ]
      }
    },
    {
      "type": "Feature",
      "properties": {
        "title": "S. 3rd St. at HyVee",
        "tag": "6521",
        "stopId": "6521"
      },
      "geometry": {
        "type": "Point",
        "coordinates": [
          -93.6189699,
          42.0196699
        ]
      }
    },
    {
      "type": "Feature",
      "properties": {
        "title": "Walnut Ave. at S. 3rd St.",
        "tag": "6530",
        "stopId": "6530"
      },
      "geometry": {
        "type": "Point",
        "coordinates": [
          -93.61681,
          42.0199099
        ]
      }
    },
    {
      "type": "Feature",
      "properties": {
        "title": "Walnut Ave. at S. 5th St.",
        "tag": "6540",
        "stopId": "6540"
      },
      "geometry": {
        "type": "Point",
        "coordinates": [
          -93.61669,
          42.0178699
        ]
      }
    },
    {
      "type": "Feature",
      "properties": {
        "title": "S. 3rd St. at Walnut Ave.",
        "tag": "6550",
        "stopId": "6550"
      },
      "geometry": {
        "type": "Point",
        "coordinates": [
          -93.6162299,
          42.02011
        ]
      }
    },
    {
      "type": "Feature",
      "properties": {
        "title": "S. 3rd St. at S. Sherman Ave.",
        "tag": "6560",
        "stopId": "6560"
      },
      "geometry": {
        "type": "Point",
        "coordinates": [
          -93.61243,
          42.0201
        ]
      }
    },
    {
      "type": "Feature",
      "properties": {
        "title": "S. 5th St. at South Meadow",
        "tag": "6567",
        "stopId": "6567"
      },
      "geometry": {
        "type": "Point",
        "coordinates": [
          -93.6145999,
          42.0174699
        ]
      }
    },
    {
      "type": "Feature",
      "properties": {
        "title": "River Birch Apartments",
        "tag": "6571",
        "stopId": "6571"
      },
      "geometry": {
        "type": "Point",
        "coordinates": [
          -93.61221,
          42.0174599
        ]
      }
    },
    {
      "type": "Feature",
      "properties": {
        "title": "S. E. 5th St. at S. Duff Ave.",
        "tag": "6591",
        "stopId": "6591"
      },
      "geometry": {
        "type": "Point",
        "coordinates": [
          -93.6080799,
          42.0174899
        ]
      }
    },
    {
      "type": "Feature",
      "properties": {
        "title": "Target",
        "tag": "6601",
        "stopId": "6601"
      },
      "geometry": {
        "type": "Point",
        "coordinates": [
          -93.60761,
          42.0186599
        ]
      }
    },
    {
      "type": "Feature",
      "properties": {
        "title": "Lincoln Way at Walnut Ave.",
        "tag": "6700",
        "stopId": "6700"
      },
      "geometry": {
        "type": "Point",
        "coordinates": [
          -93.6164799,
          42.02283
        ]
      }
    },
    {
      "type": "Feature",
      "properties": {
        "title": "Lincoln Way at Clark Ave.",
        "tag": "6701",
        "stopId": "6701"
      },
      "geometry": {
        "type": "Point",
        "coordinates": [
          -93.6161699,
          42.0229899
        ]
      }
    },
    {
      "type": "Feature",
      "properties": {
        "title": "Lincoln Way at S. Kellogg Ave.",
        "tag": "6710",
        "stopId": "6710"
      },
      "geometry": {
        "type": "Point",
        "coordinates": [
          -93.61284,
          42.02281
        ]
      }
    },
    {
      "type": "Feature",
      "properties": {
        "title": "Lincoln Way at Kellogg Ave.",
        "tag": "6711",
        "stopId": "6711"
      },
      "geometry": {
        "type": "Point",
        "coordinates": [
          -93.61427,
          42.02297
        ]
      }
    },
    {
      "type": "Feature",
      "properties": {
        "title": "Lincoln Way at S. Duff Ave.",
        "tag": "6720",
        "stopId": "6720"
      },
      "geometry": {
        "type": "Point",
        "coordinates": [
          -93.61095,
          42.02279
        ]
      }
    },
    {
      "type": "Feature",
      "properties": {
        "title": "Lincoln Way at Duff Ave.",
        "tag": "6721",
        "stopId": "6721"
      },
      "geometry": {
        "type": "Point",
        "coordinates": [
          -93.61097,
          42.0229799
        ]
      }
    },
    {
      "type": "Feature",
      "properties": {
        "title": "S. Duff Ave. at S. 3rd St.",
        "tag": "6730",
        "stopId": "6730"
      },
      "geometry": {
        "type": "Point",
        "coordinates": [
          -93.61018,
          42.0202999
        ]
      }
    },
    {
      "type": "Feature",
      "properties": {
        "title": "S. Duff Ave. at S. 3rd St.",
        "tag": "6731",
        "stopId": "6731"
      },
      "geometry": {
        "type": "Point",
        "coordinates": [
          -93.6105199,
          42.0197499
        ]
      }
    },
    {
      "type": "Feature",
      "properties": {
        "title": "S. Duff Ave. at S. 5th Ave.",
        "tag": "6740",
        "stopId": "6740"
      },
      "geometry": {
        "type": "Point",
        "coordinates": [
          -93.61013,
          42.0175399
        ]
      }
    },
    {
      "type": "Feature",
      "properties": {
        "title": "S. Duff Ave. at S. 5th Ave.",
        "tag": "6741",
        "stopId": "6741"
      },
      "geometry": {
        "type": "Point",
        "coordinates": [
          -93.6105,
          42.0171799
        ]
      }
    },
    {
      "type": "Feature",
      "properties": {
        "title": "Stadium Parking at North Stop",
        "tag": "7710",
        "stopId": "7710"
      },
      "geometry": {
        "type": "Point",
        "coordinates": [
          -93.63263,
          42.01436
        ]
      }
    },
    {
      "type": "Feature",
      "properties": {
        "title": "Stadium Parking at North Stop",
        "tag": "7711",
        "stopId": "7711"
      },
      "geometry": {
        "type": "Point",
        "coordinates": [
          -93.6328699,
          42.01432
        ]
      }
    },
    {
      "type": "Feature",
      "properties": {
        "title": "Stadium Parking at South Stop",
        "tag": "7720",
        "stopId": "7720"
      },
      "geometry": {
        "type": "Point",
        "coordinates": [
          -93.63371,
          42.01219
        ]
      }
    },
    {
      "type": "Feature",
      "properties": {
        "title": "Stadium Parking at South Stop",
        "tag": "7721",
        "stopId": "7721"
      },
      "geometry": {
        "type": "Point",
        "coordinates": [
          -93.6341199,
          42.0121499
        ]
      }
    },
    {
      "type": "Feature",
      "properties": {
        "title": "Christensen at S. 16th St. St.",
        "tag": "7730",
        "stopId": "7730"
      },
      "geometry": {
        "type": "Point",
        "coordinates": [
          -93.63255,
          42.0091
        ]
      }
    },
    {
      "type": "Feature",
      "properties": {
        "title": "Christensen at S. 16th St.",
        "tag": "7731",
        "stopId": "7731"
      },
      "geometry": {
        "type": "Point",
        "coordinates": [
          -93.6325,
          42.0093799
        ]
      }
    },
    {
      "type": "Feature",
      "properties": {
        "title": "Christensen at Day Care Center",
        "tag": "7740",
        "stopId": "7740"
      },
      "geometry": {
        "type": "Point",
        "coordinates": [
          -93.6340099,
          42.00903
        ]
      }
    },
    {
      "type": "Feature",
      "properties": {
        "title": "Christensen at Day Care Center",
        "tag": "7741",
        "stopId": "7741"
      },
      "geometry": {
        "type": "Point",
        "coordinates": [
          -93.6342999,
          42.0091399
        ]
      }
    },
    {
      "type": "Feature",
      "properties": {
        "title": "Veterinary Medicine",
        "tag": "7750",
        "stopId": "7750"
      },
      "geometry": {
        "type": "Point",
        "coordinates": [
          -93.63383,
          42.0063799
        ]
      }
    },
    {
      "type": "Feature",
      "properties": {
        "title": "S. 16th at Christensen",
        "tag": "7810",
        "stopId": "7810"
      },
      "geometry": {
        "type": "Point",
        "coordinates": [
          -93.6313499,
          42.00931
        ]
      }
    },
    {
      "type": "Feature",
      "properties": {
        "title": "S. 16th St. at Mulberry Blvd.",
        "tag": "7820",
        "stopId": "7820"
      },
      "geometry": {
        "type": "Point",
        "coordinates": [
          -93.6264399,
          42.00832
        ]
      }
    },
    {
      "type": "Feature",
      "properties": {
        "title": "S. 16th St. at Apple Pl.",
        "tag": "7821",
        "stopId": "7821"
      },
      "geometry": {
        "type": "Point",
        "coordinates": [
          -93.62603,
          42.0085099
        ]
      }
    },
    {
      "type": "Feature",
      "properties": {
        "title": "S. 16th St. at Creekside",
        "tag": "7830",
        "stopId": "7830"
      },
      "geometry": {
        "type": "Point",
        "coordinates": [
          -93.62342,
          42.00829
        ]
      }
    },
    {
      "type": "Feature",
      "properties": {
        "title": "Laverne Apartments",
        "tag": "7831",
        "stopId": "7831"
      },
      "geometry": {
        "type": "Point",
        "coordinates": [
          -93.62349,
          42.0084599
        ]
      }
    },
    {
      "type": "Feature",
      "properties": {
        "title": "Copper Beech / Pheasant Run",
        "tag": "7840",
        "stopId": "7840"
      },
      "geometry": {
        "type": "Point",
        "coordinates": [
          -93.6194,
          42.0082799
        ]
      }
    },
    {
      "type": "Feature",
      "properties": {
        "title": "The Grove / Copper Beech",
        "tag": "7841",
        "stopId": "7841"
      },
      "geometry": {
        "type": "Point",
        "coordinates": [
          -93.62061,
          42.0084699
        ]
      }
    },
    {
      "type": "Feature",
      "properties": {
        "title": "S. 16th St. at Golden Aspen Dr.",
        "tag": "7850",
        "stopId": "7850"
      },
      "geometry": {
        "type": "Point",
        "coordinates": [
          -93.61583,
          42.00828
        ]
      }
    },
    {
      "type": "Feature",
      "properties": {
        "title": "S. 16th St. at Golden Aspen Dr.",
        "tag": "7851",
        "stopId": "7851"
      },
      "geometry": {
        "type": "Point",
        "coordinates": [
          -93.61659,
          42.0084599
        ]
      }
    },
    {
      "type": "Feature",
      "properties": {
        "title": "S. 16th St. at S. Kellogg",
        "tag": "7860",
        "stopId": "7860"
      },
      "geometry": {
        "type": "Point",
        "coordinates": [
          -93.61371,
          42.0083
        ]
      }
    },
    {
      "type": "Feature",
      "properties": {
        "title": "S. 16th St. at S. Kellogg",
        "tag": "7861",
        "stopId": "7861"
      },
      "geometry": {
        "type": "Point",
        "coordinates": [
          -93.61374,
          42.0084599
        ]
      }
    },
    {
      "type": "Feature",
      "properties": {
        "title": "Buckeye Ave. at S. 16th St.",
        "tag": "7870",
        "stopId": "7870"
      },
      "geometry": {
        "type": "Point",
        "coordinates": [
          -93.61143,
          42.0087399
        ]
      }
    },
    {
      "type": "Feature",
      "properties": {
        "title": "Buckeye Ave. at Chestnut St.",
        "tag": "7880",
        "stopId": "7880"
      },
      "geometry": {
        "type": "Point",
        "coordinates": [
          -93.61145,
          42.01018
        ]
      }
    },
    {
      "type": "Feature",
      "properties": {
        "title": "S. Duff Ave. at Super Wal-Mart",
        "tag": "7910",
        "stopId": "7910"
      },
      "geometry": {
        "type": "Point",
        "coordinates": [
          -93.61017,
          42.01528
        ]
      }
    },
    {
      "type": "Feature",
      "properties": {
        "title": "S. Duff Ave. at Super Wal-Mart",
        "tag": "7911",
        "stopId": "7911"
      },
      "geometry": {
        "type": "Point",
        "coordinates": [
          -93.6104999,
          42.01546
        ]
      }
    },
    {
      "type": "Feature",
      "properties": {
        "title": "S. Duff Ave. at Chestnut St.",
        "tag": "7920",
        "stopId": "7920"
      },
      "geometry": {
        "type": "Point",
        "coordinates": [
          -93.61009,
          42.0103899
        ]
      }
    },
    {
      "type": "Feature",
      "properties": {
        "title": "S. Duff Ave. at Chestnut St.",
        "tag": "7921",
        "stopId": "7921"
      },
      "geometry": {
        "type": "Point",
        "coordinates": [
          -93.6104699,
          42.0110499
        ]
      }
    },
    {
      "type": "Feature",
      "properties": {
        "title": "S. Duff Ave. at S. 16th St.",
        "tag": "7930",
        "stopId": "7930"
      },
      "geometry": {
        "type": "Point",
        "coordinates": [
          -93.60994,
          42.0086699
        ]
      }
    },
    {
      "type": "Feature",
      "properties": {
        "title": "S. Duff Ave. at Airport Rd.",
        "tag": "7940",
        "stopId": "7940"
      },
      "geometry": {
        "type": "Point",
        "coordinates": [
          -93.60976,
          42.00088
        ]
      }
    },
    {
      "type": "Feature",
      "properties": {
        "title": "S. Duff Ave. at Airport Rd.",
        "tag": "7941",
        "stopId": "7941"
      },
      "geometry": {
        "type": "Point",
        "coordinates": [
          -93.6102499,
          42.00076
        ]
      }
    },
    {
      "type": "Feature",
      "properties": {
        "title": "Emerald Dr. at Garden Rd.",
        "tag": "7950",
        "stopId": "7950"
      },
      "geometry": {
        "type": "Point",
        "coordinates": [
          -93.60814,
          41.9901299
        ]
      }
    },
    {
      "type": "Feature",
      "properties": {
        "title": "Emerald Dr. at Jewel Dr.",
        "tag": "7960",
        "stopId": "7960"
      },
      "geometry": {
        "type": "Point",
        "coordinates": [
          -93.60823,
          41.99206
        ]
      }
    },
    {
      "type": "Feature",
      "properties": {
        "title": "Opal Dr. at Jewel Dr.",
        "tag": "7970",
        "stopId": "7970"
      },
      "geometry": {
        "type": "Point",
        "coordinates": [
          -93.60747,
          41.9935599
        ]
      }
    },
    {
      "type": "Feature",
      "properties": {
        "title": "Crystal St. at Opal Dr.",
        "tag": "7980",
        "stopId": "7980"
      },
      "geometry": {
        "type": "Point",
        "coordinates": [
          -93.6088799,
          41.9953299
        ]
      }
    },
    {
      "type": "Feature",
      "properties": {
        "title": "Welch Ave. at Chamberlain St.",
        "tag": "8790",
        "stopId": "8790"
      },
      "geometry": {
        "type": "Point",
        "coordinates": [
          -93.65001,
          42.0213499
        ]
      }
    },
    {
      "type": "Feature",
      "properties": {
        "title": "Welch Ave. at Chamberlain St.",
        "tag": "8791",
        "stopId": "8791"
      },
      "geometry": {
        "type": "Point",
        "coordinates": [
          -93.6502099,
          42.02105
        ]
      }
    },
    {
      "type": "Feature",
      "properties": {
        "title": "Lynn Ave. at Lincoln Way",
        "tag": "8800",
        "stopId": "8800"
      },
      "geometry": {
        "type": "Point",
        "coordinates": [
          -93.6463,
          42.0214199
        ]
      }
    },
    {
      "type": "Feature",
      "properties": {
        "title": "Lynn Ave. at Chamberlain St.",
        "tag": "8811",
        "stopId": "8811"
      },
      "geometry": {
        "type": "Point",
        "coordinates": [
          -93.6464999,
          42.0213399
        ]
      }
    },
    {
      "type": "Feature",
      "properties": {
        "title": "Lynn Ave. at Ash Ave.",
        "tag": "8820",
        "stopId": "8820"
      },
      "geometry": {
        "type": "Point",
        "coordinates": [
          -93.64624,
          42.0198899
        ]
      }
    },
    {
      "type": "Feature",
      "properties": {
        "title": "Knapp St. at Lynn Ave.",
        "tag": "8831",
        "stopId": "8831"
      },
      "geometry": {
        "type": "Point",
        "coordinates": [
          -93.64677,
          42.0192099
        ]
      }
    },
    {
      "type": "Feature",
      "properties": {
        "title": "Knapp St. at Welch Ave.",
        "tag": "8840",
        "stopId": "8840"
      },
      "geometry": {
        "type": "Point",
        "coordinates": [
          -93.6496,
          42.01905
        ]
      }
    },
    {
      "type": "Feature",
      "properties": {
        "title": "Welch Ave. at Knapp St.",
        "tag": "8850",
        "stopId": "8850"
      },
      "geometry": {
        "type": "Point",
        "coordinates": [
          -93.64999,
          42.0193399
        ]
      }
    },
    {
      "type": "Feature",
      "properties": {
        "title": "Welch Ave. at Knapp St.",
        "tag": "8851",
        "stopId": "8851"
      },
      "geometry": {
        "type": "Point",
        "coordinates": [
          -93.6501999,
          42.0189099
        ]
      }
    },
    {
      "type": "Feature",
      "properties": {
        "title": "Towers Welch Turnaround",
        "tag": "8860",
        "stopId": "8860"
      },
      "geometry": {
        "type": "Point",
        "coordinates": [
          -93.64999,
          42.0159899
        ]
      }
    },
    {
      "type": "Feature",
      "properties": {
        "title": "Storm St. at Welch Ave.",
        "tag": "8870",
        "stopId": "8870"
      },
      "geometry": {
        "type": "Point",
        "coordinates": [
          -93.6502799,
          42.01606
        ]
      }
    },
    {
      "type": "Feature",
      "properties": {
        "title": "Storm St. at Welch Ave.",
        "tag": "8871",
        "stopId": "8871"
      },
      "geometry": {
        "type": "Point",
        "coordinates": [
          -93.65043,
          42.0161899
        ]
      }
    },
    {
      "type": "Feature",
      "properties": {
        "title": "Hayward Ave. at Wilson Hall",
        "tag": "8880",
        "stopId": "8880"
      },
      "geometry": {
        "type": "Point",
        "coordinates": [
          -93.65155,
          42.0138599
        ]
      }
    },
    {
      "type": "Feature",
      "properties": {
        "title": "Hayward Ave. at Wilson Hall",
        "tag": "8881",
        "stopId": "8881"
      },
      "geometry": {
        "type": "Point",
        "coordinates": [
          -93.6517499,
          42.01374
        ]
      }
    },
    {
      "type": "Feature",
      "properties": {
        "title": "Mortensen Pkwy at Hayward Ave.",
        "tag": "8890",
        "stopId": "8890"
      },
      "geometry": {
        "type": "Point",
        "coordinates": [
          -93.6512699,
          42.01175
        ]
      }
    },
    {
      "type": "Feature",
      "properties": {
        "title": "Mortensen Pkwy at Hayward Ave.",
        "tag": "8891",
        "stopId": "8891"
      },
      "geometry": {
        "type": "Point",
        "coordinates": [
          -93.6512899,
          42.0119699
        ]
      }
    },
    {
      "type": "Feature",
      "properties": {
        "title": "Mortensen Pkwy at Gateway Hills Park Dr.",
        "tag": "8900",
        "stopId": "8900"
      },
      "geometry": {
        "type": "Point",
        "coordinates": [
          -93.64948,
          42.01175
        ]
      }
    },
    {
      "type": "Feature",
      "properties": {
        "title": "Mortensen Pkwy at Gateway Hills Park Dr.",
        "tag": "8901",
        "stopId": "8901"
      },