{
  "type": "FeatureCollection",
  "features": [
    {
      "type": "Feature",
      "properties": {
        "title": "South Meadow Apartments",
        "tag": "1002",
        "stopId": "1002"
      },
      "geometry": {
        "type": "Point",
        "coordinates": [
          -93.61511,
          42.01741
        ]
      }
    },
    {
      "type": "Feature",
      "properties": {
        "title": "S. 4th St. at S. Maple Ave.",
        "tag": "1007",
        "stopId": "1007"
      },
      "geometry": {
        "type": "Point",
        "coordinates": [
          -93.6254399,
          42.0192
        ]
      }
    },
    {
      "type": "Feature",
      "properties": {
        "title": "Blankenburg Dr. at Stange Rd.",
        "tag": "1016",
        "stopId": "1016"
      },
      "geometry": {
        "type": "Point",
        "coordinates": [
          -93.644317,
          42.0416004
        ]
      }
    },
    {
      "type": "Feature",
      "properties": {
        "title": "University Village Laundry",
        "tag": "1017",
        "stopId": "1017"
      },
      "geometry": {
        "type": "Point",
        "coordinates": [
          -93.6426499,
          42.04136
        ]
      }
    },
    {
      "type": "Feature",
      "properties": {
        "title": "Stotts Rd. at Blankenburg Dr.",
        "tag": "1018",
        "stopId": "1018"
      },
      "geometry": {
        "type": "Point",
        "coordinates": [
          -93.64087,
          42.0411999
        ]
      }
    },
    {
      "type": "Feature",
      "properties": {
        "title": "Stotts Rd. at Edenburn Dr.",
        "tag": "1019",
        "stopId": "1019"
      },
      "geometry": {
        "type": "Point",
        "coordinates": [
          -93.64125,
          42.04299
        ]
      }
    },
    {
      "type": "Feature",
      "properties": {
        "title": "Edenburn Dr. at #27 Schilletter",
        "tag": "1020",
        "stopId": "1020"
      },
      "geometry": {
        "type": "Point",
        "coordinates": [
          -93.6402599,
          42.0443299
        ]
      }
    },
    {
      "type": "Feature",
      "properties": {
        "title": "#40 Schilletter",
        "tag": "1021",
        "stopId": "1021"
      },
      "geometry": {
        "type": "Point",
        "coordinates": [
          -93.64196,
          42.0451199
        ]
      }
    },
    {
      "type": "Feature",
      "properties": {
        "title": "Northern Lights",
        "tag": "1033",
        "stopId": "1033"
      },
      "geometry": {
        "type": "Point",
        "coordinates": [
          -93.6224299,
          42.05395
        ]
      }
    },
    {
      "type": "Feature",
      "properties": {
        "title": "Roy Key Ave. at Wheeler St.",
        "tag": "1034",
        "stopId": "1034"
      },
      "geometry": {
        "type": "Point",
        "coordinates": [
          -93.62341,
          42.05325
        ]
      }
    },
    {
      "type": "Feature",
      "properties": {
        "title": "Roy Key Ave. at 30th St.",
        "tag": "1035",
        "stopId": "1035"
      },
      "geometry": {
        "type": "Point",
        "coordinates": [
          -93.6233999,
          42.0514999
        ]
      }
    },
    {
      "type": "Feature",
      "properties": {
        "title": "S. 5th Ave. at S. Duff Ave.",
        "tag": "1065",
        "stopId": "1065"
      },
      "geometry": {
        "type": "Point",
        "coordinates": [
          -93.6107699,
          42.01743
        ]
      }
    },
    {
      "type": "Feature",
      "properties": {
        "title": "20th St. at Northwestern Ave.",
        "tag": "1069",
        "stopId": "1069"
      },
      "geometry": {
        "type": "Point",
        "coordinates": [
          -93.6261799,
          42.04201
        ]
      }
    },
    {
      "type": "Feature",
      "properties": {
        "title": "16th St. at Northwestern Ave.",
        "tag": "1074",
        "stopId": "1074"
      },
      "geometry": {
        "type": "Point",
        "coordinates": [
          -93.62623,
          42.03825
        ]
      }
    },
    {
      "type": "Feature",
      "properties": {
        "title": "Howe Hall",
        "tag": "1092",
        "stopId": "1092"
      },
      "geometry": {
        "type": "Point",
        "coordinates": [
          -93.6519099,
          42.0274799
        ]
      }
    },
    {
      "type": "Feature",
      "properties": {
        "title": "Sweeney Hall",
        "tag": "1122",
        "stopId": "1122"
      },
      "geometry": {
        "type": "Point",
        "coordinates": [
          -93.65188,
          42.0276599
        ]
      }
    },
    {
      "type": "Feature",
      "properties": {
        "title": "Lake Laverne",
        "tag": "1174",
        "stopId": "1174"
      },
      "geometry": {
        "type": "Point",
        "coordinates": [
          -93.649643,
          42.0236267
        ]
      }
    },
    {
      "type": "Feature",
      "properties": {
        "title": "Enrollment Services Building",
        "tag": "1175",
        "stopId": "1175"
      },
      "geometry": {
        "type": "Point",
        "coordinates": [
          -93.64954,
          42.02445
        ]
      }
    },
    {
      "type": "Feature",
      "properties": {
        "title": "Student Services",
        "tag": "1176",
        "stopId": "1176"
      },
      "geometry": {
        "type": "Point",
        "coordinates": [
          -93.6507781,
          42.0251838
        ]
      }
    },
    {
      "type": "Feature",
      "properties": {
        "title": "Beyer Hall",
        "tag": "1177",
        "stopId": "1177"
      },
      "geometry": {
        "type": "Point",
        "coordinates": [
          -93.65296,
          42.0253699
        ]
      }
    },
    {
      "type": "Feature",
      "properties": {
        "title": "Steinbeck St. at S. Dakota Ave.",
        "tag": "1188",
        "stopId": "1188"
      },
      "geometry": {
        "type": "Point",
        "coordinates": [
          -93.6792599,
          42.01458
        ]
      }
    },
    {
      "type": "Feature",
      "properties": {
        "title": "Dickenson Ave. at Steinbeck St.",
        "tag": "1189",
        "stopId": "1189"
      },
      "geometry": {
        "type": "Point",
        "coordinates": [
          -93.68107,
          42.0142299
        ]
      }
    },
    {
      "type": "Feature",
      "properties": {
        "title": "Dickenson Ave. at Mortensen Rd.",
        "tag": "1190",
        "stopId": "1190"
      },
      "geometry": {
        "type": "Point",
        "coordinates": [
          -93.68158,
          42.0128999
        ]
      }
    },
    {
      "type": "Feature",
      "properties": {
        "title": "State Gym",
        "tag": "1209",
        "stopId": "1209"
      },
      "geometry": {
        "type": "Point",
        "coordinates": [
          -93.65268,
          42.0253399
        ]
      }
    },
    {
      "type": "Feature",
      "properties": {
        "title": "Upper Friley",
        "tag": "1210",
        "stopId": "1210"
      },
      "geometry": {
        "type": "Point",
        "coordinates": [
          -93.65049,
          42.025
        ]
      }
    },
    {
      "type": "Feature",
      "properties": {
        "title": "Lower Friley",
        "tag": "1211",
        "stopId": "1211"
      },
      "geometry": {
        "type": "Point",
        "coordinates": [
          -93.6498,
          42.0234699
        ]
      }
    },
    {
      "type": "Feature",
      "properties": {
        "title": "S. 16th St. at Duff Ave.",
        "tag": "1322",
        "stopId": "1322"
      },
      "geometry": {
        "type": "Point",
        "coordinates": [
          -93.6107199,
          42.0083799
        ]
      }
    },
    {
      "type": "Feature",
      "properties": {
        "title": "Bissell Rd. at Osborn Dr.",
        "tag": "1383",
        "stopId": "1383"
      },
      "geometry": {
        "type": "Point",
        "coordinates": [
          -93.65188,
          42.02927
        ]
      }
    },
    {
      "type": "Feature",
      "properties": {
        "title": "Pammel Dr. at Spedding Hall",
        "tag": "1384",
        "stopId": "1384"
      },
      "geometry": {
        "type": "Point",
        "coordinates": [
          -93.6501,
          42.0305
        ]
      }
    },
    {
      "type": "Feature",
      "properties": {
        "title": "Pammel Dr. at Science II",
        "tag": "1385",
        "stopId": "1385"
      },
      "geometry": {
        "type": "Point",
        "coordinates": [
          -93.64603,
          42.0305
        ]
      }
    },
    {
      "type": "Feature",
      "properties": {
        "title": "Todd Dr. at Sinclair Ave.",
        "tag": "1389",
        "stopId": "1389"
      },
      "geometry": {
        "type": "Point",
        "coordinates": [
          -93.6810299,
          42.02173
        ]
      }
    },
    {
      "type": "Feature",
      "properties": {
        "title": "Todd Dr. at College Creek Apartments",
        "tag": "1390",
        "stopId": "1390"
      },
      "geometry": {
        "type": "Point",
        "coordinates": [
          -93.68346,
          42.02186
        ]
      }
    },
    {
      "type": "Feature",
      "properties": {
        "title": "Thackery Ave. at Todd Dr.",
        "tag": "1391",
        "stopId": "1391"
      },
      "geometry": {
        "type": "Point",
        "coordinates": [
          -93.68476,
          42.0222699
        ]
      }
    },
    {
      "type": "Feature",
      "properties": {
        "title": "Lincoln Way at Alcott Ave.",
        "tag": "1392",
        "stopId": "1392"
      },
      "geometry": {
        "type": "Point",
        "coordinates": [
          -93.68103,
          42.02287
        ]
      }
    },
    {
      "type": "Feature",
      "properties": {
        "title": "Lincoln Way at Hyland Ave.",
        "tag": "1393",
        "stopId": "1393"
      },
      "geometry": {
        "type": "Point",
        "coordinates": [
          -93.65537,
          42.02265
        ]
      }
    },
    {
      "type": "Feature",
      "properties": {
        "title": "Lincoln Way at Sheldon Ave.",
        "tag": "1394",
        "stopId": "1394"
      },
      "geometry": {
        "type": "Point",
        "coordinates": [
          -93.65327,
          42.02266
        ]
      }
    },
    {
      "type": "Feature",
      "properties": {
        "title": "Lake Laverne",
        "tag": "1395",
        "stopId": "1395"
      },
      "geometry": {
        "type": "Point",
        "coordinates": [
          -93.64897,
          42.02404
        ]
      }
    },
    {
      "type": "Feature",
      "properties": {
        "title": "Todd Dr. at Alcott Ave.",
        "tag": "1399",
        "stopId": "1399"
      },
      "geometry": {
        "type": "Point",
        "coordinates": [
          -93.6823099,
          42.02187
        ]
      }
    },
    {
      "type": "Feature",
      "properties": {
        "title": "Todd Dr. at Sinclair Ave.",
        "tag": "1400",
        "stopId": "1400"
      },
      "geometry": {
        "type": "Point",
        "coordinates": [
          -93.68072,
          42.02162
        ]
      }
    },
    {
      "type": "Feature",
      "properties": {
        "title": "Christensen at Veterinary Medicine",
        "tag": "1406",
        "stopId": "1406"
      },
      "geometry": {
        "type": "Point",
        "coordinates": [
          -93.6340299,
          42.0063999
        ]
      }
    },
    {
      "type": "Feature",
      "properties": {
        "title": "Aquatics Center",
        "tag": "1422",
        "stopId": "1422"
      },
      "geometry": {
        "type": "Point",
        "coordinates": [
          -93.63196,
          42.0355599
        ]
      }
    },
    {
      "type": "Feature",
      "properties": {
        "title": "13th St. at Roosevelt Ave.",
        "tag": "1423",
        "stopId": "1423"
      },
      "geometry": {
        "type": "Point",
        "coordinates": [
          -93.6228099,
          42.0346499
        ]
      }
    },
    {
      "type": "Feature",
      "properties": {
        "title": "13th St. at Northwestern Ave.",
        "tag": "1424",
        "stopId": "1424"
      },
      "geometry": {
        "type": "Point",
        "coordinates": [
          -93.62621,
          42.0346399
        ]
      }
    },
    {
      "type": "Feature",
      "properties": {
        "title": "13th St. at Northwestern Ave.",
        "tag": "1425",
        "stopId": "1425"
      },
      "geometry": {
        "type": "Point",
        "coordinates": [
          -93.62538,
          42.03446
        ]
      }
    },
    {
      "type": "Feature",
      "properties": {
        "title": "13th St. at Roosevelt Ave.",
        "tag": "1426",
        "stopId": "1426"
      },
      "geometry": {
        "type": "Point",
        "coordinates": [
          -93.62219,
          42.03446
        ]
      }
    },
    {
      "type": "Feature",
      "properties": {
        "title": "Union Drive at the Knoll",
        "tag": "1460",
        "stopId": "1460"
      },
      "geometry": {
        "type": "Point",
        "coordinates": [
          -93.6430899,
          42.02386
        ]
      }
    },
    {
      "type": "Feature",
      "properties": {
        "title": "Lincoln Way at Beach Ave.",
        "tag": "2000",
        "stopId": "2000"
      },
      "geometry": {
        "type": "Point",
        "coordinates": [
          -93.63901,
          42.0226499
        ]
      }
    },
    {
      "type": "Feature",
      "properties": {
        "title": "Lincoln Way at Beach Ave.",
        "tag": "2001",
        "stopId": "2001"
      },
      "geometry": {
        "type": "Point",
        "coordinates": [
          -93.64006,
          42.0227599
        ]
      }
    },
    {
      "type": "Feature",
      "properties": {
        "title": "Buchanan Hall",
        "tag": "2010",
        "stopId": "2010"
      },
      "geometry": {
        "type": "Point",
        "coordinates": [
          -93.64245,
          42.02268
        ]
      }
    },
    {
      "type": "Feature",
      "properties": {
        "title": "Lincoln Way at Union Dr.",
        "tag": "2011",
        "stopId": "2011"
      },
      "geometry": {
        "type": "Point",
        "coordinates": [
          -93.64224,
          42.02278
        ]
      }
    },
    {
      "type": "Feature",
      "properties": {
        "title": "Lincoln Way at Lynn Ave.",
        "tag": "2020",
        "stopId": "2020"
      },
      "geometry": {
        "type": "Point",
        "coordinates": [
          -93.6457499,
          42.02269
        ]
      }
    },
    {
      "type": "Feature",
      "properties": {
        "title": "Lincoln Way at Lynn Ave.",
        "tag": "2021",
        "stopId": "2021"
      },
      "geometry": {
        "type": "Point",
        "coordinates": [
          -93.6469699,
          42.02282
        ]
      }
    },
    {
      "type": "Feature",
      "properties": {
        "title": "Kingland Systems",
        "tag": "2030",
        "stopId": "2030"
      },
      "geometry": {
        "type": "Point",
        "coordinates": [
          -93.6491799,
          42.02272
        ]
      }
    },
    {
      "type": "Feature",
      "properties": {
        "title": "West St. at Hyland Ave.",
        "tag": "2070",
        "stopId": "2070"
      },
      "geometry": {
        "type": "Point",
        "coordinates": [
          -93.65501,
          42.02533
        ]
      }
    },
    {
      "type": "Feature",
      "properties": {
        "title": "West St. at Hyland Ave.",
        "tag": "2071",
        "stopId": "2071"
      },
      "geometry": {
        "type": "Point",
        "coordinates": [
          -93.65542,
          42.02534
        ]
      }
    },
    {
      "type": "Feature",
      "properties": {
        "title": "Maple Hall",
        "tag": "2200",
        "stopId": "2200"
      },
      "geometry": {
        "type": "Point",
        "coordinates": [
          -93.6392999,
          42.02381
        ]
      }
    },
    {
      "type": "Feature",
      "properties": {
        "title": "Beach Rd. at Linden Hall",
        "tag": "2201",
        "stopId": "2201"
      },
      "geometry": {
        "type": "Point",
        "coordinates": [
          -93.6394399,
          42.02322
        ]
      }
    },
    {
      "type": "Feature",
      "properties": {
        "title": "Lied Recreation",
        "tag": "2210",
        "stopId": "2210"
      },
      "geometry": {
        "type": "Point",
        "coordinates": [
          -93.63899,
          42.0265
        ]
      }
    },
    {
      "type": "Feature",
      "properties": {
        "title": "Beach Rd. at Forker Hall",
        "tag": "2211",
        "stopId": "2211"
      },
      "geometry": {
        "type": "Point",
        "coordinates": [
          -93.6390099,
          42.0261599
        ]
      }
    },
    {
      "type": "Feature",
      "properties": {
        "title": "General Serivces South",
        "tag": "2221",
        "stopId": "2221"
      },
      "geometry": {
        "type": "Point",
        "coordinates": [
          -93.6406799,
          42.02726
        ]
      }
    },
    {
      "type": "Feature",
      "properties": {
        "title": "General Serivces West",
        "tag": "2230",
        "stopId": "2230"
      },
      "geometry": {
        "type": "Point",
        "coordinates": [
          -93.64149,
          42.0282199
        ]
      }
    },
    {
      "type": "Feature",
      "properties": {
        "title": "Agronomy Hall",
        "tag": "2231",
        "stopId": "2231"
      },
      "geometry": {
        "type": "Point",
        "coordinates": [
          -93.64152,
          42.0281699
        ]
      }
    },
    {
      "type": "Feature",
      "properties": {
        "title": "Parks Library",
        "tag": "2241",
        "stopId": "2241"
      },
      "geometry": {
        "type": "Point",
        "coordinates": [
          -93.64794,
          42.0279199
        ]
      }
    },
    {
      "type": "Feature",
      "properties": {
        "title": "Beardshear Hall",
        "tag": "2251",
        "stopId": "2251"
      },
      "geometry": {
        "type": "Point",
        "coordinates": [
          -93.64792,
          42.02606
        ]
      }
    },
    {
      "type": "Feature",
      "properties": {
        "title": "Memorial Union",
        "tag": "2260",
        "stopId": "2260"
      },
      "geometry": {
        "type": "Point",
        "coordinates": [
          -93.6460999,
          42.02459
        ]
      }
    },
    {
      "type": "Feature",
      "properties": {
        "title": "Memorial Union",
        "tag": "2261",
        "stopId": "2261"
      },
      "geometry": {
        "type": "Point",
        "coordinates": [
          -93.64597,
          42.0245599
        ]
      }
    },
    {
      "type": "Feature",
      "properties": {
        "title": "Wallace Rd. at Gerdin Hall",
        "tag": "2270",
        "stopId": "2270"
      },
      "geometry": {
        "type": "Point",
        "coordinates": [
          -93.6437699,
          42.02522
        ]
      }
    },
    {
      "type": "Feature",
      "properties": {
        "title": "Wallace Rd. at Gerdin Hall",
        "tag": "2271",
        "stopId": "2271"
      },
      "geometry": {
        "type": "Point",
        "coordinates": [
          -93.64346,
          42.0254199
        ]
      }
    },
    {
      "type": "Feature",
      "properties": {
        "title": "Food Science",
        "tag": "2280",
        "stopId": "2280"
      },
      "geometry": {
        "type": "Point",
        "coordinates": [
          -93.64228,
          42.0264499
        ]
      }
    },
    {
      "type": "Feature",
      "properties": {
        "title": "Wallace Rd. at Forker Hall",
        "tag": "2281",
        "stopId": "2281"
      },
      "geometry": {
        "type": "Point",
        "coordinates": [
          -93.6419799,
          42.02666
        ]
      }
    },
    {
      "type": "Feature",
      "properties": {
        "title": "Beach Ave. at Lincoln Way",
        "tag": "2301",
        "stopId": "2301"
      },
      "geometry": {
        "type": "Point",
        "coordinates": [
          -93.63948,
          42.02232
        ]
      }
    },
    {
      "type": "Feature",
      "properties": {
        "title": "University Blvd. at Stange Rd.",
        "tag": "2490",
        "stopId": "2490"
      },
      "geometry": {
        "type": "Point",
        "coordinates": [
          -93.64367,
          42.0305
        ]
      }
    },
    {
      "type": "Feature",
      "properties": {
        "title": "University Blvd. at Stange Rd.",
        "tag": "2491",
        "stopId": "2491"
      },
      "geometry": {
        "type": "Point",
        "coordinates": [
          -93.64404,
          42.03054
        ]
      }
    },
    {
      "type": "Feature",
      "properties": {
        "title": "Bessey Hall",
        "tag": "2500",
        "stopId": "2500"
      },
      "geometry": {
        "type": "Point",
        "coordinates": [
          -93.644,
          42.0288599
        ]
      }
    },
    {
      "type": "Feature",
      "properties": {
        "title": "Kildee Hall",
        "tag": "2501",
        "stopId": "2501"
      },
      "geometry": {
        "type": "Point",
        "coordinates": [
          -93.64444,
          42.0288899
        ]
      }
    },
    {
      "type": "Feature",
      "properties": {
        "title": "Physics Hall",
        "tag": "2511",
        "stopId": "2511"
      },
      "geometry": {
        "type": "Point",
        "coordinates": [
          -93.6468599,
          42.02888
        ]
      }
    },
    {
      "type": "Feature",
      "properties": {
        "title": "Parks Library",
        "tag": "2520",
        "stopId": "2520"
      },
      "geometry": {
        "type": "Point",
        "coordinates": [
          -93.64854,
          42.02886
        ]
      }
    },
    {
      "type": "Feature",
      "properties": {
        "title": "Gilman Hall",
        "tag": "2521",
        "stopId": "2521"
      },
      "geometry": {
        "type": "Point",
        "coordinates": [
          -93.6488999,
          42.0288899
        ]
      }
    },
    {
      "type": "Feature",
      "properties": {
        "title": "Coover Hall",
        "tag": "2530",
        "stopId": "2530"
      },
      "geometry": {
        "type": "Point",
        "coordinates": [
          -93.6508299,
          42.02886
        ]
      }
    },
    {
      "type": "Feature",
      "properties": {
        "title": "Armory",
        "tag": "2531",
        "stopId": "2531"
      },
      "geometry": {
        "type": "Point",
        "coordinates": [
          -93.65101,
          42.0288899
        ]
      }
    },
    {
      "type": "Feature",
      "properties": {
        "title": "Mortensen Rd. at Miller Ave.",
        "tag": "3280",
        "stopId": "3280"
      },
      "geometry": {
        "type": "Point",
        "coordinates": [
          -93.68658,
          42.0135299
        ]
      }
    },
    {
      "type": "Feature",
      "properties": {
        "title": "Mortensen Rd. at Poe Ave.",
        "tag": "3290",
        "stopId": "3290"
      },
      "geometry": {
        "type": "Point",
        "coordinates": [
          -93.68442,
          42.01289
        ]
      }
    },
    {
      "type": "Feature",
      "properties": {
        "title": "Mortensen Rd. at Poe Ave.",
        "tag": "3291",
        "stopId": "3291"
      },
      "geometry": {
        "type": "Point",
        "coordinates": [
          -93.6848199,
          42.0129999
        ]
      }
    },
    {
      "type": "Feature",
      "properties": {
        "title": "Mortensen Rd. at Coconino Rd.",
        "tag": "3300",
        "stopId": "3300"
      },
      "geometry": {
        "type": "Point",
        "coordinates": [
          -93.6760599,
          42.01206
        ]
      }
    },
    {
      "type": "Feature",
      "properties": {
        "title": "Mortensen Rd. at Pinon Rd.",
        "tag": "3301",
        "stopId": "3301"
      },
      "geometry": {
        "type": "Point",
        "coordinates": [
          -93.6750699,
          42.01205
        ]
      }
    },
    {
      "type": "Feature",
      "properties": {
        "title": "Mortensen Rd. at Dotson Dr.",
        "tag": "3310",
        "stopId": "3310"
      },
      "geometry": {
        "type": "Point",
        "coordinates": [
          -93.67355,
          42.01197
        ]
      }
    },
    {
      "type": "Feature",
      "properties": {
        "title": "Ames Middle School",
        "tag": "3333",
        "stopId": "3333"
      },
      "geometry": {
        "type": "Point",
        "coordinates": [
          -93.67143,
          42.0121999
        ]
      }
    },
    {
      "type": "Feature",
      "properties": {
        "title": "Todd Dr. at Thackery Ave.",
        "tag": "3450",
        "stopId": "3450"
      },
      "geometry": {
        "type": "Point",
        "coordinates": [
          -93.6845,
          42.0218999
        ]
      }
    },
    {
      "type": "Feature",
      "properties": {
        "title": "Lincoln Way at Alcott Ave.",
        "tag": "3461",
        "stopId": "3461"
      },
      "geometry": {
        "type": "Point",
        "coordinates": [
          -93.6824099,
          42.02295
        ]
      }
    },
    {
      "type": "Feature",
      "properties": {
        "title": "Dickenson Ave. at Mortensen Rd.",
        "tag": "3470",
        "stopId": "3470"
      },
      "geometry": {
        "type": "Point",
        "coordinates": [
          -93.6816617,
          42.0126823
        ]
      }
    },
    {
      "type": "Feature",
      "properties": {
        "title": "Dickenson Ave. at Steinbeck St.",
        "tag": "3480",
        "stopId": "3480"
      },
      "geometry": {
        "type": "Point",
        "coordinates": [
          -93.6811399,
          42.01407
        ]
      }
    },
    {
      "type": "Feature",
      "properties": {
        "title": "Steinbeck St. at S. Dakota Ave.",
        "tag": "3490",
        "stopId": "3490"
      },
      "geometry": {
        "type": "Point",
        "coordinates": [
          -93.6791199,
          42.01459
        ]
      }
    },
    {
      "type": "Feature",
      "properties": {
        "title": "S. Dakota Ave. at Clemens Blvd.",
        "tag": "3500",
        "stopId": "3500"
      },
      "geometry": {
        "type": "Point",
        "coordinates": [
          -93.67868,
          42.01813
        ]
      }
    },
    {
      "type": "Feature",
      "properties": {
        "title": "S. Dakota Ave. at Clemens Blvd.",
        "tag": "3501",
        "stopId": "3501"
      },
      "geometry": {
        "type": "Point",
        "coordinates": [
          -93.67868,
          42.0176399
        ]
      }
    },
    {
      "type": "Feature",
      "properties": {
        "title": "S. Dakota Ave. at Todd Dr.",
        "tag": "3510",
        "stopId": "3510"
      },
      "geometry": {
        "type": "Point",
        "coordinates": [
          -93.6787,
          42.02146
        ]
      }
    },
    {
      "type": "Feature",
      "properties": {
        "title": "S. Dakota Ave. at Todd Dr.",
        "tag": "3511",
        "stopId": "3511"
      },
      "geometry": {
        "type": "Point",
        "coordinates": [
          -93.6787,
          42.0211199
        ]
      }
    },
    {
      "type": "Feature",
      "properties": {
        "title": "S. Dakota Ave. at Lincoln Swing",
        "tag": "3521",
        "stopId": "3521"
      },
      "geometry": {
        "type": "Point",
        "coordinates": [
          -93.6787099,
          42.0222299
        ]
      }
    },
    {
      "type": "Feature",
      "properties": {
        "title": "Lincoln Way at S. Dakota Ave.",
        "tag": "3530",
        "stopId": "3530"
      },
      "geometry": {
        "type": "Point",
        "coordinates": [
          -93.6782199,
          42.02287
        ]
      }
    },
    {
      "type": "Feature",
      "properties": {
        "title": "Lincoln Way at N. Dakota Ave.",
        "tag": "3531",
        "stopId": "3531"
      },
      "geometry": {
        "type": "Point",
        "coordinates": [
          -93.6791599,
          42.023
        ]
      }
    },
    {
      "type": "Feature",
      "properties": {
        "title": "Lincoln Way at Beedle Dr.",
        "tag": "3540",
        "stopId": "3540"
      },
      "geometry": {
        "type": "Point",
        "coordinates": [
          -93.67279,
          42.0228499
        ]
      }
    },
    {
      "type": "Feature",
      "properties": {
        "title": "Lincoln Way at Hickory Dr.",
        "tag": "3541",
        "stopId": "3541"
      },
      "geometry": {
        "type": "Point",
        "coordinates": [
          -93.67358,
          42.02296
        ]
      }
    },
    {
      "type": "Feature",
      "properties": {
        "title": "Lincoln Way at Marshall Ave.",
        "tag": "3550",
        "stopId": "3550"
      },
      "geometry": {
        "type": "Point",
        "coordinates": [
          -93.66849,
          42.02277
        ]
      }
    },
    {
      "type": "Feature",
      "properties": {
        "title": "Lincoln Way at Marshall Ave.",
        "tag": "3551",
        "stopId": "3551"
      },
      "geometry": {
        "type": "Point",
        "coordinates": [
          -93.66994,
          42.0228999
        ]
      }
    },
    {
      "type": "Feature",
      "properties": {
        "title": "Lincoln Way at S. Franklin Ave.",
        "tag": "3560",
        "stopId": "3560"
      },
      "geometry": {
        "type": "Point",
        "coordinates": [
          -93.66525,
          42.02281
        ]
      }
    },
    {
      "type": "Feature",
      "properties": {
        "title": "Lincoln Way at Franklin Ave.",
        "tag": "3561",
        "stopId": "3561"
      },
      "geometry": {
        "type": "Point",
        "coordinates": [
          -93.6655899,
          42.0228
        ]
      }
    },
    {
      "type": "Feature",
      "properties": {
        "title": "Lincoln Way at S. Wilmoth Ave.",
        "tag": "3570",
        "stopId": "3570"
      },
      "geometry": {
        "type": "Point",
        "coordinates": [
          -93.6613499,
          42.02276
        ]
      }
    },
    {
      "type": "Feature",
      "properties": {
        "title": "Lincoln Way at Wilmoth Ave.",
        "tag": "3571",
        "stopId": "3571"
      },
      "geometry": {
        "type": "Point",
        "coordinates": [
          -93.66208,
          42.02277
        ]
      }
    },
    {
      "type": "Feature",
      "properties": {
        "title": "Lincoln Way at State Ave.",
        "tag": "3580",
        "stopId": "3580"
      },
      "geometry": {
        "type": "Point",
        "coordinates": [
          -93.6585,
          42.02271
        ]
      }
    },
    {
      "type": "Feature",
      "properties": {
        "title": "Lincoln Way at State Ave.",
        "tag": "3581",
        "stopId": "3581"
      },
      "geometry": {
        "type": "Point",
        "coordinates": [
          -93.6594199,
          42.02273
        ]
      }
    },
    {
      "type": "Feature",
      "properties": {
        "title": "Hyland Ave. at Lincoln Way",
        "tag": "3590",
        "stopId": "3590"
      },
      "geometry": {
        "type": "Point",
        "coordinates": [
          -93.65556,
          42.02316
        ]
      }
    },
    {
      "type": "Feature",
      "properties": {
        "title": "Hyland Ave. at Lincoln Way",
        "tag": "3591",
        "stopId": "3591"
      },
      "geometry": {
        "type": "Point",
        "coordinates": [
          -93.6555999,
          42.02303
        ]
      }
    },
    {
      "type": "Feature",
      "properties": {
        "title": "Hyland Ave. at Sheldon",
        "tag": "3800",
        "stopId": "3800"
      },
      "geometry": {
        "type": "Point",
        "coordinates": [
          -93.6557,
          42.02855
        ]
      }
    },
    {
      "type": "Feature",
      "properties": {
        "title": "Hyland Ave. at Oakland St.",
        "tag": "3801",
        "stopId": "3801"
      },
      "geometry": {
        "type": "Point",
        "coordinates": [
          -93.6557299,
          42.02844
        ]
      }
    },
    {
      "type": "Feature",
      "properties": {
        "title": "Hyland Ave. at Forest Hills Dr.",
        "tag": "3810",
        "stopId": "3810"
      },
      "geometry": {
        "type": "Point",
        "coordinates": [
          -93.65566,
          42.0308399
        ]
      }
    },
    {
      "type": "Feature",
      "properties": {
        "title": "Hyland Ave. at Forest Hills Dr.",
        "tag": "3811",
        "stopId": "3811"
      },
      "geometry": {
        "type": "Point",
        "coordinates": [
          -93.65565,
          42.03212
        ]
      }
    },
    {
      "type": "Feature",
      "properties": {
        "title": "Hyland Ave. at Ross Rd.",
        "tag": "3820",
        "stopId": "3820"
      },
      "geometry": {
        "type": "Point",
        "coordinates": [
          -93.65564,
          42.03332
        ]
      }
    },
    {
      "type": "Feature",
      "properties": {
        "title": "Hyland Ave. at Ontario St.",
        "tag": "3831",
        "stopId": "3831"
      },
      "geometry": {
        "type": "Point",
        "coordinates": [
          -93.6556599,
          42.03407
        ]
      }
    },
    {
      "type": "Feature",
      "properties": {
        "title": "Ontario St. at Hyland Ave.",
        "tag": "3841",
        "stopId": "3841"
      },
      "geometry": {
        "type": "Point",
        "coordinates": [
          -93.6569099,
          42.03447
        ]
      }
    },
    {
      "type": "Feature",
      "properties": {
        "title": "Ontario St. at Iowa Ave.",
        "tag": "3850",
        "stopId": "3850"
      },
      "geometry": {
        "type": "Point",
        "coordinates": [
          -93.65892,
          42.0344399
        ]
      }
    },
    {
      "type": "Feature",
      "properties": {
        "title": "Ontario St. at Iowa Cir.",
        "tag": "3851",
        "stopId": "3851"
      },
      "geometry": {
        "type": "Point",
        "coordinates": [
          -93.6594899,
          42.03446
        ]
      }
    },
    {
      "type": "Feature",
      "properties": {
        "title": "Ontario St. at Wisconsin Ave.",
        "tag": "3860",
        "stopId": "3860"
      },
      "geometry": {
        "type": "Point",
        "coordinates": [
          -93.6613899,
          42.0344399
        ]
      }
    },
    {
      "type": "Feature",
      "properties": {
        "title": "Ontario St. at Minnesota Ave.",
        "tag": "3861",
        "stopId": "3861"
      },
      "geometry": {
        "type": "Point",
        "coordinates": [
          -93.66256,
          42.03446
        ]
      }
    },
    {
      "type": "Feature",
      "properties": {
        "title": "Ontario St. at Scholl Rd.",
        "tag": "3870",
        "stopId": "3870"
      },
      "geometry": {
        "type": "Point",
        "coordinates": [
          -93.66515,
          42.03444
        ]
      }
    },
    {
      "type": "Feature",
      "properties": {
        "title": "Ontario St. at Scholl Rd.",
        "tag": "3871",
        "stopId": "3871"
      },
      "geometry": {
        "type": "Point",
        "coordinates": [
          -93.66577,
          42.03447
        ]
      }
    },
    {
      "type": "Feature",
      "properties": {
        "title": "Ontario St. at Garfield Ave.",
        "tag": "3880",
        "stopId": "3880"
      },
      "geometry": {
        "type": "Point",
        "coordinates": [
          -93.66822,
          42.0344499
        ]
      }
    },
    {
      "type": "Feature",
      "properties": {
        "title": "Ontario St. at Garfield Ave.",
        "tag": "3881",
        "stopId": "3881"
      },
      "geometry": {
        "type": "Point",
        "coordinates": [
          -93.67004,
          42.0344999
        ]
      }
    },
    {
      "type": "Feature",
      "properties": {
        "title": "Ontario St. at Alabama Ln.",
        "tag": "3890",
        "stopId": "3890"
      },
      "geometry": {
        "type": "Point",
        "coordinates": [
          -93.67192,
          42.03448
        ]
      }
    },
    {
      "type": "Feature",
      "properties": {
        "title": "Ontario St. at Alabama Ln.",
        "tag": "3891",
        "stopId": "3891"
      },
      "geometry": {
        "type": "Point",
        "coordinates": [
          -93.67227,
          42.03451
        ]
      }
    },
    {
      "type": "Feature",
      "properties": {
        "title": "Ontario St. at Arizona Ave.",
        "tag": "3894",
        "stopId": "3894"
      },
      "geometry": {
        "type": "Point",
        "coordinates": [
          -93.6747,
          42.03451
        ]
      }
    },
    {
      "type": "Feature",
      "properties": {
        "title": "Ontario St. at Woodstock Ave.",
        "tag": "3900",
        "stopId": "3900"
      },
      "geometry": {
        "type": "Point",
        "coordinates": [
          -93.67692,
          42.03456
        ]
      }
    },
    {
      "type": "Feature",
      "properties": {
        "title": "Ontario St. at Sawyer School",
        "tag": "3901",
        "stopId": "3901"
      },
      "geometry": {
        "type": "Point",
        "coordinates": [
          -93.6776199,
          42.03446
        ]
      }
    },
    {
      "type": "Feature",
      "properties": {
        "title": "Ontario St. at Delaware Ave.",
        "tag": "3910",
        "stopId": "3910"
      },
      "geometry": {
        "type": "Point",
        "coordinates": [
          -93.68014,
          42.03454
        ]
      }
    },
    {
      "type": "Feature",
      "properties": {
        "title": "Ontario St. at Delaware Ave.",
        "tag": "3911",
        "stopId": "3911"
      },
      "geometry": {
        "type": "Point",
        "coordinates": [
          -93.6805199,
          42.03456
        ]
      }
    },
    {
      "type": "Feature",
      "properties": {
        "title": "Ontario St. at Georgia Ave.",
        "tag": "3920",
        "stopId": "3920"
      },
      "geometry": {
        "type": "Point",
        "coordinates": [
          -93.68223,
          42.03452
        ]
      }
    },
    {
      "type": "Feature",
      "properties": {
        "title": "Ontario St. at Georgia Ave.",
        "tag": "3921",
        "stopId": "3921"
      },
      "geometry": {
        "type": "Point",
        "coordinates": [
          -93.6829599,
          42.0345299
        ]
      }
    },
    {
      "type": "Feature",
      "properties": {
        "title": "Ontario St. at Illinois Ave.",
        "tag": "3930",
        "stopId": "3930"
      },
      "geometry": {
        "type": "Point",
        "coordinates": [
          -93.68457,
          42.03449
        ]
      }
    },
    {
      "type": "Feature",
      "properties": {
        "title": "Ontario St. at Illinois Ave.",
        "tag": "3931",
        "stopId": "3931"
      },
      "geometry": {
        "type": "Point",
        "coordinates": [
          -93.6855099,
          42.0345
        ]
      }
    },
    {
      "type": "Feature",
      "properties": {
        "title": "Ontario St. at Kentucky Ave.",
        "tag": "3940",
        "stopId": "3940"
      },
      "geometry": {
        "type": "Point",
        "coordinates": [
          -93.6868299,
          42.03448
        ]
      }
    },
    {
      "type": "Feature",
      "properties": {
        "title": "Ontario St. at Kentucky Ave.",
        "tag": "3941",
        "stopId": "3941"
      },
      "geometry": {
        "type": "Point",
        "coordinates": [
          -93.6882299,
          42.0345
        ]
      }
    },
    {
      "type": "Feature",
      "properties": {
        "title": "Ontario St. at California Ave.",
        "tag": "3951",
        "stopId": "3951"
      },
      "geometry": {
        "type": "Point",
        "coordinates": [
          -93.69105,
          42.0346999
        ]
      }
    },
    {
      "type": "Feature",
      "properties": {
        "title": "Grand Ave. at 30th St.",
        "tag": "4000",
        "stopId": "4000"
      },
      "geometry": {
        "type": "Point",
        "coordinates": [
          -93.6205,
          42.05152
        ]
      }
    },
    {
      "type": "Feature",
      "properties": {
        "title": "Grand Ave. at Wheeler St.",
        "tag": "4010",
        "stopId": "4010"
      },
      "geometry": {
        "type": "Point",
        "coordinates": [
          -93.6205308,
          42.05418
        ]
      }
    },
    {
      "type": "Feature",
      "properties": {
        "title": "Grand Ave. at Wheeler St.",
        "tag": "4011",
        "stopId": "4011"
      },
      "geometry": {
        "type": "Point",
        "coordinates": [
          -93.6208299,
          42.0536099
        ]
      }
    },
    {
      "type": "Feature",
      "properties": {
        "title": "Bloomington Rd. at Grand Ave.",
        "tag": "4020",
        "stopId": "4020"
      },
      "geometry": {
        "type": "Point",
        "coordinates": [
          -93.62097,
          42.05595
        ]
      }
    },
    {
      "type": "Feature",
      "properties": {
        "title": "Bloomington Rd. at Grand Ave.",
        "tag": "4021",
        "stopId": "4021"
      },
      "geometry": {
        "type": "Point",
        "coordinates": [
          -93.6210999,
          42.05605
        ]
      }
    },
    {
      "type": "Feature",
      "properties": {
        "title": "Bloomington Rd. at Roy Key Ave.",
        "tag": "4030",
        "stopId": "4030"
      },
      "geometry": {
        "type": "Point",
        "coordinates": [
          -93.62334,
          42.05606
        ]
      }
    },
    {
      "type": "Feature",
      "properties": {
        "title": "Bloomington Rd. at Roy Key Ave.",
        "tag": "4031",
        "stopId": "4031"
      },
      "geometry": {
        "type": "Point",
        "coordinates": [
          -93.62262,
          42.05593
        ]
      }
    },
    {
      "type": "Feature",
      "properties": {
        "title": "Bloomington Rd. at Hoover Ave.",
        "tag": "4040",
        "stopId": "4040"
      },
      "geometry": {
        "type": "Point",
        "coordinates": [
          -93.6299,
          42.05583
        ]
      }
    },
    {
      "type": "Feature",
      "properties": {
        "title": "Bloomington Rd. at Hoover Ave.",
        "tag": "4041",
        "stopId": "4041"
      },
      "geometry": {
        "type": "Point",
        "coordinates": [
          -93.63064,
          42.05593
        ]
      }
    },
    {
      "type": "Feature",
      "properties": {
        "title": "Bloomington Rd. at Fletcher Blvd.",
        "tag": "4050",
        "stopId": "4050"
      },
      "geometry": {
        "type": "Point",
        "coordinates": [
          -93.6346899,
          42.05641
        ]
      }
    },
    {
      "type": "Feature",
      "properties": {
        "title": "Bloomington Rd. at Fletcher Blvd.",
        "tag": "4051",
        "stopId": "4051"
      },
      "geometry": {
        "type": "Point",
        "coordinates": [
          -93.634,
          42.05634
        ]
      }
    },
    {
      "type": "Feature",
      "properties": {
        "title": "Bloomington Rd. at Eisenhower Ave.",
        "tag": "4060",
        "stopId": "4060"
      },
      "geometry": {
        "type": "Point",
        "coordinates": [
          -93.63762,
          42.05637
        ]
      }
    },
    {
      "type": "Feature",
      "properties": {
        "title": "Bloomington Rd. at Eisenhower Ave.",
        "tag": "4061",
        "stopId": "4061"
      },
      "geometry": {
        "type": "Point",
        "coordinates": [
          -93.63828,
          42.05638
        ]
      }
    },
    {
      "type": "Feature",
      "properties": {
        "title": "Bloomington Rd. at Hyde Ave.",
        "tag": "4070",
        "stopId": "4070"
      },
      "geometry": {
        "type": "Point",
        "coordinates": [
          -93.6411199,
          42.05629
        ]
      }
    },
    {
      "type": "Feature",
      "properties": {
        "title": "Bloomington Rd. at Hyde Ave.",
        "tag": "4071",
        "stopId": "4071"
      },
      "geometry": {
        "type": "Point",
        "coordinates": [
          -93.6415899,
          42.0563099
        ]
      }
    },
    {
      "type": "Feature",
      "properties": {
        "title": "Stange Rd. at Bloomington Rd. Rd.",
        "tag": "4080",
        "stopId": "4080"
      },
      "geometry": {
        "type": "Point",
        "coordinates": [
          -93.64486,
          42.0560099
        ]
      }
    },
    {
      "type": "Feature",
      "properties": {
        "title": "Stange Rd. at Bloomington Rd.",
        "tag": "4081",
        "stopId": "4081"
      },
      "geometry": {
        "type": "Point",
        "coordinates": [
          -93.6449899,
          42.0559599
        ]
      }
    },
    {
      "type": "Feature",
      "properties": {
        "title": "Stange Rd. at Yorkshire Rd.",
        "tag": "4090",
        "stopId": "4090"
      },
      "geometry": {
        "type": "Point",
        "coordinates": [
          -93.64485,
          42.0540599
        ]
      }
    },
    {
      "type": "Feature",
      "properties": {
        "title": "Stange Rd. at Yorkshire Rd.",
        "tag": "4091",
        "stopId": "4091"
      },
      "geometry": {
        "type": "Point",
        "coordinates": [
          -93.64498,
          42.05401
        ]
      }
    },
    {
      "type": "Feature",
      "properties": {
        "title": "Stange Rd. at Aspen Rd.",
        "tag": "4100",
        "stopId": "4100"
      },
      "geometry": {
        "type": "Point",
        "coordinates": [
          -93.64485,
          42.0506399
        ]
      }
    },
    {
      "type": "Feature",
      "properties": {
        "title": "Stange Rd. at Aspen Rd.",
        "tag": "4101",
        "stopId": "4101"
      },
      "geometry": {
        "type": "Point",
        "coordinates": [
          -93.64538,
          42.0496399
        ]
      }
    },
    {
      "type": "Feature",
      "properties": {
        "title": "Stange Rd. at Northridge Pkwy",
        "tag": "4104",
        "stopId": "4104"
      },
      "geometry": {
        "type": "Point",
        "coordinates": [
          -93.64498,
          42.0495199
        ]
      }
    },
    {
      "type": "Feature",
      "properties": {
        "title": "Stange Rd. at Camden Dr.",
        "tag": "4110",
        "stopId": "4110"
      },
      "geometry": {
        "type": "Point",
        "coordinates": [
          -93.6448,
          42.04681
        ]
      }
    },
    {
      "type": "Feature",
      "properties": {
        "title": "Stange Rd. at Bristol Dr.",
        "tag": "4111",
        "stopId": "4111"
      },
      "geometry": {
        "type": "Point",
        "coordinates": [
          -93.64497,
          42.0468
        ]
      }
    },
    {
      "type": "Feature",
      "properties": {
        "title": "Stange Rd. at Greensboro Dr.",
        "tag": "4120",
        "stopId": "4120"
      },
      "geometry": {
        "type": "Point",
        "coordinates": [
          -93.64482,
          42.04395
        ]
      }
    },
    {
      "type": "Feature",
      "properties": {
        "title": "Stange Rd. at Greensboro Dr.",
        "tag": "4121",
        "stopId": "4121"
      },
      "geometry": {
        "type": "Point",
        "coordinates": [
          -93.64484,
          42.04357
        ]
      }
    },
    {
      "type": "Feature",
      "properties": {
        "title": "Stange Rd. at Blankenburg Dr.",
        "tag": "4130",
        "stopId": "4130"
      },
      "geometry": {
        "type": "Point",
        "coordinates": [
          -93.64481,
          42.0417599
        ]
      }
    },
    {
      "type": "Feature",
      "properties": {
        "title": "Stange Rd. at Blankenburg Dr.",
        "tag": "4131",
        "stopId": "4131"
      },
      "geometry": {
        "type": "Point",
        "coordinates": [
          -93.6448399,
          42.04128
        ]
      }
    },
    {
      "type": "Feature",
      "properties": {
        "title": "100 UV",
        "tag": "4140",
        "stopId": "4140"
      },
      "geometry": {
        "type": "Point",
        "coordinates": [
          -93.64482,
          42.0392399
        ]
      }
    },
    {
      "type": "Feature",
      "properties": {
        "title": "Stange Rd. at Bruner St.",
        "tag": "4141",
        "stopId": "4141"
      },
      "geometry": {
        "type": "Point",
        "coordinates": [
          -93.6448,
          42.0390999
        ]
      }
    },
    {
      "type": "Feature",
      "properties": {
        "title": "30th St. at Regency Ct.",
        "tag": "4200",
        "stopId": "4200"
      },
      "geometry": {
        "type": "Point",
        "coordinates": [
          -93.6257699,
          42.0511
        ]
      }
    },
    {
      "type": "Feature",
      "properties": {
        "title": "30th St. at Regency Ct.",
        "tag": "4201",
        "stopId": "4201"
      },
      "geometry": {
        "type": "Point",
        "coordinates": [
          -93.6260199,
          42.05111
        ]
      }
    },
    {
      "type": "Feature",
      "properties": {
        "title": "Northwestern Ave. at 30th St.",
        "tag": "4210",
        "stopId": "4210"
      },
      "geometry": {
        "type": "Point",
        "coordinates": [
          -93.62717,
          42.0508199
        ]
      }
    },
    {
      "type": "Feature",
      "properties": {
        "title": "Northwestern Ave. at 30th St.",
        "tag": "4211",
        "stopId": "4211"
      },
      "geometry": {
        "type": "Point",
        "coordinates": [
          -93.6271999,
          42.0506899
        ]
      }
    },
    {
      "type": "Feature",
      "properties": {
        "title": "Northwestern Ave. at Johnson St.",
        "tag": "4220",
        "stopId": "4220"
      },
      "geometry": {
        "type": "Point",
        "coordinates": [
          -93.62716,
          42.04924
        ]
      }
    },
    {
      "type": "Feature",
      "properties": {
        "title": "Northwestern Ave. at Johnson St.",
        "tag": "4221",
        "stopId": "4221"
      },
      "geometry": {
        "type": "Point",
        "coordinates": [
          -93.62699,
          42.0488
        ]
      }
    },
    {
      "type": "Feature",
      "properties": {
        "title": "Northwestern Ave. at 26th",
        "tag": "4230",
        "stopId": "4230"
      },
      "geometry": {
        "type": "Point",
        "coordinates": [
          -93.62594,
          42.04749
        ]
      }
    },
    {
      "type": "Feature",
      "properties": {
        "title": "Northwestern Ave. at 26th St.",
        "tag": "4231",
        "stopId": "4231"
      },
      "geometry": {
        "type": "Point",
        "coordinates": [
          -93.6259,
          42.0471899
        ]
      }
    },
    {
      "type": "Feature",
      "properties": {
        "title": "Northwestern Ave. at 24th St.",
        "tag": "4240",
        "stopId": "4240"
      },
      "geometry": {
        "type": "Point",
        "coordinates": [
          -93.6258899,
          42.0459003
        ]
      }
    },
    {
      "type": "Feature",
      "properties": {
        "title": "24th St. at Northwestern Ave.",
        "tag": "4241",
        "stopId": "4241"
      },
      "geometry": {
        "type": "Point",
        "coordinates": [
          -93.6263099,
          42.04563
        ]
      }
    },
    {
      "type": "Feature",
      "properties": {
        "title": "24th St. at Hoover Ave.",
        "tag": "4250",
        "stopId": "4250"
      },
      "geometry": {
        "type": "Point",
        "coordinates": [
          -93.63,
          42.04558
        ]
      }
    },
    {
      "type": "Feature",
      "properties": {
        "title": "24th St. at Hoover Ave.",
        "tag": "4251",
        "stopId": "4251"
      },
      "geometry": {
        "type": "Point",
        "coordinates": [
          -93.63083,
          42.0455799
        ]
      }
    },
    {
      "type": "Feature",
      "properties": {
        "title": "24th St. at Hayes Ave.",
        "tag": "4260",
        "stopId": "4260"
      },
      "geometry": {
        "type": "Point",
        "coordinates": [
          -93.63315,
          42.04553
        ]
      }
    },
    {
      "type": "Feature",
      "properties": {
        "title": "24th St. at Hayes Ave.",
        "tag": "4261",
        "stopId": "4261"
      },
      "geometry": {
        "type": "Point",
        "coordinates": [
          -93.63393,
          42.04555
        ]
      }
    },
    {
      "type": "Feature",
      "properties": {
        "title": "24th St. at Northcrest Dr.",
        "tag": "4270",
        "stopId": "4270"
      },
      "geometry": {
        "type": "Point",
        "coordinates": [
          -93.6358199,
          42.0455
        ]
      }
    },
    {
      "type": "Feature",
      "properties": {
        "title": "24th St. at Northcrest Dr.",
        "tag": "4271",
        "stopId": "4271"
      },
      "geometry": {
        "type": "Point",
        "coordinates": [
          -93.6355699,
          42.04553
        ]
      }
    },
    {
      "type": "Feature",
      "properties": {
        "title": "24th St. at Prairie View West",
        "tag": "4280",
        "stopId": "4280"
      },
      "geometry": {
        "type": "Point",
        "coordinates": [
          -93.63878,
          42.04545
        ]
      }
    },
    {
      "type": "Feature",
      "properties": {
        "title": "24th St. at Kent Ave.",
        "tag": "4281",
        "stopId": "4281"
      },
      "geometry": {
        "type": "Point",
        "coordinates": [
          -93.63914,
          42.0454699
        ]
      }
    },
    {
      "type": "Feature",
      "properties": {
        "title": "Edenburn Dr. at #40 Schilletter",
        "tag": "4300",
        "stopId": "4300"
      },
      "geometry": {
        "type": "Point",
        "coordinates": [
          -93.64211,
          42.0450999
        ]
      }
    },
    {
      "type": "Feature",
      "properties": {
        "title": "Edenburn Dr. at #27 Schilletter",
        "tag": "4311",
        "stopId": "4311"
      },
      "geometry": {
        "type": "Point",
        "coordinates": [
          -93.64025,
          42.0442799
        ]
      }
    },
    {
      "type": "Feature",
      "properties": {
        "title": "Stotts Rd. at Edenburn Dr.",
        "tag": "4321",
        "stopId": "4321"
      },
      "geometry": {
        "type": "Point",
        "coordinates": [
          -93.64122,
          42.04285
        ]
      }
    },
    {
      "type": "Feature",
      "properties": {
        "title": "Stotts Rd. at Blankenburg Dr.",
        "tag": "4331",
        "stopId": "4331"
      },
      "geometry": {
        "type": "Point",
        "coordinates": [
          -93.6408899,
          42.04154
        ]
      }
    },
    {
      "type": "Feature",
      "properties": {
        "title": "University Village Laundry",
        "tag": "4341",
        "stopId": "4341"
      },
      "geometry": {
        "type": "Point",
        "coordinates": [
          -93.642163,
          42.0412094
        ]
      }
    },
    {
      "type": "Feature",
      "properties": {
        "title": "Long Rd. at #130 University Village",
        "tag": "4351",
        "stopId": "4351"
      },
      "geometry": {
        "type": "Point",
        "coordinates": [
          -93.64356,
          42.0407299
        ]
      }
    },
    {
      "type": "Feature",
      "properties": {
        "title": "Bruner Dr. at Long Rd.  (#100 UV)",
        "tag": "4361",
        "stopId": "4361"
      },
      "geometry": {
        "type": "Point",
        "coordinates": [
          -93.64382,
          42.0390199
        ]
      }
    },
    {
      "type": "Feature",
      "properties": {
        "title": "Stange Rd. at Fredericksen",
        "tag": "4500",
        "stopId": "4500"
      },
      "geometry": {
        "type": "Point",
        "coordinates": [
          -93.64473,
          42.03424
        ]
      }
    },
    {
      "type": "Feature",
      "properties": {
        "title": "Stange Rd. at Fredericksen",
        "tag": "4501",
        "stopId": "4501"
      },
      "geometry": {
        "type": "Point",
        "coordinates": [
          -93.6447299,
          42.0334899
        ]
      }
    },
    {
      "type": "Feature",
      "properties": {
        "title": "North Grand Mall",
        "tag": "5001",
        "stopId": "5001"
      },
      "geometry": {
        "type": "Point",
        "coordinates": [
          -93.62179,
          42.0495599
        ]
      }
    },
    {
      "type": "Feature",
      "properties": {
        "title": "30th St. at Wal Mart",
        "tag": "5004",
        "stopId": "5004"
      },
      "geometry": {
        "type": "Point",
        "coordinates": [
          -93.6223799,
          42.05116
        ]
      }
    },
    {
      "type": "Feature",
      "properties": {
        "title": "30th St. at Grand Ave.",
        "tag": "5005",
        "stopId": "5005"
      },
      "geometry": {
        "type": "Point",
        "coordinates": [
          -93.62171,
          42.05117
        ]
      }
    },
    {
      "type": "Feature",
      "properties": {
        "title": "Duff Ave. at Kellogg Ave.",
        "tag": "5010",
        "stopId": "5010"
      },
      "geometry": {
        "type": "Point",
        "coordinates": [
          -93.6185699,
          42.05117
        ]
      }
    },
    {
      "type": "Feature",
      "properties": {
        "title": "Duff Ave. at Kellogg Ave.",
        "tag": "5011",
        "stopId": "5011"
      },
      "geometry": {
        "type": "Point",
        "coordinates": [
          -93.6190999,
          42.05119
        ]
      }
    },
    {
      "type": "Feature",
      "properties": {
        "title": "Duff Ave. at Northwood Dr.",
        "tag": "5020",
        "stopId": "5020"
      },
      "geometry": {
        "type": "Point",
        "coordinates": [
          -93.61414,
          42.0485999
        ]
      }
    },
    {
      "type": "Feature",
      "properties": {
        "title": "Duff Ave. at Northwood Dr.",
        "tag": "5021",
        "stopId": "5021"
      },
      "geometry": {
        "type": "Point",
        "coordinates": [
          -93.6141599,
          42.0484
        ]
      }
    },
    {
      "type": "Feature",
      "properties": {
        "title": "Duff Ave. at 24th St.",
        "tag": "5030",
        "stopId": "5030"
      },
      "geometry": {
        "type": "Point",
        "coordinates": [
          -93.61413,
          42.0461099
        ]
      }
    },
    {
      "type": "Feature",
      "properties": {
        "title": "Duff Ave. at 24th St.",
        "tag": "5031",
        "stopId": "5031"
      },
      "geometry": {
        "type": "Point",
        "coordinates": [
          -93.6141199,
          42.04532
        ]
      }
    },
    {
      "type": "Feature",
      "properties": {
        "title": "Duff Ave. at Douglas Ave.",
        "tag": "5040",
        "stopId": "5040"
      },
      "geometry": {
        "type": "Point",
        "coordinates": [
          -93.61227,
          42.04384
        ]
      }
    },
    {
      "type": "Feature",
      "properties": {
        "title": "Duff Ave. at 22nd St.",
        "tag": "5041",
        "stopId": "5041"
      },
      "geometry": {
        "type": "Point",
        "coordinates": [
          -93.61279,
          42.04402
        ]
      }
    },
    {
      "type": "Feature",
      "properties": {
        "title": "Duff Ave. at 20th St.",
        "tag": "5050",
        "stopId": "5050"
      },
      "geometry": {
        "type": "Point",
        "coordinates": [
          -93.61074,
          42.04239
        ]
      }
    },
    {
      "type": "Feature",
      "properties": {
        "title": "Duff Ave. at 20th St.",
        "tag": "5051",
        "stopId": "5051"
      },
      "geometry": {
        "type": "Point",
        "coordinates": [
          -93.61071,
          42.0417499
        ]
      }
    },
    {
      "type": "Feature",
      "properties": {
        "title": "Duff Ave. at O'Neil Dr.",
        "tag": "5060",
        "stopId": "5060"
      },
      "geometry": {
        "type": "Point",
        "coordinates": [
          -93.61071,
          42.0404799
        ]
      }
    },
    {
      "type": "Feature",
      "properties": {
        "title": "Duff Ave. at O'Neil Dr.",
        "tag": "5061",
        "stopId": "5061"
      },
      "geometry": {
        "type": "Point",
        "coordinates": [
          -93.61071,
          42.0400299
        ]
      }
    },
    {
      "type": "Feature",
      "properties": {
        "title": "Duff Ave. at 16th St.",
        "tag": "5070",
        "stopId": "5070"
      },
      "geometry": {
        "type": "Point",
        "coordinates": [
          -93.61068,
          42.0385999
        ]
      }
    },
    {
      "type": "Feature",
      "properties": {
        "title": "Duff Ave. at 16th St.",
        "tag": "5071",
        "stopId": "5071"
      },
      "geometry": {
        "type": "Point",
        "coordinates": [
          -93.61069,
          42.0380699
        ]
      }
    },
    {
      "type": "Feature",
      "properties": {
        "title": "Duff Ave. at 14th St.",
        "tag": "5080",
        "stopId": "5080"
      },
      "geometry": {
        "type": "Point",
        "coordinates": [
          -93.61066,
          42.03596
        ]
      }
    },
    {
      "type": "Feature",
      "properties": {
        "title": "Duff Ave. at 14th St.",
        "tag": "5081",
        "stopId": "5081"
      },
      "geometry": {
        "type": "Point",
        "coordinates": [
          -93.61067,
          42.03541
        ]
      }
    },
    {
      "type": "Feature",
      "properties": {
        "title": "Duff Ave. at 12th St.",
        "tag": "5090",
        "stopId": "5090"
      },
      "geometry": {
        "type": "Point",
        "coordinates": [
          -93.61062,
          42.0333799
        ]
      }
    },
    {
      "type": "Feature",
      "properties": {
        "title": "Duff Ave. at 12th St.",
        "tag": "5091",
        "stopId": "5091"
      },
      "geometry": {
        "type": "Point",
        "coordinates": [
          -93.61063,
          42.03328
        ]
      }
    },
    {
      "type": "Feature",
      "properties": {
        "title": "Mary Greely Hospital",
        "tag": "5100",
        "stopId": "5100"
      },
      "geometry": {
        "type": "Point",
        "coordinates": [
          -93.61058,
          42.0322399
        ]
      }
    },
    {
      "type": "Feature",
      "properties": {
        "title": "Mary Greely Hospital",
        "tag": "5101",
        "stopId": "5101"
      },
      "geometry": {
        "type": "Point",
        "coordinates": [
          -93.61058,
          42.0316199
        ]
      }
    },
    {
      "type": "Feature",
      "properties": {
        "title": "Duff Ave. at 9th St.",
        "tag": "5110",
        "stopId": "5110"
      },
      "geometry": {
        "type": "Point",
        "coordinates": [
          -93.61054,
          42.0303599
        ]
      }
    },
    {
      "type": "Feature",
      "properties": {
        "title": "Duff Ave. at 9th St.",
        "tag": "5111",
        "stopId": "5111"
      },
      "geometry": {
        "type": "Point",
        "coordinates": [
          -93.6105399,
          42.0298199
        ]
      }
    },
    {
      "type": "Feature",
      "properties": {
        "title": "Duff Ave. at 7th St.",
        "tag": "5120",
        "stopId": "5120"
      },
      "geometry": {
        "type": "Point",
        "coordinates": [
          -93.61049,
          42.0282099
        ]
      }
    },
    {
      "type": "Feature",
      "properties": {
        "title": "Duff Ave. at 8th St.",
        "tag": "5121",
        "stopId": "5121"
      },
      "geometry": {
        "type": "Point",
        "coordinates": [
          -93.61051,
          42.02873
        ]
      }
    },
    {
      "type": "Feature",
      "properties": {
        "title": "Duff Ave. at 6th St.",
        "tag": "5130",
        "stopId": "5130"
      },
      "geometry": {
        "type": "Point",
        "coordinates": [
          -93.61046,
          42.0270699
        ]
      }
    },
    {
      "type": "Feature",
      "properties": {
        "title": "6th St. at Duff Ave.",
        "tag": "5131",
        "stopId": "5131"
      },
      "geometry": {
        "type": "Point",
        "coordinates": [
          -93.61108,
          42.02694
        ]
      }
    },
    {
      "type": "Feature",
      "properties": {
        "title": "Douglas Ave. at 6th St.",
        "tag": "5200",
        "stopId": "5200"
      },
      "geometry": {
        "type": "Point",
        "coordinates": [
          -93.61211,
          42.02679
        ]
      }
    },
    {
      "type": "Feature",
      "properties": {
        "title": "Ames Public Library",
        "tag": "5201",
        "stopId": "5201"
      },
      "geometry": {
        "type": "Point",
        "coordinates": [
          -93.6121199,
          42.0265599
        ]
      }
    },
    {
      "type": "Feature",
      "properties": {
        "title": "5th St. at Kellogg Ave.",
        "tag": "5210",
        "stopId": "5210"
      },
      "geometry": {
        "type": "Point",
        "coordinates": [
          -93.6135099,
          42.02588
        ]
      }
    },
    {
      "type": "Feature",
      "properties": {
        "title": "5th St. at Kellogg Ave.",
        "tag": "5211",
        "stopId": "5211"
      },
      "geometry": {
        "type": "Point",
        "coordinates": [
          -93.6140699,
          42.0259599
        ]
      }
    },
    {
      "type": "Feature",
      "properties": {
        "title": "Grand Ave. at 28th St.",
        "tag": "5301",
        "stopId": "5301"
      },
      "geometry": {
        "type": "Point",
        "coordinates": [
          -93.62047,
          42.04774
        ]
      }
    },
    {
      "type": "Feature",
      "properties": {
        "title": "Grand Ave. at 24th St.",
        "tag": "5310",
        "stopId": "5310"
      },
      "geometry": {
        "type": "Point",
        "coordinates": [
          -93.6205799,
          42.0447299
        ]
      }
    },
    {
      "type": "Feature",
      "properties": {
        "title": "Grand Ave. at 24th St.",
        "tag": "5311",
        "stopId": "5311"
      },
      "geometry": {
        "type": "Point",
        "coordinates": [
          -93.62045,
          42.0464199
        ]
      }
    },
    {
      "type": "Feature",
      "properties": {
        "title": "20th St. at Grand Ave.",
        "tag": "5320",
        "stopId": "5320"
      },
      "geometry": {
        "type": "Point",
        "coordinates": [
          -93.6209299,
          42.04207
        ]
      }
    },
    {
      "type": "Feature",
      "properties": {
        "title": "20th St. at Grand Ave.",
        "tag": "5321",
        "stopId": "5321"
      },
      "geometry": {
        "type": "Point",
        "coordinates": [
          -93.6208099,
          42.04209
        ]
      }
    },
    {
      "type": "Feature",
      "properties": {
        "title": "20th St. at Melrose Ave.",
        "tag": "5330",
        "stopId": "5330"
      },
      "geometry": {
        "type": "Point",
        "coordinates": [
          -93.6225599,
          42.04205
        ]
      }
    },
    {
      "type": "Feature",
      "properties": {
        "title": "20th St. at Melrose Ave.",
        "tag": "5331",
        "stopId": "5331"
      },
      "geometry": {
        "type": "Point",
        "coordinates": [
          -93.6229799,
          42.04206
        ]
      }
    },
    {
      "type": "Feature",
      "properties": {
        "title": "20th St. at Northwestern Ave.",
        "tag": "5340",
        "stopId": "5340"
      },
      "geometry": {
        "type": "Point",
        "coordinates": [
          -93.6255908,
          42.0420203
        ]
      }
    },
    {
      "type": "Feature",
      "properties": {
        "title": "16th St. at Northwestern Ave.",
        "tag": "5351",
        "stopId": "5351"
      },
      "geometry": {
        "type": "Point",
        "coordinates": [
          -93.62541,
          42.03827
        ]
      }
    },
    {
      "type": "Feature",
      "properties": {
        "title": "16th St. at Roosevelt Ave.",
        "tag": "5360",
        "stopId": "5360"
      },
      "geometry": {
        "type": "Point",
        "coordinates": [
          -93.6222099,
          42.03829
        ]
      }
    },
    {
      "type": "Feature",
      "properties": {
        "title": "16th St. at Roosevelt Ave.",
        "tag": "5361",
        "stopId": "5361"
      },
      "geometry": {
        "type": "Point",
        "coordinates": [
          -93.6228399,
          42.0383
        ]
      }
    },
    {
      "type": "Feature",
      "properties": {
        "title": "16th St. at Grand Ave.",
        "tag": "5370",
        "stopId": "5370"
      },
      "geometry": {
        "type": "Point",
        "coordinates": [
          -93.62102,
          42.0383
        ]
      }
    },
    {
      "type": "Feature",
      "properties": {
        "title": "16th St. at Grand Ave.",
        "tag": "5371",
        "stopId": "5371"
      },
      "geometry": {
        "type": "Point",
        "coordinates": [
          -93.62087,
          42.0383099
        ]
      }
    },
    {
      "type": "Feature",
      "properties": {
        "title": "Grand Ave. at 13th",
        "tag": "5380",
        "stopId": "5380"
      },
      "geometry": {
        "type": "Point",
        "coordinates": [
          -93.62039,
          42.0348999
        ]
      }
    },
    {
      "type": "Feature",
      "properties": {
        "title": "Grand Ave. at 13th St.",
        "tag": "5381",
        "stopId": "5381"
      },
      "geometry": {
        "type": "Point",
        "coordinates": [
          -93.62039,
          42.03419
        ]
      }
    },
    {
      "type": "Feature",
      "properties": {
        "title": "Grand Ave. at 11th",
        "tag": "5390",
        "stopId": "5390"
      },
      "geometry": {
        "type": "Point",
        "coordinates": [
          -93.62033,
          42.03244
        ]
      }
    },
    {
      "type": "Feature",
      "properties": {
        "title": "Grand Ave. at 11th St.",
        "tag": "5391",
        "stopId": "5391"
      },
      "geometry": {
        "type": "Point",
        "coordinates": [
          -93.6203399,
          42.0317999
        ]
      }
    },
    {
      "type": "Feature",
      "properties": {
        "title": "9th St. at Grand Ave.",
        "tag": "5400",
        "stopId": "5400"
      },
      "geometry": {
        "type": "Point",
        "coordinates": [
          -93.6198,
          42.0301699
        ]
      }
    },
    {
      "type": "Feature",
      "properties": {
        "title": "9th St. at Grand Ave.",
        "tag": "5401",
        "stopId": "5401"
      },
      "geometry": {
        "type": "Point",
        "coordinates": [
          -93.61994,
          42.0301899
        ]
      }
    },
    {
      "type": "Feature",
      "properties": {
        "title": "Clark Ave. at 9th St.",
        "tag": "5410",
        "stopId": "5410"
      },
      "geometry": {
        "type": "Point",
        "coordinates": [
          -93.617,
          42.0299599
        ]
      }
    },
    {
      "type": "Feature",
      "properties": {
        "title": "Clark Ave. at 9th St.",
        "tag": "5411",
        "stopId": "5411"
      },
      "geometry": {
        "type": "Point",
        "coordinates": [
          -93.61699,
          42.0295599
        ]
      }
    },
    {
      "type": "Feature",
      "properties": {
        "title": "Clark Ave. at 7th St.",
        "tag": "5420",
        "stopId": "5420"
      },
      "geometry": {
        "type": "Point",
        "coordinates": [
          -93.61694,
          42.02798
        ]
      }
    },
    {
      "type": "Feature",
      "properties": {
        "title": "Clark Ave. at 6th St.",
        "tag": "5421",
        "stopId": "5421"
      },
      "geometry": {
        "type": "Point",
        "coordinates": [
          -93.61693,
          42.02713
        ]
      }
    },
    {
      "type": "Feature",
      "properties": {
        "title": "City Hall",
        "tag": "5500",
        "stopId": "5500"
      },
      "geometry": {
        "type": "Point",
        "coordinates": [
          -93.61757,
          42.0258199
        ]
      }
    },
    {
      "type": "Feature",
      "properties": {
        "title": "City Hall",
        "tag": "5501",
        "stopId": "5501"
      },
      "geometry": {
        "type": "Point",
        "coordinates": [
          -93.61785,
          42.0258099
        ]
      }
    },
    {
      "type": "Feature",
      "properties": {
        "title": "Allan Dr. at Grand Ave.",
        "tag": "5510",
        "stopId": "5510"
      },
      "geometry": {
        "type": "Point",
        "coordinates": [
          -93.62045,
          42.0256399
        ]
      }
    },
    {
      "type": "Feature",
      "properties": {
        "title": "Lincoln Way at Elm Ave.",
        "tag": "5520",
        "stopId": "5520"
      },
      "geometry": {
        "type": "Point",
        "coordinates": [
          -93.623,
          42.0228
        ]
      }
    },
    {
      "type": "Feature",
      "properties": {
        "title": "Lincoln Way at Elm Ave.",
        "tag": "5521",
        "stopId": "5521"
      },
      "geometry": {
        "type": "Point",
        "coordinates": [
          -93.6227999,
          42.02291
        ]
      }
    },
    {
      "type": "Feature",
      "properties": {
        "title": "Lincoln Way at Maple Ave.",
        "tag": "5531",
        "stopId": "5531"
      },
      "geometry": {
        "type": "Point",
        "coordinates": [
          -93.6255099,
          42.02284
        ]
      }
    },
    {
      "type": "Feature",
      "properties": {
        "title": "Lincoln Way at S. Hazel Ave.",
        "tag": "5540",
        "stopId": "5540"
      },
      "geometry": {
        "type": "Point",
        "coordinates": [
          -93.62651,
          42.02283
        ]
      }
    },
    {
      "type": "Feature",
      "properties": {
        "title": "Lincoln Way at Hazel Ave.",
        "tag": "5541",
        "stopId": "5541"
      },
      "geometry": {
        "type": "Point",
        "coordinates": [
          -93.62721,
          42.02284
        ]
      }
    },
    {
      "type": "Feature",
      "properties": {
        "title": "Lincoln Way at S. Russell Ave.",
        "tag": "5550",
        "stopId": "5550"
      },
      "geometry": {
        "type": "Point",
        "coordinates": [
          -93.6278199,
          42.02282
        ]
      }
    },
    {
      "type": "Feature",
      "properties": {
        "title": "Lincoln Way at Russell Ave.",
        "tag": "5551",
        "stopId": "5551"
      },
      "geometry": {
        "type": "Point",
        "coordinates": [
          -93.62857,
          42.02283
        ]
      }
    },
    {
      "type": "Feature",
      "properties": {
        "title": "Hilton Coliseum",
        "tag": "5560",
        "stopId": "5560"
      },
      "geometry": {
        "type": "Point",
        "coordinates": [
          -93.6350699,
          42.02269
        ]
      }
    },
    {
      "type": "Feature",
      "properties": {
        "title": "Lincoln Way at Hilton Coliseum",
        "tag": "5561",
        "stopId": "5561"
      },
      "geometry": {
        "type": "Point",
        "coordinates": [
          -93.6351799,
          42.02281
        ]
      }
    },
    {
      "type": "Feature",
      "properties": {
        "title": "5th St. at Pearle Ave.",
        "tag": "5610",
        "stopId": "5610"
      },
      "geometry": {
        "type": "Point",
        "coordinates": [
          -93.6197399,
          42.0258
        ]
      }
    },
    {
      "type": "Feature",
      "properties": {
        "title": "Northwestern Ave. at 5th St.",
        "tag": "5620",
        "stopId": "5620"
      },
      "geometry": {
        "type": "Point",
        "coordinates": [
          -93.6219699,
          42.0259399
        ]
      }
    },
    {
      "type": "Feature",
      "properties": {
        "title": "Northwestern Ave. at 6th St.",
        "tag": "5630",
        "stopId": "5630"
      },
      "geometry": {
        "type": "Point",
        "coordinates": [
          -93.62248,
          42.02655
        ]
      }
    },
    {
      "type": "Feature",
      "properties": {
        "title": "6th St. at Northwestern Ave.",
        "tag": "5631",
        "stopId": "5631"
      },
      "geometry": {
        "type": "Point",
        "coordinates": [
          -93.62333,
          42.02677
        ]
      }
    },
    {
      "type": "Feature",
      "properties": {
        "title": "6th St. at Brookridge Ave.",
        "tag": "5640",
        "stopId": "5640"
      },
      "geometry": {
        "type": "Point",
        "coordinates": [
          -93.6261099,
          42.02672
        ]
      }
    },
    {
      "type": "Feature",
      "properties": {
        "title": "6th St. at Brookridge Ave.",
        "tag": "5641",
        "stopId": "5641"
      },
      "geometry": {
        "type": "Point",
        "coordinates": [
          -93.6265299,
          42.0267399
        ]
      }
    },
    {
      "type": "Feature",
      "properties": {
        "title": "6th St. at Brookside Park",
        "tag": "5650",
        "stopId": "5650"
      },
      "geometry": {
        "type": "Point",
        "coordinates": [
          -93.6299099,
          42.02828
        ]
      }
    },
    {
      "type": "Feature",
      "properties": {
        "title": "6th St. at Brookside Park",
        "tag": "5651",
        "stopId": "5651"
      },
      "geometry": {
        "type": "Point",
        "coordinates": [
          -93.63062,
          42.02856
        ]
      }
    },
    {
      "type": "Feature",
      "properties": {
        "title": "6th St. at University Blvd.",
        "tag": "5661",
        "stopId": "5661"
      },
      "geometry": {
        "type": "Point",
        "coordinates": [
          -93.63337,
          42.0276899
        ]
      }
    },
    {
      "type": "Feature",
      "properties": {
        "title": "University Blvd. at CyRide Rd.",
        "tag": "5670",
        "stopId": "5670"
      },
      "geometry": {
        "type": "Point",
        "coordinates": [
          -93.63576,
          42.02894
        ]
      }
    },
    {
      "type": "Feature",
      "properties": {
        "title": "University Blvd. at Haber Rd.",
        "tag": "5680",
        "stopId": "5680"
      },
      "geometry": {
        "type": "Point",
        "coordinates": [
          -93.6383499,
          42.0297999
        ]
      }
    },
    {
      "type": "Feature",
      "properties": {
        "title": "University Blvd. at Haber Rd.",
        "tag": "5681",
        "stopId": "5681"
      },
      "geometry": {
        "type": "Point",
        "coordinates": [
          -93.6391099,
          42.0300599
        ]
      }
    },
    {
      "type": "Feature",
      "properties": {
        "title": "Iowa State Center",
        "tag": "6000",
        "stopId": "6000"
      },
      "geometry": {
        "type": "Point",
        "coordinates": [
          -93.63722,
          42.0172299
        ]
      }
    },
    {
      "type": "Feature",
      "properties": {
        "title": "Iowa State Center",
        "tag": "6001",
        "stopId": "6001"
      },
      "geometry": {
        "type": "Point",
        "coordinates": [
          -93.63736,
          42.0171799
        ]
      }
    },
    {
      "type": "Feature",
      "properties": {
        "title": "Beach Ave. at Sunset Dr.",
        "tag": "6450",
        "stopId": "6450"
      },
      "geometry": {
        "type": "Point",
        "coordinates": [
          -93.6394699,
          42.0207
        ]
      }
    },
    {
      "type": "Feature",
      "properties": {
        "title": "Beach Ave. at Sunset Dr.",
        "tag": "6451",
        "stopId": "6451"
      },
      "geometry": {
        "type": "Point",
        "coordinates": [
          -93.6394799,
          42.0207999
        ]
      }
    },
    {
      "type": "Feature",
      "properties": {
        "title": "S. 4th St. at Beach Ave.",
        "tag": "6460",
        "stopId": "6460"
      },
      "geometry": {
        "type": "Point",
        "coordinates": [
          -93.63864,
          42.0162
        ]
      }
    },
    {
      "type": "Feature",
      "properties": {
        "title": "S. 4th St. at Beach Ave.",
        "tag": "6461",
        "stopId": "6461"
      },
      "geometry": {
        "type": "Point",
        "coordinates": [
          -93.63914,
          42.01621
        ]
      }
    },
    {
      "type": "Feature",
      "properties": {
        "title": "Jack Trice Stadium",
        "tag": "6470",
        "stopId": "6470"
      },
      "geometry": {
        "type": "Point",
        "coordinates": [
          -93.6356,
          42.0162399
        ]
      }
    },
    {
      "type": "Feature",
      "properties": {
        "title": "S. 4th St. at Victory Lane",
        "tag": "6471",
        "stopId": "6471"
      },
      "geometry": {
        "type": "Point",
        "coordinates": [
          -93.6356299,
          42.0162599
        ]
      }
    },
    {
      "type": "Feature",
      "properties": {
        "title": "S. 4th St. at University Blvd.",
        "tag": "6480",
        "stopId": "6480"
      },
      "geometry": {
        "type": "Point",
        "coordinates": [
          -93.6311199,
          42.01632
        ]
      }
    },
    {
      "type": "Feature",
      "properties": {
        "title": "S. 4th St. at University Blvd.",
        "tag": "6481",
        "stopId": "6481"
      },
      "geometry": {
        "type": "Point",
        "coordinates": [
          -93.6328007,
          42.0163395
        ]
      }
    },
    {
      "type": "Feature",
      "properties": {
        "title": "S. 4th St. at S. Maple",
        "tag": "6490",
        "stopId": "6490"
      },
      "geometry": {
        "type": "Point",
        "coordinates": [
          -93.6264799,
          42.01918
        ]
      }
    },
    {
      "type": "Feature",
      "properties": {
        "title": "S. 4th St. at S. Hazel Ave.",
        "tag": "6491",
        "stopId": "6491"
      },
      "geometry": {
        "type": "Point",
        "coordinates": [
          -93.62704,
          42.0191699
        ]
      }
    },
    {
      "type": "Feature",
      "properties": {
        "title": "S. 3rd St. at HyVee",
        "tag": "6510",
        "stopId": "6510"
      },
      "geometry": {
        "type": "Point",
        "coordinates": [
          -93.6199436,
          42.0193325
        ]
      }
    },
    {
      "type": "Feature",
      "properties": {
        "title": "S. 4th St. at Grand Ave.",
        "tag": "6511",
        "stopId": "6511"
      },
      "geometry": {
        "type": "Point",
        "coordinates": [
          -93.62131,
          42.01929
        ]
      }
    },
    {
      "type": "Feature",
      "properties": {
        "title": "S. 3rd St. at Pear Tree",
        "tag": "6520",
        "stopId": "6520"
      },
      "geometry": {
        "type": "Point",
        "coordinates": [
          -93.6181199,
          42.01991
        ]
      }
    },
    {
      "type": "Feature",
      "properties": {
        "title": "S. 3rd St. at HyVee",
        "tag": "6521",
        "stopId": "6521"
      },
      "geometry": {
        "type": "Point",
        "coordinates": [
          -93.61894,
          42.0195999
        ]
      }
    },
    {
      "type": "Feature",
      "properties": {
        "title": "Walnut Ave. at S. 3rd St.",
        "tag": "6530",
        "stopId": "6530"
      },
      "geometry": {
        "type": "Point",
        "coordinates": [
          -93.61688,
          42.0199199
        ]
      }
    },
    {
      "type": "Feature",
      "properties": {
        "title": "Walnut Ave. at S. 5th St.",
        "tag": "6540",
        "stopId": "6540"
      },
      "geometry": {
        "type": "Point",
        "coordinates": [
          -93.61683,
          42.01788
        ]
      }
    },
    {
      "type": "Feature",
      "properties": {
        "title": "S. 3rd St. at Walnut Ave.",
        "tag": "6550",
        "stopId": "6550"
      },
      "geometry": {
        "type": "Point",
        "coordinates": [
          -93.61642,
          42.02017
        ]
      }
    },
    {
      "type": "Feature",
      "properties": {
        "title": "S. 3rd St. at S. Kellogg",
        "tag": "6560",
        "stopId": "6560"
      },
      "geometry": {
        "type": "Point",
        "coordinates": [
          -93.61327,
          42.0201499
        ]
      }
    },
    {
      "type": "Feature",
      "properties": {
        "title": "River Birch Apartments",
        "tag": "6571",
        "stopId": "6571"
      },
      "geometry": {
        "type": "Point",
        "coordinates": [
          -93.61221,
          42.0173999
        ]
      }
    },
    {
      "type": "Feature",
      "properties": {
        "title": "Lincoln Way at Walnut Ave.",
        "tag": "6700",
        "stopId": "6700"
      },
      "geometry": {
        "type": "Point",
        "coordinates": [
          -93.6164799,
          42.02283
        ]
      }
    },
    {
      "type": "Feature",
      "properties": {
        "title": "Lincoln Way at Clark Ave.",
        "tag": "6701",
        "stopId": "6701"
      },
      "geometry": {
        "type": "Point",
        "coordinates": [
          -93.6161699,
          42.0229899
        ]
      }
    },
    {
      "type": "Feature",
      "properties": {
        "title": "Lincoln Way at S. Kellogg Ave.",
        "tag": "6710",
        "stopId": "6710"
      },
      "geometry": {
        "type": "Point",
        "coordinates": [
          -93.6128399,
          42.02281
        ]
      }
    },
    {
      "type": "Feature",
      "properties": {
        "title": "Lincoln Way at Kellogg Ave.",
        "tag": "6711",
        "stopId": "6711"
      },
      "geometry": {
        "type": "Point",
        "coordinates": [
          -93.61427,
          42.02297
        ]
      }
    },
    {
      "type": "Feature",
      "properties": {
        "title": "Lincoln Way at S. Duff Ave.",
        "tag": "6720",
        "stopId": "6720"
      },
      "geometry": {
        "type": "Point",
        "coordinates": [
          -93.61093,
          42.0228699
        ]
      }
    },
    {
      "type": "Feature",
      "properties": {
        "title": "Lincoln Way at Duff Ave.",
        "tag": "6721",
        "stopId": "6721"
      },
      "geometry": {
        "type": "Point",
        "coordinates": [
          -93.61101,
          42.0228899
        ]
      }
    },
    {
      "type": "Feature",
      "properties": {
        "title": "S. Duff Ave. at S. 3rd St.",
        "tag": "6730",
        "stopId": "6730"
      },
      "geometry": {
        "type": "Point",
        "coordinates": [
          -93.61031,
          42.02031
        ]
      }
    },
    {
      "type": "Feature",
      "properties": {
        "title": "S. Duff Ave. at S. 3rd St.",
        "tag": "6731",
        "stopId": "6731"
      },
      "geometry": {
        "type": "Point",
        "coordinates": [
          -93.6103199,
          42.01975
        ]
      }
    },
    {
      "type": "Feature",
      "properties": {
        "title": "S. Duff Ave. at S. 5th Ave.",
        "tag": "6740",
        "stopId": "6740"
      },
      "geometry": {
        "type": "Point",
        "coordinates": [
          -93.61033,
          42.01759
        ]
      }
    },
    {
      "type": "Feature",
      "properties": {
        "title": "S. Duff Ave. at S. 5th Ave.",
        "tag": "6741",
        "stopId": "6741"
      },
      "geometry": {
        "type": "Point",
        "coordinates": [
          -93.61035,
          42.0171899
        ]
      }
    },
    {
      "type": "Feature",
      "properties": {
        "title": "Stadium Parking at North Stop",
        "tag": "7710",
        "stopId": "7710"
      },
      "geometry": {
        "type": "Point",
        "coordinates": [
          -93.6327499,
          42.0143699
        ]
      }
    },
    {
      "type": "Feature",
      "properties": {
        "title": "Stadium Parking at North Stop",
        "tag": "7711",
        "stopId": "7711"
      },
      "geometry": {
        "type": "Point",
        "coordinates": [
          -93.6327599,
          42.0143
        ]
      }
    },
    {
      "type": "Feature",
      "properties": {
        "title": "Stadium Parking at South Stop",
        "tag": "7720",
        "stopId": "7720"
      },
      "geometry": {
        "type": "Point",
        "coordinates": [
          -93.63375,
          42.0122399
        ]
      }
    },
    {
      "type": "Feature",
      "properties": {
        "title": "Stadium Parking at South Stop",
        "tag": "7721",
        "stopId": "7721"
      },
      "geometry": {
        "type": "Point",
        "coordinates": [
          -93.6340499,
          42.0121
        ]
      }
    },
    {
      "type": "Feature",
      "properties": {
        "title": "Christensen at S. 16th St. St.",
        "tag": "7730",
        "stopId": "7730"
      },
      "geometry": {
        "type": "Point",
        "coordinates": [
          -93.63263,
          42.00915
        ]
      }
    },
    {
      "type": "Feature",
      "properties": {
        "title": "Christensen at S. 16th St.",
        "tag": "7731",
        "stopId": "7731"
      },
      "geometry": {
        "type": "Point",
        "coordinates": [
          -93.6324399,
          42.00936
        ]
      }
    },
    {
      "type": "Feature",
      "properties": {
        "title": "Christensen at Day Care Center",
        "tag": "7740",
        "stopId": "7740"
      },
      "geometry": {
        "type": "Point",
        "coordinates": [
          -93.63401,
          42.00906
        ]
      }
    },
    {
      "type": "Feature",
      "properties": {
        "title": "Christensen at Day Care Center",
        "tag": "7741",
        "stopId": "7741"
      },
      "geometry": {
        "type": "Point",
        "coordinates": [
          -93.63428,
          42.00907
        ]
      }
    },
    {
      "type": "Feature",
      "properties": {
        "title": "Veterinary Medicine",
        "tag": "7750",
        "stopId": "7750"
      },
      "geometry": {
        "type": "Point",
        "coordinates": [
          -93.63393,
          42.0063199
        ]
      }
    },
    {
      "type": "Feature",
      "properties": {
        "title": "S. 16th at Christensen",
        "tag": "7810",
        "stopId": "7810"
      },
      "geometry": {
        "type": "Point",
        "coordinates": [
          -93.63135,
          42.00931
        ]
      }
    },
    {
      "type": "Feature",
      "properties": {
        "title": "S. 16th St. at Mulberry Blvd.",
        "tag": "7820",
        "stopId": "7820"
      },
      "geometry": {
        "type": "Point",
        "coordinates": [
          -93.6263999,
          42.0084199
        ]
      }
    },
    {
      "type": "Feature",
      "properties": {
        "title": "S. 16th St. at Apple Pl.",
        "tag": "7821",
        "stopId": "7821"
      },
      "geometry": {
        "type": "Point",
        "coordinates": [
          -93.62603,
          42.00838
        ]
      }
    },
    {
      "type": "Feature",
      "properties": {
        "title": "S. 16th St. at Creekside",
        "tag": "7830",
        "stopId": "7830"
      },
      "geometry": {
        "type": "Point",
        "coordinates": [
          -93.6234199,
          42.00829
        ]
      }
    },
    {
      "type": "Feature",
      "properties": {
        "title": "Laverne Apartments",
        "tag": "7831",
        "stopId": "7831"
      },
      "geometry": {
        "type": "Point",
        "coordinates": [
          -93.62349,
          42.0084599
        ]
      }
    },
    {
      "type": "Feature",
      "properties": {
        "title": "Copper Beech / Pheasant Run",
        "tag": "7840",
        "stopId": "7840"
      },
      "geometry": {
        "type": "Point",
        "coordinates": [
          -93.6194,
          42.0082799
        ]
      }
    },
    {
      "type": "Feature",
      "properties": {
        "title": "The Grove / Copper Beech",
        "tag": "7841",
        "stopId": "7841"
      },
      "geometry": {
        "type": "Point",
        "coordinates": [
          -93.62061,
          42.0084699
        ]
      }
    },
    {
      "type": "Feature",
      "properties": {
        "title": "S. 16th St. at Golden Aspen Dr.",
        "tag": "7850",
        "stopId": "7850"
      },
      "geometry": {
        "type": "Point",
        "coordinates": [
          -93.6160599,
          42.00836
        ]
      }
    },
    {
      "type": "Feature",
      "properties": {
        "title": "S. 16th St. at Golden Aspen Dr.",
        "tag": "7851",
        "stopId": "7851"
      },
      "geometry": {
        "type": "Point",
        "coordinates": [
          -93.6165999,
          42.00838
        ]
      }
    },
    {
      "type": "Feature",
      "properties": {
        "title": "S. 16th St. at S. Kellogg",
        "tag": "7860",
        "stopId": "7860"
      },
      "geometry": {
        "type": "Point",
        "coordinates": [
          -93.61321,
          42.0083699
        ]
      }
    },
    {
      "type": "Feature",
      "properties": {
        "title": "S. 16th St. at S. Kellogg",
        "tag": "7861",
        "stopId": "7861"
      },
      "geometry": {
        "type": "Point",
        "coordinates": [
          -93.6136799,
          42.0083899
        ]
      }
    },
    {
      "type": "Feature",
      "properties": {
        "title": "Buckeye Ave. at S. 16th St.",
        "tag": "7870",
        "stopId": "7870"
      },
      "geometry": {
        "type": "Point",
        "coordinates": [
          -93.61147,
          42.0087399
        ]
      }
    },
    {
      "type": "Feature",
      "properties": {
        "title": "Buckeye Ave. at Chestnut St.",
        "tag": "7880",
        "stopId": "7880"
      },
      "geometry": {
        "type": "Point",
        "coordinates": [
          -93.61151,
          42.0101899
        ]
      }
    },
    {
      "type": "Feature",
      "properties": {
        "title": "S. Duff Ave. at Super Wal-Mart",
        "tag": "7910",
        "stopId": "7910"
      },
      "geometry": {
        "type": "Point",
        "coordinates": [
          -93.6103,
          42.01528
        ]
      }
    },
    {
      "type": "Feature",
      "properties": {
        "title": "S. Duff Ave. at Super Wal-Mart",
        "tag": "7911",
        "stopId": "7911"
      },
      "geometry": {
        "type": "Point",
        "coordinates": [
          -93.61031,
          42.0154499
        ]
      }
    },
    {
      "type": "Feature",
      "properties": {
        "title": "S. Duff Ave. at Chestnut St.",
        "tag": "7920",
        "stopId": "7920"
      },
      "geometry": {
        "type": "Point",
        "coordinates": [
          -93.61027,
          42.0104099
        ]
      }
    },
    {
      "type": "Feature",
      "properties": {
        "title": "S. Duff Ave. at Chestnut St.",
        "tag": "7921",
        "stopId": "7921"
      },
      "geometry": {
        "type": "Point",
        "coordinates": [
          -93.61027,
          42.0112
        ]
      }
    },
    {
      "type": "Feature",
      "properties": {
        "title": "S. Duff Ave. at S. 16th St.",
        "tag": "7930",
        "stopId": "7930"
      },
      "geometry": {
        "type": "Point",
        "coordinates": [
          -93.61003,
          42.00867
        ]
      }
    },
    {
      "type": "Feature",
      "properties": {
        "title": "S. Duff Ave. at Airport Rd.",
        "tag": "7940",
        "stopId": "7940"
      },
      "geometry": {
        "type": "Point",
        "coordinates": [
          -93.60986,
          42.00088
        ]
      }
    },
    {
      "type": "Feature",
      "properties": {
        "title": "S. Duff Ave. at Airport Rd.",
        "tag": "7941",
        "stopId": "7941"
      },
      "geometry": {
        "type": "Point",
        "coordinates": [
          -93.6101408,
          42.0007697
        ]
      }
    },
    {
      "type": "Feature",
      "properties": {
        "title": "Emerald Dr. at Garden Rd.",
        "tag": "7950",
        "stopId": "7950"
      },
      "geometry": {
        "type": "Point",
        "coordinates": [
          -93.60814,
          41.9901299
        ]
      }
    },
    {
      "type": "Feature",
      "properties": {
        "title": "Emerald Dr. at Jewel Dr.",
        "tag": "7960",
        "stopId": "7960"
      },
      "geometry": {
        "type": "Point",
        "coordinates": [
          -93.60823,
          41.99206
        ]
      }
    },
    {
      "type": "Feature",
      "properties": {
        "title": "Opal Dr. at Jewel Dr.",
        "tag": "7970",
        "stopId": "7970"
      },
      "geometry": {
        "type": "Point",
        "coordinates": [
          -93.60754,
          41.9935599
        ]
      }
    },
    {
      "type": "Feature",
      "properties": {
        "title": "Crystal St. at Opal Dr.",
        "tag": "7980",
        "stopId": "7980"
      },
      "geometry": {
        "type": "Point",
        "coordinates": [
          -93.6088699,
          41.99513
        ]
      }
    },
    {
      "type": "Feature",
      "properties": {
        "title": "Welch Ave. at Chamberlain St.",
        "tag": "8790",
        "stopId": "8790"
      },
      "geometry": {
        "type": "Point",
        "coordinates": [
          -93.65011,
          42.02132
        ]
      }
    },