{
  "data": {
    "boydhall": {
      "lon": "-74.1742469",
      "title": "Boyden Hall",
      "tag": "boydhall",
      "lat": "40.740978"
    },
    "njit": {
      "lon": "-74.1788106",
      "title": "NJIT",
      "tag": "njit",
      "lat": "40.7411918"
    },
    "harrpass": {
      "lon": "-74.1639135",
      "title": "Harrison Ave & Passaic Ave",
      "shortTitle": "Harrison & Passaic",
      "tag": "harrpass",
      "lat": "40.745337"
    },
    "frodclev": {
      "lon": "-74.1562525",
      "title": "Frank E. Rodgers Blvd and Cleveland Ave",
      "shortTitle": "Frank E. Rodgers & Cleveland",
      "tag": "frodclev",
      "lat": "40.7468895"
    },
    "kearduke": {
      "lon": "-74.1554285",
      "title": "Kearny Ave & Dukes St.",
      "shortTitle": "Kearny & Dukes",
      "tag": "kearduke",
      "lat": "40.7554732"
    },
    "kearberg": {
      "lon": "-74.1518061",
      "title": "Kearny Ave and Bergen Ave",
      "shortTitle": "Kearny & Bergen",
      "tag": "kearberg",
      "lat": "40.7592058"
    },
    "kearquin": {
      "lon": "-74.147548",
      "title": "Kearny Ave and Quincy St",
      "shortTitle": "Kearny & Quincy",
      "tag": "kearquin",
      "lat": "40.7659535"
    },
    "kearmidl": {
      "lon": "-74.145217",
      "title": "Kearny Ave and Midland Ave",
      "shortTitle": "Kearny & Midland",
      "tag": "kearmidl",
      "lat": "40.770516"
    },
    "kmart": {
      "lon": "-74.1603552",
      "title": "K-Mart",
      "tag": "kmart",
      "lat": "40.7601654"
    },
    "shoplite": {
      "lon": "-74.1619453",
      "title": "ShopRite",
      "tag": "shoplite",
      "lat": "40.7566123"
    },
    "pennstat": {
      "lon": "-74.1647207",
      "title": "Penn Station",
      "tag": "pennstat",
      "lat": "40.7348193"
    },
    "pennstat_nt": {
      "lon": "-74.1645258",
      "title": "Penn Station Night",
      "tag": "pennstat_nt",
      "lat": "40.7338639"
    },
    "medischo": {
      "lon": "-74.1895674",
      "title": "Medical School",
      "tag": "medischo",
      "lat": "40.7397188"
    },
    "hosp": {
      "lon": "-74.1915809",
      "title": "Hospital",
      "tag": "hosp",
      "lat": "40.7418682"
    },
    "bergbldg": {
      "lon": "-74.1929929",
      "title": "Bergen Bldg (back)",
      "tag": "bergbldg",
      "lat": "40.7432589"
    },
    "dentschl": {
      "lon": "-74.1902941",
      "title": "Dental School",
      "tag": "dentschl",
      "lat": "40.7422847"
    },
    "mark180": {
      "lon": "-74.1869549",
      "title": "180 W Market St",
      "shortTitle": "180 W Market",
      "tag": "mark180",
      "lat": "40.7412743"
    },
    "icph": {
      "lon": "-74.183882",
      "title": "ICPH",
      "tag": "icph",
      "lat": "40.742787"
    },
    "blumhall": {
      "lon": "-74.175143",
      "title": "Blumenthal Hall",
      "tag": "blumhall",
      "lat": "40.739281"
    },
    "boyd": {
      "lon": "-74.17427",
      "title": "Boyden Hall",
      "tag": "boyd",
      "lat": "40.74094"
    },
    "pennback": {
      "lon": "-74.1645207",
      "title": "Penn Station Backside",
      "tag": "pennback",
      "lat": "40.733863"
    },
    "boydhall_c": {
      "lon": "-74.1742469",
      "title": "Boyden Hall",
      "tag": "boydhall_c",
      "lat": "40.740978"
    },
    "icph_e": {
      "lon": "-74.183861",
      "title": "ICPH",
      "tag": "icph_e",
      "lat": "40.742869"
    },
    "bergbuil": {
      "lon": "-74.191461",
      "title": "Bergen Building",
      "tag": "bergbuil",
      "lat": "40.7433857"
    },
    "ecc": {
      "lon": "-74.1785048",
      "title": "ECC",
      "tag": "ecc",
      "lat": "40.7365973"
    },
    "teacvilla": {
      "lon": "-74.1752089",
      "title": "Teachers Village",
      "tag": "teacvilla",
      "lat": "40.7362338"
    },
    "clj": {
      "lon": "-74.1725911",
      "title": "CLJ",
      "tag": "clj",
      "lat": "40.7404206"
    },
    "washpark": {
      "lon": "-74.170569",
      "title": "Washington Park",
      "tag": "washpark",
      "lat": "40.7437891"
    },
    "broad": {
      "lon": "-74.1711011",
      "title": "BROAD ST",
      "shortTitle": "BROAD",
      "tag": "broad",
      "lat": "40.746906"
    },
    "univnort": {
      "lon": "-74.1717505",
      "title": "University North",
      "tag": "univnort",
      "lat": "40.7461458"
    },
    "physplan": {
      "lon": "-74.1725394",
      "title": "Physical Plant",
      "tag": "physplan",
      "lat": "40.7444909"
    }
  },
  "copyright": "All data copyright Rutgers Univ. Newark College Town Shuttle 2018."
}